{
  "TrainName": "LTT SPJ SF SPL",
  "TrainNo": 1043,
  "TrainNumberString": null,
  "CoachPosition": null,
  "Classes": [
    "1A",
    "2A",
    "3E",
    "SL"
  ],
  "Schedule": [
    {
      "intermediateStations": [
        {
          "StationName": "Vidyavihar",
          "StationCode": "VVH",
          "ArrivalTime": "12:16",
          "DepartureTime": "12:16",
          "HaltMinutes": "&nbsp;",
          "Day": 1,
          "Latitude": 19.07964,
          "Longitude": 72.89761,
          "stopNumberDisplay": "1.1",
          "Distance": "1.2"
        },
        {
          "StationName": "Ghatkopar",
          "StationCode": "GC",
          "ArrivalTime": "12:18",
          "DepartureTime": "12:18",
          "HaltMinutes": "&nbsp;",
          "Day": 1,
          "Latitude": 19.0856,
          "Longitude": 72.90812,
          "stopNumberDisplay": "1.2",
          "Distance": "2.5"
        },
        {
          "StationName": "Vikhroli",
          "StationCode": "VK",
          "ArrivalTime": "12:21",
          "DepartureTime": "12:21",
          "HaltMinutes": "&nbsp;",
          "Day": 1,
          "Latitude": 19.11194,
          "Longitude": 72.92847,
          "stopNumberDisplay": "1.3",
          "Distance": "6.3"
        },
        {
          "StationName": "Kanjur Marg",
          "StationCode": "KJRD",
          "ArrivalTime": "12:23",
          "DepartureTime": "12:23",
          "HaltMinutes": "&nbsp;",
          "Day": 1,
          "Latitude": null,
          "Longitude": null,
          "stopNumberDisplay": "1.4",
          "Distance": "8.1"
        },
        {
          "StationName": "Bhandup",
          "StationCode": "BND",
          "ArrivalTime": "12:25",
          "DepartureTime": "12:25",
          "HaltMinutes": "&nbsp;",
          "Day": 1,
          "Latitude": 19.14228,
          "Longitude": 72.93779,
          "stopNumberDisplay": "1.5",
          "Distance": "9.9"
        },
        {
          "StationName": "Nahur",
          "StationCode": "NHU",
          "ArrivalTime": "12:27",
          "DepartureTime": "12:27",
          "HaltMinutes": "&nbsp;",
          "Day": 1,
          "Latitude": 19.15452,
          "Longitude": 72.94683,
          "stopNumberDisplay": "1.6",
          "Distance": "11.6"
        },
        {
          "StationName": "Mulund Depot",
          "StationCode": "CRNM",
          "ArrivalTime": "12:28",
          "DepartureTime": "12:28",
          "HaltMinutes": "&nbsp;",
          "Day": 1,
          "Latitude": 19.1638,
          "Longitude": 72.95099,
          "stopNumberDisplay": "1.7",
          "Distance": "12.7"
        },
        {
          "StationName": "Mulund",
          "StationCode": "MLND",
          "ArrivalTime": "12:29",
          "DepartureTime": "12:29",
          "HaltMinutes": "&nbsp;",
          "Day": 1,
          "Latitude": 19.17173,
          "Longitude": 72.95663,
          "stopNumberDisplay": "1.8",
          "Distance": "13.8"
        },
        {
          "StationName": "Thane",
          "StationCode": "TNA",
          "ArrivalTime": "12:32",
          "DepartureTime": "12:32",
          "HaltMinutes": "&nbsp;",
          "Day": 1,
          "Latitude": 19.18586,
          "Longitude": 72.97627,
          "stopNumberDisplay": "1.9",
          "Distance": "16.5"
        },
        {
          "StationName": "Thane B Cabin",
          "StationCode": "XX-TNAB",
          "ArrivalTime": "12:34",
          "DepartureTime": "12:34",
          "HaltMinutes": "&nbsp;",
          "Day": 1,
          "Latitude": 19.19128,
          "Longitude": 72.99957,
          "stopNumberDisplay": "1.10",
          "Distance": "19.1"
        },
        {
          "StationName": "Parsik Tunnel",
          "StationCode": "YY-PSKT",
          "ArrivalTime": "12:35",
          "DepartureTime": "12:35",
          "HaltMinutes": "&nbsp;",
          "Day": 1,
          "Latitude": null,
          "Longitude": null,
          "stopNumberDisplay": "1.11",
          "Distance": "20.0"
        },
        {
          "StationName": "Diva Jn",
          "StationCode": "DIVA",
          "ArrivalTime": "12:39",
          "DepartureTime": "12:39",
          "HaltMinutes": "&nbsp;",
          "Day": 1,
          "Latitude": 19.18884,
          "Longitude": 73.04291,
          "stopNumberDisplay": "1.12",
          "Distance": "23.7"
        },
        {
          "StationName": "Diva Jn Cabin",
          "StationCode": "DWJN",
          "ArrivalTime": "12:41",
          "DepartureTime": "12:41",
          "HaltMinutes": "&nbsp;",
          "Day": 1,
          "Latitude": 19.1959,
          "Longitude": 73.0577,
          "stopNumberDisplay": "1.13",
          "Distance": "25.5"
        },
        {
          "StationName": "Kopar",
          "StationCode": "KOPR",
          "ArrivalTime": "12:44",
          "DepartureTime": "12:44",
          "HaltMinutes": "&nbsp;",
          "Day": 1,
          "Latitude": 19.212961,
          "Longitude": 73.078853,
          "stopNumberDisplay": "1.14",
          "Distance": "28.2"
        },
        {
          "StationName": "Dombivli Control Cabin",
          "StationCode": "DDCL",
          "ArrivalTime": "12:44",
          "DepartureTime": "12:44",
          "HaltMinutes": "&nbsp;",
          "Day": 1,
          "Latitude": null,
          "Longitude": null,
          "stopNumberDisplay": "1.15",
          "Distance": "28.5"
        },
        {
          "StationName": "Dombivli",
          "StationCode": "DI",
          "ArrivalTime": "12:45",
          "DepartureTime": "12:45",
          "HaltMinutes": "&nbsp;",
          "Day": 1,
          "Latitude": 19.21812,
          "Longitude": 73.08689,
          "stopNumberDisplay": "1.16",
          "Distance": "29.5"
        },
        {
          "StationName": "Thakurli",
          "StationCode": "THK",
          "ArrivalTime": "12:46",
          "DepartureTime": "12:46",
          "HaltMinutes": "&nbsp;",
          "Day": 1,
          "Latitude": 19.22616,
          "Longitude": 73.0981,
          "stopNumberDisplay": "1.17",
          "Distance": "31.0"
        },
        {
          "StationName": "Kalyan Jn Yard",
          "StationCode": "KYNX",
          "ArrivalTime": "12:49",
          "DepartureTime": "12:49",
          "HaltMinutes": "&nbsp;",
          "Day": 1,
          "Latitude": 19.23293,
          "Longitude": 73.12379,
          "stopNumberDisplay": "1.18",
          "Distance": "33.8"
        }
      ],
      "TrainNo": 1043,
      "StationCode": "LTT",
      "RouteNo": null,
      "StopNumber": 1,
      "TrainMappingKey": null,
      "StationName": "Mumbai LTT",
      "ArrivalTime": "",
      "DepartureTime": "12:15",
      "HaltMinutes": "",
      "Distance": "0.0",
      "HasWifi": false,
      "Day": 1,
      "DataChanged": false,
      "ExpectedPlatformNo": null,
      "arrivalDelay": null,
      "departureDelay": null,
      "Latitude": null,
      "Longitude": null,
      "stopNumberDisplay": 1
    },
    {
      "intermediateStations": [
        {
          "StationName": "Shahad",
          "StationCode": "SHAD",
          "ArrivalTime": "12:59",
          "DepartureTime": "12:59",
          "HaltMinutes": "&nbsp;",
          "Day": 1,
          "Latitude": 19.24421,
          "Longitude": 73.15855,
          "stopNumberDisplay": "2.1",
          "Distance": "37.7"
        },
        {
          "StationName": "Ambivli",
          "StationCode": "ABY",
          "ArrivalTime": "13:03",
          "DepartureTime": "13:03",
          "HaltMinutes": "&nbsp;",
          "Day": 1,
          "Latitude": 19.26763,
          "Longitude": 73.17203,
          "stopNumberDisplay": "2.2",
          "Distance": "40.7"
        },
        {
          "StationName": "Titvala",
          "StationCode": "TLA",
          "ArrivalTime": "13:09",
          "DepartureTime": "13:09",
          "HaltMinutes": "&nbsp;",
          "Day": 1,
          "Latitude": 19.29672,
          "Longitude": 73.20344,
          "stopNumberDisplay": "2.3",
          "Distance": "45.5"
        },
        {
          "StationName": "Khadavli",
          "StationCode": "KDV",
          "ArrivalTime": "13:19",
          "DepartureTime": "13:19",
          "HaltMinutes": "&nbsp;",
          "Day": 1,
          "Latitude": 19.35657,
          "Longitude": 73.21907,
          "stopNumberDisplay": "2.4",
          "Distance": "53.0"
        },
        {
          "StationName": "Vasind",
          "StationCode": "VSD",
          "ArrivalTime": "13:29",
          "DepartureTime": "13:29",
          "HaltMinutes": "&nbsp;",
          "Day": 1,
          "Latitude": 19.40637,
          "Longitude": 73.2673,
          "stopNumberDisplay": "2.5",
          "Distance": "60.7"
        },
        {
          "StationName": "Asangaon",
          "StationCode": "ASO",
          "ArrivalTime": "13:36",
          "DepartureTime": "13:36",
          "HaltMinutes": "&nbsp;",
          "Day": 1,
          "Latitude": 19.43921,
          "Longitude": 73.30781,
          "stopNumberDisplay": "2.6",
          "Distance": "66.6"
        },
        {
          "StationName": "Atgaon",
          "StationCode": "ATG",
          "ArrivalTime": "13:49",
          "DepartureTime": "13:49",
          "HaltMinutes": "&nbsp;",
          "Day": 1,
          "Latitude": 19.50446,
          "Longitude": 73.32816,
          "stopNumberDisplay": "2.7",
          "Distance": "76.4"
        },
        {
          "StationName": "Thansit",
          "StationCode": "THS",
          "ArrivalTime": "13:56",
          "DepartureTime": "13:56",
          "HaltMinutes": "&nbsp;",
          "Day": 1,
          "Latitude": 19.55008,
          "Longitude": 73.35176,
          "stopNumberDisplay": "2.8",
          "Distance": "82.3"
        },
        {
          "StationName": "Khardi",
          "StationCode": "KE",
          "ArrivalTime": "14:04",
          "DepartureTime": "14:04",
          "HaltMinutes": "&nbsp;",
          "Day": 1,
          "Latitude": 19.58017,
          "Longitude": 73.39407,
          "stopNumberDisplay": "2.9",
          "Distance": "88.5"
        },
        {
          "StationName": "Oombermali",
          "StationCode": "OMB",
          "ArrivalTime": "14:13",
          "DepartureTime": "14:13",
          "HaltMinutes": "&nbsp;",
          "Day": 1,
          "Latitude": 19.62835,
          "Longitude": 73.42296,
          "stopNumberDisplay": "2.10",
          "Distance": "95.1"
        },
        {
          "StationName": "Kasara",
          "StationCode": "KSRA",
          "ArrivalTime": "14:22",
          "DepartureTime": "14:22",
          "HaltMinutes": "&nbsp;",
          "Day": 1,
          "Latitude": 19.6483438,
          "Longitude": 73.4730793,
          "stopNumberDisplay": "2.11",
          "Distance": "102.0"
        },
        {
          "StationName": "Block Catch Siding Cabin 3",
          "StationCode": "TGR3",
          "ArrivalTime": "14:26",
          "DepartureTime": "14:26",
          "HaltMinutes": "&nbsp;",
          "Day": 1,
          "Latitude": 19.67489,
          "Longitude": 73.48647,
          "stopNumberDisplay": "2.12",
          "Distance": "105.6"
        },
        {
          "StationName": "Block Catch Siding Cabin 2",
          "StationCode": "TGR2",
          "ArrivalTime": "14:31",
          "DepartureTime": "14:31",
          "HaltMinutes": "&nbsp;",
          "Day": 1,
          "Latitude": 19.70149,
          "Longitude": 73.5001,
          "stopNumberDisplay": "2.13",
          "Distance": "109.1"
        },
        {
          "StationName": "Block Catch Siding Cabin 1",
          "StationCode": "TGR1",
          "ArrivalTime": "14:34",
          "DepartureTime": "14:34",
          "HaltMinutes": "&nbsp;",
          "Day": 1,
          "Latitude": 19.70036,
          "Longitude": 73.51931,
          "stopNumberDisplay": "2.14",
          "Distance": "111.4"
        }
      ],
      "TrainNo": 1043,
      "StationCode": "KYN",
      "RouteNo": null,
      "StopNumber": 2,
      "TrainMappingKey": null,
      "StationName": "Kalyan Jn",
      "ArrivalTime": "12:50",
      "DepartureTime": "12:55",
      "HaltMinutes": "5m",
      "Distance": "34.6",
      "HasWifi": false,
      "Day": 1,
      "DataChanged": false,
      "ExpectedPlatformNo": null,
      "arrivalDelay": null,
      "departureDelay": null,
      "Latitude": 19.23506,
      "Longitude": 73.13023,
      "stopNumberDisplay": 2
    },
    {
      "intermediateStations": [
        {
          "StationName": "Igatpuri Yard",
          "StationCode": "IGPX",
          "ArrivalTime": "14:46",
          "DepartureTime": "14:46",
          "HaltMinutes": "&nbsp;",
          "Day": 1,
          "Latitude": 19.69236,
          "Longitude": 73.57575,
          "stopNumberDisplay": "3.1",
          "Distance": "117.7"
        },
        {
          "StationName": "Ghoti",
          "StationCode": "GO",
          "ArrivalTime": "14:49",
          "DepartureTime": "14:49",
          "HaltMinutes": "&nbsp;",
          "Day": 1,
          "Latitude": 19.71443,
          "Longitude": 73.63285,
          "stopNumberDisplay": "3.2",
          "Distance": "124.3"
        },
        {
          "StationName": "Padli",
          "StationCode": "PI",
          "ArrivalTime": "14:54",
          "DepartureTime": "14:54",
          "HaltMinutes": "&nbsp;",
          "Day": 1,
          "Latitude": 19.78128,
          "Longitude": 73.66216,
          "stopNumberDisplay": "3.3",
          "Distance": "132.6"
        },
        {
          "StationName": "Asvali",
          "StationCode": "AV",
          "ArrivalTime": "14:58",
          "DepartureTime": "14:58",
          "HaltMinutes": "&nbsp;",
          "Day": 1,
          "Latitude": 19.8228,
          "Longitude": 73.71316,
          "stopNumberDisplay": "3.4",
          "Distance": "141.1"
        },
        {
          "StationName": "Lahavit",
          "StationCode": "LT",
          "ArrivalTime": "15:03",
          "DepartureTime": "15:03",
          "HaltMinutes": "&nbsp;",
          "Day": 1,
          "Latitude": 19.84899,
          "Longitude": 73.79859,
          "stopNumberDisplay": "3.5",
          "Distance": "149.9"
        },
        {
          "StationName": "Devlali",
          "StationCode": "DVL",
          "ArrivalTime": "15:09",
          "DepartureTime": "15:09",
          "HaltMinutes": "&nbsp;",
          "Day": 1,
          "Latitude": 19.89685,
          "Longitude": 73.83696,
          "stopNumberDisplay": "3.6",
          "Distance": "161.1"
        }
      ],
      "TrainNo": 1043,
      "StationCode": "IGP",
      "RouteNo": null,
      "StopNumber": 3,
      "TrainMappingKey": null,
      "StationName": "Igatpuri",
      "ArrivalTime": "14:40",
      "DepartureTime": "14:45",
      "HaltMinutes": "5m",
      "Distance": "116.1",
      "HasWifi": false,
      "Day": 1,
      "DataChanged": false,
      "ExpectedPlatformNo": null,
      "arrivalDelay": null,
      "departureDelay": null,
      "Latitude": 19.69372,
      "Longitude": 73.56316,
      "stopNumberDisplay": 3
    },
    {
      "intermediateStations": [
        {
          "StationName": "Odha",
          "StationCode": "ODHA",
          "ArrivalTime": "15:26",
          "DepartureTime": "15:26",
          "HaltMinutes": "&nbsp;",
          "Day": 1,
          "Latitude": 20.0177,
          "Longitude": 73.91355,
          "stopNumberDisplay": "4.1",
          "Distance": "178.5"
        },
        {
          "StationName": "Khervadi",
          "StationCode": "KW",
          "ArrivalTime": "15:32",
          "DepartureTime": "15:32",
          "HaltMinutes": "&nbsp;",
          "Day": 1,
          "Latitude": 20.04625,
          "Longitude": 73.97342,
          "stopNumberDisplay": "4.2",
          "Distance": "185.6"
        },
        {
          "StationName": "Kasbe Sukene",
          "StationCode": "KBSN",
          "ArrivalTime": "15:38",
          "DepartureTime": "15:38",
          "HaltMinutes": "&nbsp;",
          "Day": 1,
          "Latitude": 20.07407,
          "Longitude": 74.03115,
          "stopNumberDisplay": "4.3",
          "Distance": "192.2"
        },
        {
          "StationName": "Niphad",
          "StationCode": "NR",
          "ArrivalTime": "15:44",
          "DepartureTime": "15:44",
          "HaltMinutes": "&nbsp;",
          "Day": 1,
          "Latitude": 20.09672,
          "Longitude": 74.07969,
          "stopNumberDisplay": "4.4",
          "Distance": "198.3"
        },
        {
          "StationName": "Ugaon",
          "StationCode": "UGN",
          "ArrivalTime": "15:50",
          "DepartureTime": "15:50",
          "HaltMinutes": "&nbsp;",
          "Day": 1,
          "Latitude": 20.12323,
          "Longitude": 74.13925,
          "stopNumberDisplay": "4.5",
          "Distance": "205.2"
        },
        {
          "StationName": "Lasalgaon",
          "StationCode": "LS",
          "ArrivalTime": "15:59",
          "DepartureTime": "15:59",
          "HaltMinutes": "&nbsp;",
          "Day": 1,
          "Latitude": 20.1549,
          "Longitude": 74.22586,
          "stopNumberDisplay": "4.6",
          "Distance": "215.1"
        },
        {
          "StationName": "Summit",
          "StationCode": "SUM",
          "ArrivalTime": "16:12",
          "DepartureTime": "16:12",
          "HaltMinutes": "&nbsp;",
          "Day": 1,
          "Latitude": 20.20403,
          "Longitude": 74.32965,
          "stopNumberDisplay": "4.7",
          "Distance": "228.8"
        },
        {
          "StationName": "Manmad Goods Yard",
          "StationCode": "YY-MMRX",
          "ArrivalTime": "16:21",
          "DepartureTime": "16:21",
          "HaltMinutes": "&nbsp;",
          "Day": 1,
          "Latitude": null,
          "Longitude": null,
          "stopNumberDisplay": "4.8",
          "Distance": "239.4"
        },
        {
          "StationName": "Manmad Jn",
          "StationCode": "MMR",
          "ArrivalTime": "16:22",
          "DepartureTime": "16:22",
          "HaltMinutes": "&nbsp;",
          "Day": 1,
          "Latitude": 20.24984,
          "Longitude": 74.43809,
          "stopNumberDisplay": "4.9",
          "Distance": "239.7"
        },
        {
          "StationName": "Panevadi",
          "StationCode": "PNV",
          "ArrivalTime": "16:26",
          "DepartureTime": "16:26",
          "HaltMinutes": "&nbsp;",
          "Day": 1,
          "Latitude": 20.26298,
          "Longitude": 74.48538,
          "stopNumberDisplay": "4.10",
          "Distance": "244.9"
        },
        {
          "StationName": "Hisvahal",
          "StationCode": "HSL",
          "ArrivalTime": "16:34",
          "DepartureTime": "16:34",
          "HaltMinutes": "&nbsp;",
          "Day": 1,
          "Latitude": 20.28134,
          "Longitude": 74.56039,
          "stopNumberDisplay": "4.11",
          "Distance": "253.1"
        },
        {
          "StationName": "Panjhan",
          "StationCode": "PJN",
          "ArrivalTime": "16:39",
          "DepartureTime": "16:39",
          "HaltMinutes": "&nbsp;",
          "Day": 1,
          "Latitude": 20.27515,
          "Longitude": 74.61106,
          "stopNumberDisplay": "4.12",
          "Distance": "258.5"
        },
        {
          "StationName": "Nandgaon",
          "StationCode": "NGN",
          "ArrivalTime": "16:45",
          "DepartureTime": "16:45",
          "HaltMinutes": "&nbsp;",
          "Day": 1,
          "Latitude": 20.30934,
          "Longitude": 74.66037,
          "stopNumberDisplay": "4.13",
          "Distance": "265.1"
        },
        {
          "StationName": "Nandgaon Yard Cabin",
          "StationCode": "NGNX",
          "ArrivalTime": "16:46",
          "DepartureTime": "16:46",
          "HaltMinutes": "&nbsp;",
          "Day": 1,
          "Latitude": 20.314374,
          "Longitude": 74.666008,
          "stopNumberDisplay": "4.14",
          "Distance": "265.9"
        },
        {
          "StationName": "Pimpar Khed",
          "StationCode": "PKE",
          "ArrivalTime": "16:55",
          "DepartureTime": "16:55",
          "HaltMinutes": "&nbsp;",
          "Day": 1,
          "Latitude": 20.30763,
          "Longitude": 74.75621,
          "stopNumberDisplay": "4.15",
          "Distance": "275.8"
        },
        {
          "StationName": "Naydongri",
          "StationCode": "NI",
          "ArrivalTime": "17:04",
          "DepartureTime": "17:04",
          "HaltMinutes": "&nbsp;",
          "Day": 1,
          "Latitude": 20.34866,
          "Longitude": 74.8369,
          "stopNumberDisplay": "4.16",
          "Distance": "285.6"
        },
        {
          "StationName": "Rohini",
          "StationCode": "RHNE",
          "ArrivalTime": "17:08",
          "DepartureTime": "17:08",
          "HaltMinutes": "&nbsp;",
          "Day": 1,
          "Latitude": 20.3713,
          "Longitude": 74.87458,
          "stopNumberDisplay": "4.17",
          "Distance": "290.3"
        },
        {
          "StationName": "Hirapur",
          "StationCode": "HPR",
          "ArrivalTime": "17:16",
          "DepartureTime": "17:16",
          "HaltMinutes": "&nbsp;",
          "Day": 1,
          "Latitude": 20.42443,
          "Longitude": 74.93673,
          "stopNumberDisplay": "4.18",
          "Distance": "299.2"
        },
        {
          "StationName": "Chalisgaon Jn",
          "StationCode": "CSN",
          "ArrivalTime": "17:23",
          "DepartureTime": "17:23",
          "HaltMinutes": "&nbsp;",
          "Day": 1,
          "Latitude": 20.46376,
          "Longitude": 74.99902,
          "stopNumberDisplay": "4.19",
          "Distance": "307.1"
        },
        {
          "StationName": "Vaghli",
          "StationCode": "VGL",
          "ArrivalTime": "17:32",
          "DepartureTime": "17:32",
          "HaltMinutes": "&nbsp;",
          "Day": 1,
          "Latitude": 20.51784,
          "Longitude": 75.06819,
          "stopNumberDisplay": "4.20",
          "Distance": "316.5"
        },
        {
          "StationName": "Kajgaon",
          "StationCode": "KJ",
          "ArrivalTime": "17:41",
          "DepartureTime": "17:41",
          "HaltMinutes": "&nbsp;",
          "Day": 1,
          "Latitude": 20.57347,
          "Longitude": 75.14063,
          "stopNumberDisplay": "4.21",
          "Distance": "326.2"
        },
        {
          "StationName": "Nagardevla",
          "StationCode": "NGD",
          "ArrivalTime": "17:47",
          "DepartureTime": "17:47",
          "HaltMinutes": "&nbsp;",
          "Day": 1,
          "Latitude": 20.60325,
          "Longitude": 75.19853,
          "stopNumberDisplay": "4.22",
          "Distance": "333.1"
        },
        {
          "StationName": "Galan",
          "StationCode": "GAA",
          "ArrivalTime": "17:55",
          "DepartureTime": "17:55",
          "HaltMinutes": "&nbsp;",
          "Day": 1,
          "Latitude": 20.60962,
          "Longitude": 75.2775,
          "stopNumberDisplay": "4.23",
          "Distance": "341.4"
        },
        {
          "StationName": "Pachora Jn",
          "StationCode": "PC",
          "ArrivalTime": "18:04",
          "DepartureTime": "18:04",
          "HaltMinutes": "&nbsp;",
          "Day": 1,
          "Latitude": 20.66873,
          "Longitude": 75.34921,
          "stopNumberDisplay": "4.24",
          "Distance": "352.0"
        },
        {
          "StationName": "Pardhade",
          "StationCode": "PHQ",
          "ArrivalTime": "18:11",
          "DepartureTime": "18:11",
          "HaltMinutes": "&nbsp;",
          "Day": 1,
          "Latitude": 20.729884,
          "Longitude": 75.377346,
          "stopNumberDisplay": "4.25",
          "Distance": "359.4"
        },
        {
          "StationName": "Maheji",
          "StationCode": "MYJ",
          "ArrivalTime": "18:18",
          "DepartureTime": "18:18",
          "HaltMinutes": "&nbsp;",
          "Day": 1,
          "Latitude": 20.768825,
          "Longitude": 75.424614,
          "stopNumberDisplay": "4.26",
          "Distance": "366.8"
        },
        {
          "StationName": "Mhasavad",
          "StationCode": "MWD",
          "ArrivalTime": "18:29",
          "DepartureTime": "18:29",
          "HaltMinutes": "&nbsp;",
          "Day": 1,
          "Latitude": 20.870572,
          "Longitude": 75.458767,
          "stopNumberDisplay": "4.27",
          "Distance": "378.6"
        },
        {
          "StationName": "Shirsoli",
          "StationCode": "SS",
          "ArrivalTime": "18:37",
          "DepartureTime": "18:37",
          "HaltMinutes": "&nbsp;",
          "Day": 1,
          "Latitude": 20.934689,
          "Longitude": 75.508645,
          "stopNumberDisplay": "4.28",
          "Distance": "388.0"
        },
        {
          "StationName": "Jalgaon Jn",
          "StationCode": "JL",
          "ArrivalTime": "18:48",
          "DepartureTime": "18:48",
          "HaltMinutes": "&nbsp;",
          "Day": 1,
          "Latitude": 21.0182,
          "Longitude": 75.5631,
          "stopNumberDisplay": "4.29",
          "Distance": "399.7"
        },
        {
          "StationName": "Tarsod",
          "StationCode": "TRW",
          "ArrivalTime": "18:55",
          "DepartureTime": "18:55",
          "HaltMinutes": "&nbsp;",
          "Day": 1,
          "Latitude": 21.0252,
          "Longitude": 75.608,
          "stopNumberDisplay": "4.30",
          "Distance": "407.2"
        },
        {
          "StationName": "Bhadli",
          "StationCode": "BDI",
          "ArrivalTime": "18:59",
          "DepartureTime": "18:59",
          "HaltMinutes": "&nbsp;",
          "Day": 1,
          "Latitude": 21.0233,
          "Longitude": 75.6731,
          "stopNumberDisplay": "4.31",
          "Distance": "411.5"
        }
      ],
      "TrainNo": 1043,
      "StationCode": "NK",
      "RouteNo": null,
      "StopNumber": 4,
      "TrainMappingKey": null,
      "StationName": "Nashik Road",
      "ArrivalTime": "15:12",
      "DepartureTime": "15:15",
      "HaltMinutes": "3m",
      "Distance": "166.7",
      "HasWifi": true,
      "Day": 1,
      "DataChanged": false,
      "ExpectedPlatformNo": null,
      "arrivalDelay": null,
      "departureDelay": null,
      "Latitude": 19.94793,
      "Longitude": 73.84263,
      "stopNumberDisplay": 4
    },
    {
      "intermediateStations": [
        {
          "StationName": "Bhusaval Jn Yard",
          "StationCode": "BSLX",
          "ArrivalTime": "19:16",
          "DepartureTime": "19:16",
          "HaltMinutes": "&nbsp;",
          "Day": 1,
          "Latitude": 21.0478,
          "Longitude": 75.7995,
          "stopNumberDisplay": "5.1",
          "Distance": "425.1"
        },
        {
          "StationName": "Bhusaval Goods Yard",
          "StationCode": "BSGS",
          "ArrivalTime": "19:18",
          "DepartureTime": "19:18",
          "HaltMinutes": "&nbsp;",
          "Day": 1,
          "Latitude": 21.04813,
          "Longitude": 75.81038,
          "stopNumberDisplay": "5.2",
          "Distance": "426.6"
        },
        {
          "StationName": "Bhusaval B Cabin",
          "StationCode": "BSBN",
          "ArrivalTime": "19:20",
          "DepartureTime": "19:20",
          "HaltMinutes": "&nbsp;",
          "Day": 1,
          "Latitude": 21.05443,
          "Longitude": 75.82838,
          "stopNumberDisplay": "5.3",
          "Distance": "428.3"
        },
        {
          "StationName": "Duskheda",
          "StationCode": "DSK",
          "ArrivalTime": "19:23",
          "DepartureTime": "19:23",
          "HaltMinutes": "&nbsp;",
          "Day": 1,
          "Latitude": 21.07345,
          "Longitude": 75.83928,
          "stopNumberDisplay": "5.4",
          "Distance": "430.7"
        },
        {
          "StationName": "Savda",
          "StationCode": "SAV",
          "ArrivalTime": "19:33",
          "DepartureTime": "19:33",
          "HaltMinutes": "&nbsp;",
          "Day": 1,
          "Latitude": 21.11062,
          "Longitude": 75.91042,
          "stopNumberDisplay": "5.5",
          "Distance": "439.3"
        },
        {
          "StationName": "Nimbhora",
          "StationCode": "NB",
          "ArrivalTime": "19:43",
          "DepartureTime": "19:43",
          "HaltMinutes": "&nbsp;",
          "Day": 1,
          "Latitude": 21.16043,
          "Longitude": 75.97479,
          "stopNumberDisplay": "5.6",
          "Distance": "448.0"
        },
        {
          "StationName": "Raver",
          "StationCode": "RV",
          "ArrivalTime": "19:54",
          "DepartureTime": "19:54",
          "HaltMinutes": "&nbsp;",
          "Day": 1,
          "Latitude": 21.22213,
          "Longitude": 76.04454,
          "stopNumberDisplay": "5.7",
          "Distance": "458.0"
        },
        {
          "StationName": "Waghoda",
          "StationCode": "WGA",
          "ArrivalTime": "20:06",
          "DepartureTime": "20:06",
          "HaltMinutes": "&nbsp;",
          "Day": 1,
          "Latitude": 21.27948,
          "Longitude": 76.12049,
          "stopNumberDisplay": "5.8",
          "Distance": "468.2"
        },
        {
          "StationName": "Burhanpur",
          "StationCode": "BAU",
          "ArrivalTime": "20:18",
          "DepartureTime": "20:18",
          "HaltMinutes": "&nbsp;",
          "Day": 1,
          "Latitude": 21.33481,
          "Longitude": 76.19926,
          "stopNumberDisplay": "5.9",
          "Distance": "478.4"
        },
        {
          "StationName": "Asirgarh Road",
          "StationCode": "AGQ",
          "ArrivalTime": "20:28",
          "DepartureTime": "20:28",
          "HaltMinutes": "&nbsp;",
          "Day": 1,
          "Latitude": 21.37813,
          "Longitude": 76.26782,
          "stopNumberDisplay": "5.10",
          "Distance": "487.4"
        },
        {
          "StationName": "Chandni",
          "StationCode": "CDI",
          "ArrivalTime": "20:40",
          "DepartureTime": "20:40",
          "HaltMinutes": "&nbsp;",
          "Day": 1,
          "Latitude": 21.42595,
          "Longitude": 76.34877,
          "stopNumberDisplay": "5.11",
          "Distance": "497.6"
        },
        {
          "StationName": "Nepanagar",
          "StationCode": "NPNR",
          "ArrivalTime": "20:48",
          "DepartureTime": "20:48",
          "HaltMinutes": "&nbsp;",
          "Day": 1,
          "Latitude": 21.46399,
          "Longitude": 76.39708,
          "stopNumberDisplay": "5.12",
          "Distance": "504.7"
        },
        {
          "StationName": "Mandwa",
          "StationCode": "MWA",
          "ArrivalTime": "20:55",
          "DepartureTime": "20:55",
          "HaltMinutes": "&nbsp;",
          "Day": 1,
          "Latitude": 21.51575,
          "Longitude": 76.39162,
          "stopNumberDisplay": "5.13",
          "Distance": "510.6"
        },
        {
          "StationName": "Sagphata",
          "StationCode": "SXA",
          "ArrivalTime": "21:01",
          "DepartureTime": "21:01",
          "HaltMinutes": "&nbsp;",
          "Day": 1,
          "Latitude": 21.55669,
          "Longitude": 76.39251,
          "stopNumberDisplay": "5.14",
          "Distance": "516.5"
        },
        {
          "StationName": "Dongargaon",
          "StationCode": "DGN",
          "ArrivalTime": "21:10",
          "DepartureTime": "21:10",
          "HaltMinutes": "&nbsp;",
          "Day": 1,
          "Latitude": 21.62018,
          "Longitude": 76.37094,
          "stopNumberDisplay": "5.15",
          "Distance": "524.2"
        },
        {
          "StationName": "Kohdad",
          "StationCode": "KDK",
          "ArrivalTime": "21:19",
          "DepartureTime": "21:19",
          "HaltMinutes": "&nbsp;",
          "Day": 1,
          "Latitude": 21.68463,
          "Longitude": 76.36461,
          "stopNumberDisplay": "5.16",
          "Distance": "531.8"
        },
        {
          "StationName": "Bagmar",
          "StationCode": "BMA",
          "ArrivalTime": "21:24",
          "DepartureTime": "21:24",
          "HaltMinutes": "&nbsp;",
          "Day": 1,
          "Latitude": 21.72526,
          "Longitude": 76.36345,
          "stopNumberDisplay": "5.17",
          "Distance": "536.3"
        },
        {
          "StationName": "Bargaon Gujar",
          "StationCode": "BRGJ",
          "ArrivalTime": "21:31",
          "DepartureTime": "21:31",
          "HaltMinutes": "&nbsp;",
          "Day": 1,
          "Latitude": 21.77699,
          "Longitude": 76.35558,
          "stopNumberDisplay": "5.18",
          "Distance": "542.2"
        },
        {
          "StationName": "Khandwa Jn Yard",
          "StationCode": "KNWX",
          "ArrivalTime": "21:36",
          "DepartureTime": "21:36",
          "HaltMinutes": "&nbsp;",
          "Day": 1,
          "Latitude": 21.81706,
          "Longitude": 76.35442,
          "stopNumberDisplay": "5.19",
          "Distance": "546.7"
        }
      ],
      "TrainNo": 1043,
      "StationCode": "BSL",
      "RouteNo": null,
      "StopNumber": 5,
      "TrainMappingKey": null,
      "StationName": "Bhusaval Jn",
      "ArrivalTime": "19:10",
      "DepartureTime": "19:15",
      "HaltMinutes": "5m",
      "Distance": "423.9",
      "HasWifi": true,
      "Day": 1,
      "DataChanged": false,
      "ExpectedPlatformNo": null,
      "arrivalDelay": null,
      "departureDelay": null,
      "Latitude": 21.04747,
      "Longitude": 75.78834,
      "stopNumberDisplay": 5
    },
    {
      "intermediateStations": [
        {
          "StationName": "Mathela",
          "StationCode": "MTA",
          "ArrivalTime": "21:46",
          "DepartureTime": "21:46",
          "HaltMinutes": "&nbsp;",
          "Day": 1,
          "Latitude": 21.878681,
          "Longitude": 76.38903,
          "stopNumberDisplay": "6.1",
          "Distance": "554.7"
        },
        {
          "StationName": "Talvadiya Jn",
          "StationCode": "TLV",
          "ArrivalTime": "21:54",
          "DepartureTime": "21:54",
          "HaltMinutes": "&nbsp;",
          "Day": 1,
          "Latitude": 21.927835,
          "Longitude": 76.444704,
          "stopNumberDisplay": "6.2",
          "Distance": "563.1"
        },
        {
          "StationName": "Surgaon Banjari",
          "StationCode": "SGBJ",
          "ArrivalTime": "22:04",
          "DepartureTime": "22:04",
          "HaltMinutes": "&nbsp;",
          "Day": 1,
          "Latitude": 21.94667,
          "Longitude": 76.544283,
          "stopNumberDisplay": "6.3",
          "Distance": "574.9"
        },
        {
          "StationName": "Charkheda Khurd",
          "StationCode": "CKKD",
          "ArrivalTime": "22:13",
          "DepartureTime": "22:13",
          "HaltMinutes": "&nbsp;",
          "Day": 1,
          "Latitude": 21.938491,
          "Longitude": 76.641545,
          "stopNumberDisplay": "6.4",
          "Distance": "585.3"
        },
        {
          "StationName": "Chhanera",
          "StationCode": "CAER",
          "ArrivalTime": "22:20",
          "DepartureTime": "22:20",
          "HaltMinutes": "&nbsp;",
          "Day": 1,
          "Latitude": 21.9635,
          "Longitude": 76.70761,
          "stopNumberDisplay": "6.5",
          "Distance": "592.8"
        },
        {
          "StationName": "Barud",
          "StationCode": "BRUD",
          "ArrivalTime": "22:28",
          "DepartureTime": "22:28",
          "HaltMinutes": "&nbsp;",
          "Day": 1,
          "Latitude": 22.02794,
          "Longitude": 76.76351,
          "stopNumberDisplay": "6.6",
          "Distance": "603.0"
        },
        {
          "StationName": "Dagarhkeri",
          "StationCode": "DRHI",
          "ArrivalTime": "22:37",
          "DepartureTime": "22:37",
          "HaltMinutes": "&nbsp;",
          "Day": 1,
          "Latitude": 22.08162,
          "Longitude": 76.82679,
          "stopNumberDisplay": "6.7",
          "Distance": "612.5"
        },
        {
          "StationName": "Khirkiya",
          "StationCode": "KKN",
          "ArrivalTime": "22:46",
          "DepartureTime": "22:46",
          "HaltMinutes": "&nbsp;",
          "Day": 1,
          "Latitude": 22.1661,
          "Longitude": 76.8593,
          "stopNumberDisplay": "6.8",
          "Distance": "623.4"
        },
        {
          "StationName": "Kurawan",
          "StationCode": "KRO",
          "ArrivalTime": "22:52",
          "DepartureTime": "22:52",
          "HaltMinutes": "&nbsp;",
          "Day": 1,
          "Latitude": 22.2051,
          "Longitude": 76.90461,
          "stopNumberDisplay": "6.9",
          "Distance": "629.9"
        },
        {
          "StationName": "Bhiringi",
          "StationCode": "BRI",
          "ArrivalTime": "23:00",
          "DepartureTime": "23:00",
          "HaltMinutes": "&nbsp;",
          "Day": 1,
          "Latitude": 22.23873,
          "Longitude": 76.95677,
          "stopNumberDisplay": "6.10",
          "Distance": "638.8"
        },
        {
          "StationName": "Masangaon",
          "StationCode": "MUO",
          "ArrivalTime": "23:02",
          "DepartureTime": "23:02",
          "HaltMinutes": "&nbsp;",
          "Day": 1,
          "Latitude": 22.26697,
          "Longitude": 76.9969,
          "stopNumberDisplay": "6.11",
          "Distance": "641.8"
        },
        {
          "StationName": "Palasner",
          "StationCode": "PAL",
          "ArrivalTime": "23:07",
          "DepartureTime": "23:07",
          "HaltMinutes": "&nbsp;",
          "Day": 1,
          "Latitude": 22.2991,
          "Longitude": 77.04291,
          "stopNumberDisplay": "6.12",
          "Distance": "647.5"
        },
        {
          "StationName": "Harda",
          "StationCode": "HD",
          "ArrivalTime": "23:14",
          "DepartureTime": "23:14",
          "HaltMinutes": "&nbsp;",
          "Day": 1,
          "Latitude": 22.33781,
          "Longitude": 77.09984,
          "stopNumberDisplay": "6.13",
          "Distance": "655.2"
        },
        {
          "StationName": "Charkhera",
          "StationCode": "CRK",
          "ArrivalTime": "23:20",
          "DepartureTime": "23:20",
          "HaltMinutes": "&nbsp;",
          "Day": 1,
          "Latitude": 22.36622,
          "Longitude": 77.16034,
          "stopNumberDisplay": "6.14",
          "Distance": "662.1"
        },
        {
          "StationName": "Timarni",
          "StationCode": "TBN",
          "ArrivalTime": "23:26",
          "DepartureTime": "23:26",
          "HaltMinutes": "&nbsp;",
          "Day": 1,
          "Latitude": 22.37589,
          "Longitude": 77.22856,
          "stopNumberDisplay": "6.15",
          "Distance": "669.3"
        },
        {
          "StationName": "Chhidgaon",
          "StationCode": "CGO",
          "ArrivalTime": "23:34",
          "DepartureTime": "23:34",
          "HaltMinutes": "&nbsp;",
          "Day": 1,
          "Latitude": 22.40685,
          "Longitude": 77.31417,
          "stopNumberDisplay": "6.16",
          "Distance": "678.6"
        },
        {
          "StationName": "Pagdhal",
          "StationCode": "PGL",
          "ArrivalTime": "23:38",
          "DepartureTime": "23:38",
          "HaltMinutes": "&nbsp;",
          "Day": 1,
          "Latitude": 22.42053,
          "Longitude": 77.35136,
          "stopNumberDisplay": "6.17",
          "Distance": "682.8"
        },
        {
          "StationName": "Bhaironpur",
          "StationCode": "BIF",
          "ArrivalTime": "23:44",
          "DepartureTime": "23:44",
          "HaltMinutes": "&nbsp;",
          "Day": 1,
          "Latitude": 22.44061,
          "Longitude": 77.41903,
          "stopNumberDisplay": "6.18",
          "Distance": "690.0"
        },
        {
          "StationName": "Banapura",
          "StationCode": "BPF",
          "ArrivalTime": "23:51",
          "DepartureTime": "23:51",
          "HaltMinutes": "&nbsp;",
          "Day": 1,
          "Latitude": 22.47048,
          "Longitude": 77.48152,
          "stopNumberDisplay": "6.19",
          "Distance": "697.3"
        },
        {
          "StationName": "Dharamkundi",
          "StationCode": "DKI",
          "ArrivalTime": "23:58",
          "DepartureTime": "23:58",
          "HaltMinutes": "&nbsp;",
          "Day": 1,
          "Latitude": 22.51061,
          "Longitude": 77.54858,
          "stopNumberDisplay": "6.20",
          "Distance": "705.6"
        },
        {
          "StationName": "Khutwansa",
          "StationCode": "KTZ",
          "ArrivalTime": "00:04",
          "DepartureTime": "00:04",
          "HaltMinutes": "&nbsp;",
          "Day": 2,
          "Latitude": 22.54841,
          "Longitude": 77.60744,
          "stopNumberDisplay": "6.21",
          "Distance": "713.0"
        },
        {
          "StationName": "Dularia",
          "StationCode": "DRA",
          "ArrivalTime": "00:09",
          "DepartureTime": "00:09",
          "HaltMinutes": "&nbsp;",
          "Day": 2,
          "Latitude": 22.575317,
          "Longitude": 77.65379,
          "stopNumberDisplay": "6.22",
          "Distance": "718.6"
        },
        {
          "StationName": "Itarsi B Cabin",
          "StationCode": "ETBC",
          "ArrivalTime": "00:18",
          "DepartureTime": "00:18",
          "HaltMinutes": "&nbsp;",
          "Day": 2,
          "Latitude": null,
          "Longitude": null,
          "stopNumberDisplay": "6.23",
          "Distance": "728.9"
        },
        {
          "StationName": "Jujharpur Cabin",
          "StationCode": "JUH",
          "ArrivalTime": "00:19",
          "DepartureTime": "00:19",
          "HaltMinutes": "&nbsp;",
          "Day": 2,
          "Latitude": 22.605241,
          "Longitude": 77.757205,
          "stopNumberDisplay": "6.24",
          "Distance": "729.8"
        }
      ],
      "TrainNo": 1043,
      "StationCode": "KNW",
      "RouteNo": null,
      "StopNumber": 6,
      "TrainMappingKey": null,
      "StationName": "Khandwa Jn",
      "ArrivalTime": "21:37",
      "DepartureTime": "21:40",
      "HaltMinutes": "3m",
      "Distance": "547.4",
      "HasWifi": true,
      "Day": 1,
      "DataChanged": false,
      "ExpectedPlatformNo": null,
      "arrivalDelay": null,
      "departureDelay": null,
      "Latitude": 21.82382,
      "Longitude": 76.35321,
      "stopNumberDisplay": 6
    },
    {
      "intermediateStations": [
        {
          "StationName": "Gurra",
          "StationCode": "GRO",
          "ArrivalTime": "00:41",
          "DepartureTime": "00:41",
          "HaltMinutes": "&nbsp;",
          "Day": 2,
          "Latitude": 22.6319,
          "Longitude": 77.8669,
          "stopNumberDisplay": "7.1",
          "Distance": "741.4"
        },
        {
          "StationName": "Sontalai",
          "StationCode": "SQL",
          "ArrivalTime": "00:51",
          "DepartureTime": "00:51",
          "HaltMinutes": "&nbsp;",
          "Day": 2,
          "Latitude": 22.6132,
          "Longitude": 77.9503,
          "stopNumberDisplay": "7.2",
          "Distance": "750.4"
        },
        {
          "StationName": "Bagratawa",
          "StationCode": "BGTA",
          "ArrivalTime": "00:57",
          "DepartureTime": "00:57",
          "HaltMinutes": "&nbsp;",
          "Day": 2,
          "Latitude": 22.6313,
          "Longitude": 77.9943,
          "stopNumberDisplay": "7.3",
          "Distance": "756.6"
        },
        {
          "StationName": "Guramkhedi",
          "StationCode": "GMD",
          "ArrivalTime": "01:11",
          "DepartureTime": "01:11",
          "HaltMinutes": "&nbsp;",
          "Day": 2,
          "Latitude": 22.6821,
          "Longitude": 78.0994,
          "stopNumberDisplay": "7.4",
          "Distance": "769.7"
        },
        {
          "StationName": "Sohagpur",
          "StationCode": "SGP",
          "ArrivalTime": "01:21",
          "DepartureTime": "01:21",
          "HaltMinutes": "&nbsp;",
          "Day": 2,
          "Latitude": 22.694,
          "Longitude": 78.1944,
          "stopNumberDisplay": "7.5",
          "Distance": "779.6"
        },
        {
          "StationName": "Sobhapur",
          "StationCode": "SXF",
          "ArrivalTime": "01:31",
          "DepartureTime": "01:31",
          "HaltMinutes": "&nbsp;",
          "Day": 2,
          "Latitude": 22.7215,
          "Longitude": 78.2771,
          "stopNumberDisplay": "7.6",
          "Distance": "789.1"
        }
      ],
      "TrainNo": 1043,
      "StationCode": "ET",
      "RouteNo": null,
      "StopNumber": 7,
      "TrainMappingKey": null,
      "StationName": "Itarsi Jn",
      "ArrivalTime": "00:20",
      "DepartureTime": "00:30",
      "HaltMinutes": "10m",
      "Distance": "730.8",
      "HasWifi": true,
      "Day": 2,
      "DataChanged": false,
      "ExpectedPlatformNo": null,
      "arrivalDelay": null,
      "departureDelay": null,
      "Latitude": 22.6083,
      "Longitude": 77.7673,
      "stopNumberDisplay": 7
    },
    {
      "intermediateStations": [
        {
          "StationName": "Bankhedi",
          "StationCode": "BKH",
          "ArrivalTime": "02:00",
          "DepartureTime": "02:00",
          "HaltMinutes": "&nbsp;",
          "Day": 2,
          "Latitude": 22.7753,
          "Longitude": 78.5395,
          "stopNumberDisplay": "8.1",
          "Distance": "816.1"
        },
        {
          "StationName": "Junehta",
          "StationCode": "JHT",
          "ArrivalTime": "02:06",
          "DepartureTime": "02:06",
          "HaltMinutes": "&nbsp;",
          "Day": 2,
          "Latitude": 22.7826,
          "Longitude": 78.5964,
          "stopNumberDisplay": "8.2",
          "Distance": "822.7"
        },
        {
          "StationName": "Salichauka Road",
          "StationCode": "SCKR",
          "ArrivalTime": "02:15",
          "DepartureTime": "02:15",
          "HaltMinutes": "&nbsp;",
          "Day": 2,
          "Latitude": 22.8339,
          "Longitude": 78.6765,
          "stopNumberDisplay": "8.3",
          "Distance": "832.8"
        },
        {
          "StationName": "Gadarwara",
          "StationCode": "GAR",
          "ArrivalTime": "02:29",
          "DepartureTime": "02:29",
          "HaltMinutes": "&nbsp;",
          "Day": 2,
          "Latitude": 22.8996,
          "Longitude": 78.7917,
          "stopNumberDisplay": "8.4",
          "Distance": "846.7"
        },
        {
          "StationName": "Baranjh",
          "StationCode": "BNJH",
          "ArrivalTime": "02:37",
          "DepartureTime": "02:37",
          "HaltMinutes": "&nbsp;",
          "Day": 2,
          "Latitude": null,
          "Longitude": null,
          "stopNumberDisplay": "8.5",
          "Distance": "855.2"
        },
        {
          "StationName": "Bohani",
          "StationCode": "BNE",
          "ArrivalTime": "02:41",
          "DepartureTime": "02:41",
          "HaltMinutes": "&nbsp;",
          "Day": 2,
          "Latitude": 22.9131,
          "Longitude": 78.9158,
          "stopNumberDisplay": "8.6",
          "Distance": "859.6"
        },
        {
          "StationName": "Karapgaon",
          "StationCode": "KFY",
          "ArrivalTime": "02:47",
          "DepartureTime": "02:47",
          "HaltMinutes": "&nbsp;",
          "Day": 2,
          "Latitude": 22.915,
          "Longitude": 78.9839,
          "stopNumberDisplay": "8.7",
          "Distance": "866.6"
        },
        {
          "StationName": "Kareli",
          "StationCode": "KY",
          "ArrivalTime": "02:55",
          "DepartureTime": "02:55",
          "HaltMinutes": "&nbsp;",
          "Day": 2,
          "Latitude": 22.9318,
          "Longitude": 79.0655,
          "stopNumberDisplay": "8.8",
          "Distance": "875.2"
        },
        {
          "StationName": "Narsinghpur",
          "StationCode": "NU",
          "ArrivalTime": "03:10",
          "DepartureTime": "03:10",
          "HaltMinutes": "&nbsp;",
          "Day": 2,
          "Latitude": 22.9432,
          "Longitude": 79.2144,
          "stopNumberDisplay": "8.9",
          "Distance": "891.0"
        },
        {
          "StationName": "Ghatpindrai",
          "StationCode": "GPC",
          "ArrivalTime": "03:16",
          "DepartureTime": "03:16",
          "HaltMinutes": "&nbsp;",
          "Day": 2,
          "Latitude": 22.9521,
          "Longitude": 79.266,
          "stopNumberDisplay": "8.10",
          "Distance": "896.8"
        },
        {
          "StationName": "Belkhera",
          "StationCode": "BELD",
          "ArrivalTime": "03:21",
          "DepartureTime": "03:21",
          "HaltMinutes": "&nbsp;",
          "Day": 2,
          "Latitude": 22.9823,
          "Longitude": 79.3,
          "stopNumberDisplay": "8.11",
          "Distance": "902.4"
        },
        {
          "StationName": "Karak Bel",
          "StationCode": "KKB",
          "ArrivalTime": "03:25",
          "DepartureTime": "03:25",
          "HaltMinutes": "&nbsp;",
          "Day": 2,
          "Latitude": 22.9922,
          "Longitude": 79.3416,
          "stopNumberDisplay": "8.12",
          "Distance": "906.8"
        },
        {
          "StationName": "Shridham",
          "StationCode": "SRID",
          "ArrivalTime": "03:40",
          "DepartureTime": "03:40",
          "HaltMinutes": "&nbsp;",
          "Day": 2,
          "Latitude": 23.0343,
          "Longitude": 79.485,
          "stopNumberDisplay": "8.13",
          "Distance": "922.2"
        },
        {
          "StationName": "Bikrampur",
          "StationCode": "BMR",
          "ArrivalTime": "03:51",
          "DepartureTime": "03:51",
          "HaltMinutes": "&nbsp;",
          "Day": 2,
          "Latitude": 23.0821,
          "Longitude": 79.5865,
          "stopNumberDisplay": "8.14",
          "Distance": "934.0"
        },
        {
          "StationName": "Bhitoni",
          "StationCode": "BHTN",
          "ArrivalTime": "04:02",
          "DepartureTime": "04:02",
          "HaltMinutes": "&nbsp;",
          "Day": 2,
          "Latitude": 23.1424,
          "Longitude": 79.6733,
          "stopNumberDisplay": "8.15",
          "Distance": "945.5"
        },
        {
          "StationName": "Bheraghat",
          "StationCode": "BRGT",
          "ArrivalTime": "04:14",
          "DepartureTime": "04:14",
          "HaltMinutes": "&nbsp;",
          "Day": 2,
          "Latitude": 23.1697,
          "Longitude": 79.7979,
          "stopNumberDisplay": "8.16",
          "Distance": "958.7"
        },
        {
          "StationName": "Kachhpura Jn",
          "StationCode": "KEQ",
          "ArrivalTime": "04:24",
          "DepartureTime": "04:24",
          "HaltMinutes": "&nbsp;",
          "Day": 2,
          "Latitude": 23.17386,
          "Longitude": 79.8916,
          "stopNumberDisplay": "8.17",
          "Distance": "969.2"
        },
        {
          "StationName": "Madan Mahal",
          "StationCode": "MML",
          "ArrivalTime": "04:27",
          "DepartureTime": "04:27",
          "HaltMinutes": "&nbsp;",
          "Day": 2,
          "Latitude": 23.16009,
          "Longitude": 79.92055,
          "stopNumberDisplay": "8.18",
          "Distance": "971.8"
        }
      ],
      "TrainNo": 1043,
      "StationCode": "PPI",
      "RouteNo": null,
      "StopNumber": 8,
      "TrainMappingKey": null,
      "StationName": "Pipariya",
      "ArrivalTime": "01:40",
      "DepartureTime": "01:42",
      "HaltMinutes": "2m",
      "Distance": "797.5",
      "HasWifi": true,
      "Day": 2,
      "DataChanged": false,
      "ExpectedPlatformNo": null,
      "arrivalDelay": null,
      "departureDelay": null,
      "Latitude": 22.7536,
      "Longitude": 78.354,
      "stopNumberDisplay": 8
    },
    {
      "intermediateStations": [
        {
          "StationName": "Adhartal",
          "StationCode": "ADTL",
          "ArrivalTime": "04:52",
          "DepartureTime": "04:52",
          "HaltMinutes": "&nbsp;",
          "Day": 2,
          "Latitude": 23.227848,
          "Longitude": 79.972684,
          "stopNumberDisplay": "9.1",
          "Distance": "983.3"
        },
        {
          "StationName": "Deori",
          "StationCode": "DOE",
          "ArrivalTime": "05:06",
          "DepartureTime": "05:06",
          "HaltMinutes": "&nbsp;",
          "Day": 2,
          "Latitude": 23.298313,
          "Longitude": 80.009685,
          "stopNumberDisplay": "9.2",
          "Distance": "992.1"
        },
        {
          "StationName": "Gosalpur",
          "StationCode": "GSPR",
          "ArrivalTime": "05:22",
          "DepartureTime": "05:22",
          "HaltMinutes": "&nbsp;",
          "Day": 2,
          "Latitude": 23.381625,
          "Longitude": 80.05898,
          "stopNumberDisplay": "9.3",
          "Distance": "1002.6"
        },
        {
          "StationName": "Sihora Road",
          "StationCode": "SHR",
          "ArrivalTime": "05:39",
          "DepartureTime": "05:39",
          "HaltMinutes": "&nbsp;",
          "Day": 2,
          "Latitude": 23.466852,
          "Longitude": 80.11,
          "stopNumberDisplay": "9.4",
          "Distance": "1013.7"
        },
        {
          "StationName": "Dundi",
          "StationCode": "DDCE",
          "ArrivalTime": "06:02",
          "DepartureTime": "06:02",
          "HaltMinutes": "&nbsp;",
          "Day": 2,
          "Latitude": 23.557655,
          "Longitude": 80.217207,
          "stopNumberDisplay": "9.5",
          "Distance": "1028.6"
        },
        {
          "StationName": "Sleemanabad Road",
          "StationCode": "SBD",
          "ArrivalTime": "06:17",
          "DepartureTime": "06:17",
          "HaltMinutes": "&nbsp;",
          "Day": 2,
          "Latitude": 23.614477,
          "Longitude": 80.285506,
          "stopNumberDisplay": "9.6",
          "Distance": "1038.1"
        },
        {
          "StationName": "Sansarpur",
          "StationCode": "SNRR",
          "ArrivalTime": "06:28",
          "DepartureTime": "06:28",
          "HaltMinutes": "&nbsp;",
          "Day": 2,
          "Latitude": 23.660334,
          "Longitude": 80.330721,
          "stopNumberDisplay": "9.7",
          "Distance": "1045.0"
        },
        {
          "StationName": "Niwar",
          "StationCode": "NWR",
          "ArrivalTime": "06:40",
          "DepartureTime": "06:40",
          "HaltMinutes": "&nbsp;",
          "Day": 2,
          "Latitude": 23.719624,
          "Longitude": 80.369564,
          "stopNumberDisplay": "9.8",
          "Distance": "1052.8"
        },
        {
          "StationName": "Madhavnagar Road",
          "StationCode": "MDRR",
          "ArrivalTime": "06:52",
          "DepartureTime": "06:52",
          "HaltMinutes": "&nbsp;",
          "Day": 2,
          "Latitude": 23.787189,
          "Longitude": 80.394449,
          "stopNumberDisplay": "9.9",
          "Distance": "1060.7"
        },
        {
          "StationName": "Katni South",
          "StationCode": "KTES",
          "ArrivalTime": "06:57",
          "DepartureTime": "06:57",
          "HaltMinutes": "&nbsp;",
          "Day": 2,
          "Latitude": 23.816692,
          "Longitude": 80.400734,
          "stopNumberDisplay": "9.10",
          "Distance": "1064.1"
        }
      ],
      "TrainNo": 1043,
      "StationCode": "JBP",
      "RouteNo": null,
      "StopNumber": 9,
      "TrainMappingKey": null,
      "StationName": "Jabalpur",
      "ArrivalTime": "04:30",
      "DepartureTime": "04:40",
      "HaltMinutes": "10m",
      "Distance": "975.2",
      "HasWifi": true,
      "Day": 2,
      "DataChanged": false,
      "ExpectedPlatformNo": null,
      "arrivalDelay": null,
      "departureDelay": null,
      "Latitude": 23.16471,
      "Longitude": 79.950643,
      "stopNumberDisplay": 9
    },
    {
      "intermediateStations": [
        {
          "StationName": "Patwara",
          "StationCode": "PTWA",
          "ArrivalTime": "07:10",
          "DepartureTime": "07:10",
          "HaltMinutes": "&nbsp;",
          "Day": 2,
          "Latitude": 23.9139,
          "Longitude": 80.4136,
          "stopNumberDisplay": "10.1",
          "Distance": "1075.1"
        },
        {
          "StationName": "Jukehi Bypass Cabin",
          "StationCode": "XX-JKEB",
          "ArrivalTime": "07:14",
          "DepartureTime": "07:14",
          "HaltMinutes": "&nbsp;",
          "Day": 2,
          "Latitude": null,
          "Longitude": null,
          "stopNumberDisplay": "10.2",
          "Distance": "1080.6"
        },
        {
          "StationName": "Jukehi",
          "StationCode": "JKE",
          "ArrivalTime": "07:15",
          "DepartureTime": "07:15",
          "HaltMinutes": "&nbsp;",
          "Day": 2,
          "Latitude": 23.98665,
          "Longitude": 80.43249,
          "stopNumberDisplay": "10.3",
          "Distance": "1083.4"
        },
        {
          "StationName": "Pakaria Road",
          "StationCode": "PKRD",
          "ArrivalTime": "07:21",
          "DepartureTime": "07:21",
          "HaltMinutes": "&nbsp;",
          "Day": 2,
          "Latitude": 24.04851,
          "Longitude": 80.50199,
          "stopNumberDisplay": "10.4",
          "Distance": "1093.2"
        },
        {
          "StationName": "Amdara",
          "StationCode": "UDR",
          "ArrivalTime": "07:27",
          "DepartureTime": "07:27",
          "HaltMinutes": "&nbsp;",
          "Day": 2,
          "Latitude": 24.09925,
          "Longitude": 80.57776,
          "stopNumberDisplay": "10.5",
          "Distance": "1102.9"
        },
        {
          "StationName": "Ghunwara",
          "StationCode": "GNWA",
          "ArrivalTime": "07:31",
          "DepartureTime": "07:31",
          "HaltMinutes": "&nbsp;",
          "Day": 2,
          "Latitude": null,
          "Longitude": null,
          "stopNumberDisplay": "10.6",
          "Distance": "1109.4"
        },
        {
          "StationName": "Bhadanpur",
          "StationCode": "BUU",
          "ArrivalTime": "07:34",
          "DepartureTime": "07:34",
          "HaltMinutes": "&nbsp;",
          "Day": 2,
          "Latitude": 24.16711,
          "Longitude": 80.67866,
          "stopNumberDisplay": "10.7",
          "Distance": "1115.5"
        }
      ],
      "TrainNo": 1043,
      "StationCode": "KTE",
      "RouteNo": null,
      "StopNumber": 10,
      "TrainMappingKey": null,
      "StationName": "Katni Jn",
      "ArrivalTime": "07:00",
      "DepartureTime": "07:05",
      "HaltMinutes": "5m",
      "Distance": "1066.0",
      "HasWifi": false,
      "Day": 2,
      "DataChanged": false,
      "ExpectedPlatformNo": null,
      "arrivalDelay": null,
      "departureDelay": null,
      "Latitude": 23.83399,
      "Longitude": 80.40092,
      "stopNumberDisplay": 10
    },
    {
      "intermediateStations": [
        {
          "StationName": "Unchhera",
          "StationCode": "UHR",
          "ArrivalTime": "08:01",
          "DepartureTime": "08:01",
          "HaltMinutes": "&nbsp;",
          "Day": 2,
          "Latitude": 24.38024,
          "Longitude": 80.79374,
          "stopNumberDisplay": "11.1",
          "Distance": "1143.3"
        },
        {
          "StationName": "Lagargawan",
          "StationCode": "LGCE",
          "ArrivalTime": "08:12",
          "DepartureTime": "08:12",
          "HaltMinutes": "&nbsp;",
          "Day": 2,
          "Latitude": 24.464647,
          "Longitude": 80.814599,
          "stopNumberDisplay": "11.2",
          "Distance": "1152.9"
        }
      ],
      "TrainNo": 1043,
      "StationCode": "MYR",
      "RouteNo": null,
      "StopNumber": 11,
      "TrainMappingKey": null,
      "StationName": "Maihar",
      "ArrivalTime": "07:42",
      "DepartureTime": "07:44",
      "HaltMinutes": "2m",
      "Distance": "1128.9",
      "HasWifi": true,
      "Day": 2,
      "DataChanged": false,
      "ExpectedPlatformNo": null,
      "arrivalDelay": null,
      "departureDelay": null,
      "Latitude": 24.25537,
      "Longitude": 80.76362,
      "stopNumberDisplay": 11
    },
    {
      "intermediateStations": [
        {
          "StationName": "Sagma",
          "StationCode": "SAGM",
          "ArrivalTime": "08:38",
          "DepartureTime": "08:38",
          "HaltMinutes": "&nbsp;",
          "Day": 2,
          "Latitude": 24.62719,
          "Longitude": 80.82903,
          "stopNumberDisplay": "12.1",
          "Distance": "1171.1"
        },
        {
          "StationName": "Hati",
          "StationCode": "HATI",
          "ArrivalTime": "08:46",
          "DepartureTime": "08:46",
          "HaltMinutes": "&nbsp;",
          "Day": 2,
          "Latitude": 24.68821,
          "Longitude": 80.84256,
          "stopNumberDisplay": "12.2",
          "Distance": "1178.2"
        },
        {
          "StationName": "Jaitwar",
          "StationCode": "JTW",
          "ArrivalTime": "08:53",
          "DepartureTime": "08:53",
          "HaltMinutes": "&nbsp;",
          "Day": 2,
          "Latitude": 24.74114,
          "Longitude": 80.86345,
          "stopNumberDisplay": "12.3",
          "Distance": "1184.5"
        },
        {
          "StationName": "Khutaha",
          "StationCode": "KTHA",
          "ArrivalTime": "09:02",
          "DepartureTime": "09:02",
          "HaltMinutes": "&nbsp;",
          "Day": 2,
          "Latitude": 24.80752,
          "Longitude": 80.86076,
          "stopNumberDisplay": "12.4",
          "Distance": "1191.9"
        },
        {
          "StationName": "Chitahra",
          "StationCode": "CTHR",
          "ArrivalTime": "09:11",
          "DepartureTime": "09:11",
          "HaltMinutes": "&nbsp;",
          "Day": 2,
          "Latitude": 24.87088,
          "Longitude": 80.83798,
          "stopNumberDisplay": "12.5",
          "Distance": "1199.7"
        },
        {
          "StationName": "Majhagawan",
          "StationCode": "MJG",
          "ArrivalTime": "09:17",
          "DepartureTime": "09:17",
          "HaltMinutes": "&nbsp;",
          "Day": 2,
          "Latitude": 24.9123,
          "Longitude": 80.81211,
          "stopNumberDisplay": "12.6",
          "Distance": "1205.2"
        },
        {
          "StationName": "Itwan Dundaila",
          "StationCode": "EDA",
          "ArrivalTime": "09:24",
          "DepartureTime": "09:24",
          "HaltMinutes": "&nbsp;",
          "Day": 2,
          "Latitude": 24.94259,
          "Longitude": 80.84511,
          "stopNumberDisplay": "12.7",
          "Distance": "1210.6"
        },
        {
          "StationName": "Tikaria",
          "StationCode": "TKYR",
          "ArrivalTime": "09:32",
          "DepartureTime": "09:32",
          "HaltMinutes": "&nbsp;",
          "Day": 2,
          "Latitude": 25.00037,
          "Longitude": 80.87474,
          "stopNumberDisplay": "12.8",
          "Distance": "1218.2"
        },
        {
          "StationName": "Markundi",
          "StationCode": "MKD",
          "ArrivalTime": "09:41",
          "DepartureTime": "09:41",
          "HaltMinutes": "&nbsp;",
          "Day": 2,
          "Latitude": 25.01701,
          "Longitude": 80.94553,
          "stopNumberDisplay": "12.9",
          "Distance": "1226.0"
        },
        {
          "StationName": "Barah Muafi",
          "StationCode": "BQF",
          "ArrivalTime": "09:51",
          "DepartureTime": "09:51",
          "HaltMinutes": "&nbsp;",
          "Day": 2,
          "Latitude": 25.042666,
          "Longitude": 81.020789,
          "stopNumberDisplay": "12.10",
          "Distance": "1234.2"
        },
        {
          "StationName": "Bansapahar",
          "StationCode": "BNSP",
          "ArrivalTime": "09:56",
          "DepartureTime": "09:56",
          "HaltMinutes": "&nbsp;",
          "Day": 2,
          "Latitude": 25.057324,
          "Longitude": 81.061114,
          "stopNumberDisplay": "12.11",
          "Distance": "1238.7"
        }
      ],
      "TrainNo": 1043,
      "StationCode": "STA",
      "RouteNo": null,
      "StopNumber": 12,
      "TrainMappingKey": null,
      "StationName": "Satna Jn",
      "ArrivalTime": "08:25",
      "DepartureTime": "08:30",
      "HaltMinutes": "5m",
      "Distance": "1164.4",
      "HasWifi": true,
      "Day": 2,
      "DataChanged": false,
      "ExpectedPlatformNo": null,
      "arrivalDelay": null,
      "departureDelay": null,
      "Latitude": 24.56712,
      "Longitude": 80.82842,
      "stopNumberDisplay": 12
    },
    {
      "intermediateStations": [
        {
          "StationName": "Panhai",
          "StationCode": "PNHI",
          "ArrivalTime": "10:15",
          "DepartureTime": "10:15",
          "HaltMinutes": "&nbsp;",
          "Day": 2,
          "Latitude": 25.08295,
          "Longitude": 81.20459,
          "stopNumberDisplay": "13.1",
          "Distance": "1253.6"
        },
        {
          "StationName": "Dabhaura",
          "StationCode": "DBR",
          "ArrivalTime": "10:27",
          "DepartureTime": "10:27",
          "HaltMinutes": "&nbsp;",
          "Day": 2,
          "Latitude": 25.11815,
          "Longitude": 81.30336,
          "stopNumberDisplay": "13.2",
          "Distance": "1264.6"
        },
        {
          "StationName": "Kataiya Dandi",
          "StationCode": "KTDD",
          "ArrivalTime": "10:38",
          "DepartureTime": "10:38",
          "HaltMinutes": "&nbsp;",
          "Day": 2,
          "Latitude": 25.14903,
          "Longitude": 81.39816,
          "stopNumberDisplay": "13.3",
          "Distance": "1274.8"
        },
        {
          "StationName": "Bargarh",
          "StationCode": "BRG",
          "ArrivalTime": "10:45",
          "DepartureTime": "10:45",
          "HaltMinutes": "&nbsp;",
          "Day": 2,
          "Latitude": 25.16411,
          "Longitude": 81.4497,
          "stopNumberDisplay": "13.4",
          "Distance": "1280.2"
        },
        {
          "StationName": "Majhiari",
          "StationCode": "MJHR",
          "ArrivalTime": "10:53",
          "DepartureTime": "10:53",
          "HaltMinutes": "&nbsp;",
          "Day": 2,
          "Latitude": 25.17864,
          "Longitude": 81.51976,
          "stopNumberDisplay": "13.5",
          "Distance": "1287.5"
        },
        {
          "StationName": "Shankargarh",
          "StationCode": "SRJ",
          "ArrivalTime": "11:03",
          "DepartureTime": "11:03",
          "HaltMinutes": "&nbsp;",
          "Day": 2,
          "Latitude": 25.18065,
          "Longitude": 81.61397,
          "stopNumberDisplay": "13.6",
          "Distance": "1297.0"
        },
        {
          "StationName": "Bevara",
          "StationCode": "BVAR",
          "ArrivalTime": "11:07",
          "DepartureTime": "11:07",
          "HaltMinutes": "&nbsp;",
          "Day": 2,
          "Latitude": null,
          "Longitude": null,
          "stopNumberDisplay": "13.7",
          "Distance": "1300.9"
        },
        {
          "StationName": "Lohgara",
          "StationCode": "LOG",
          "ArrivalTime": "11:14",
          "DepartureTime": "11:14",
          "HaltMinutes": "&nbsp;",
          "Day": 2,
          "Latitude": 25.221431,
          "Longitude": 81.677539,
          "stopNumberDisplay": "13.8",
          "Distance": "1306.9"
        },
        {
          "StationName": "Madaraha",
          "StationCode": "MFX",
          "ArrivalTime": "11:21",
          "DepartureTime": "11:21",
          "HaltMinutes": "&nbsp;",
          "Day": 2,
          "Latitude": 25.25023,
          "Longitude": 81.72992,
          "stopNumberDisplay": "13.9",
          "Distance": "1313.2"
        },
        {
          "StationName": "Jasra",
          "StationCode": "JSR",
          "ArrivalTime": "11:27",
          "DepartureTime": "11:27",
          "HaltMinutes": "&nbsp;",
          "Day": 2,
          "Latitude": 25.28063,
          "Longitude": 81.77521,
          "stopNumberDisplay": "13.10",
          "Distance": "1318.9"
        },
        {
          "StationName": "Iradatganj",
          "StationCode": "IDGJ",
          "ArrivalTime": "11:34",
          "DepartureTime": "11:34",
          "HaltMinutes": "&nbsp;",
          "Day": 2,
          "Latitude": 25.31792,
          "Longitude": 81.8196,
          "stopNumberDisplay": "13.11",
          "Distance": "1325.0"
        },
        {
          "StationName": "Link Jn Cabin",
          "StationCode": "LKJN",
          "ArrivalTime": "11:43",
          "DepartureTime": "11:43",
          "HaltMinutes": "&nbsp;",
          "Day": 2,
          "Latitude": 25.35953,
          "Longitude": 81.84343,
          "stopNumberDisplay": "13.12",
          "Distance": "1333.1"
        }
      ],
      "TrainNo": 1043,
      "StationCode": "MKP",
      "RouteNo": null,
      "StopNumber": 13,
      "TrainMappingKey": null,
      "StationName": "Manikpur Jn",
      "ArrivalTime": "10:00",
      "DepartureTime": "10:02",
      "HaltMinutes": "2m",
      "Distance": "1242.0",
      "HasWifi": false,
      "Day": 2,
      "DataChanged": false,
      "ExpectedPlatformNo": null,
      "arrivalDelay": null,
      "departureDelay": null,
      "Latitude": 25.06361,
      "Longitude": 81.09402,
      "stopNumberDisplay": 13
    },
    {
      "intermediateStations": [
        {
          "StationName": "Karchana",
          "StationCode": "KCN",
          "ArrivalTime": "11:57",
          "DepartureTime": "11:57",
          "HaltMinutes": "&nbsp;",
          "Day": 2,
          "Latitude": 25.3133,
          "Longitude": 81.9163,
          "stopNumberDisplay": "14.1",
          "Distance": "1343.3"
        },
        {
          "StationName": "Bheerpur",
          "StationCode": "BEP",
          "ArrivalTime": "12:04",
          "DepartureTime": "12:04",
          "HaltMinutes": "&nbsp;",
          "Day": 2,
          "Latitude": 25.265,
          "Longitude": 81.9894,
          "stopNumberDisplay": "14.2",
          "Distance": "1352.4"
        },
        {
          "StationName": "Meja Road",
          "StationCode": "MJA",
          "ArrivalTime": "12:13",
          "DepartureTime": "12:13",
          "HaltMinutes": "&nbsp;",
          "Day": 2,
          "Latitude": 25.2214,
          "Longitude": 82.0895,
          "stopNumberDisplay": "14.3",
          "Distance": "1363.5"
        },
        {
          "StationName": "Unchdih",
          "StationCode": "UND",
          "ArrivalTime": "12:20",
          "DepartureTime": "12:20",
          "HaltMinutes": "&nbsp;",
          "Day": 2,
          "Latitude": 25.1922,
          "Longitude": 82.1635,
          "stopNumberDisplay": "14.4",
          "Distance": "1371.8"
        },
        {
          "StationName": "Manda Road",
          "StationCode": "MNF",
          "ArrivalTime": "12:27",
          "DepartureTime": "12:27",
          "HaltMinutes": "&nbsp;",
          "Day": 2,
          "Latitude": 25.1631,
          "Longitude": 82.2372,
          "stopNumberDisplay": "14.5",
          "Distance": "1379.9"
        },
        {
          "StationName": "Jigna",
          "StationCode": "JIA",
          "ArrivalTime": "12:33",
          "DepartureTime": "12:33",
          "HaltMinutes": "&nbsp;",
          "Day": 2,
          "Latitude": 25.1575,
          "Longitude": 82.3182,
          "stopNumberDisplay": "14.6",
          "Distance": "1388.2"
        },
        {
          "StationName": "Gaipura",
          "StationCode": "GAE",
          "ArrivalTime": "12:39",
          "DepartureTime": "12:39",
          "HaltMinutes": "&nbsp;",
          "Day": 2,
          "Latitude": 25.1605,
          "Longitude": 82.3867,
          "stopNumberDisplay": "14.7",
          "Distance": "1395.3"
        },
        {
          "StationName": "Birohe",
          "StationCode": "BEO",
          "ArrivalTime": "12:45",
          "DepartureTime": "12:45",
          "HaltMinutes": "&nbsp;",
          "Day": 2,
          "Latitude": 25.1723,
          "Longitude": 82.4569,
          "stopNumberDisplay": "14.8",
          "Distance": "1402.8"
        },
        {
          "StationName": "Vindhyachal",
          "StationCode": "BDL",
          "ArrivalTime": "12:49",
          "DepartureTime": "12:49",
          "HaltMinutes": "&nbsp;",
          "Day": 2,
          "Latitude": 25.1602,
          "Longitude": 82.5019,
          "stopNumberDisplay": "14.9",
          "Distance": "1407.4"
        },
        {
          "StationName": "Mirzapur",
          "StationCode": "MZP",
          "ArrivalTime": "12:55",
          "DepartureTime": "12:55",
          "HaltMinutes": "&nbsp;",
          "Day": 2,
          "Latitude": 25.1346,
          "Longitude": 82.569,
          "stopNumberDisplay": "14.10",
          "Distance": "1414.8"
        },
        {
          "StationName": "Jhingura",
          "StationCode": "JHG",
          "ArrivalTime": "13:02",
          "DepartureTime": "13:02",
          "HaltMinutes": "&nbsp;",
          "Day": 2,
          "Latitude": 25.1242,
          "Longitude": 82.65,
          "stopNumberDisplay": "14.11",
          "Distance": "1423.2"
        },
        {
          "StationName": "Pahara",
          "StationCode": "PRE",
          "ArrivalTime": "13:08",
          "DepartureTime": "13:08",
          "HaltMinutes": "&nbsp;",
          "Day": 2,
          "Latitude": 25.1193,
          "Longitude": 82.7244,
          "stopNumberDisplay": "14.12",
          "Distance": "1430.6"
        },
        {
          "StationName": "Dagmagpur",
          "StationCode": "DAP",
          "ArrivalTime": "13:14",
          "DepartureTime": "13:14",
          "HaltMinutes": "&nbsp;",
          "Day": 2,
          "Latitude": 25.0981,
          "Longitude": 82.8006,
          "stopNumberDisplay": "14.13",
          "Distance": "1438.7"
        },
        {
          "StationName": "Chunar Jn",
          "StationCode": "CAR",
          "ArrivalTime": "13:20",
          "DepartureTime": "13:20",
          "HaltMinutes": "&nbsp;",
          "Day": 2,
          "Latitude": 25.10343,
          "Longitude": 82.87244,
          "stopNumberDisplay": "14.14",
          "Distance": "1445.9"
        },
        {
          "StationName": "Kailahat",
          "StationCode": "KYT",
          "ArrivalTime": "13:28",
          "DepartureTime": "13:28",
          "HaltMinutes": "&nbsp;",
          "Day": 2,
          "Latitude": 25.15484,
          "Longitude": 82.94728,
          "stopNumberDisplay": "14.15",
          "Distance": "1455.7"
        },
        {
          "StationName": "Narayanpur Bazar",
          "StationCode": "NPBR",
          "ArrivalTime": "13:35",
          "DepartureTime": "13:35",
          "HaltMinutes": "&nbsp;",
          "Day": 2,
          "Latitude": null,
          "Longitude": null,
          "stopNumberDisplay": "14.16",
          "Distance": "1464.3"
        },
        {
          "StationName": "Jeonathpur",
          "StationCode": "JEP",
          "ArrivalTime": "13:40",
          "DepartureTime": "13:40",
          "HaltMinutes": "&nbsp;",
          "Day": 2,
          "Latitude": 25.2317693,
          "Longitude": 83.0623376,
          "stopNumberDisplay": "14.17",
          "Distance": "1470.1"
        },
        {
          "StationName": "Avoiding Cabin",
          "StationCode": "AVCD",
          "ArrivalTime": "13:42",
          "DepartureTime": "13:42",
          "HaltMinutes": "&nbsp;",
          "Day": 2,
          "Latitude": 25.251708,
          "Longitude": 83.08416,
          "stopNumberDisplay": "14.18",
          "Distance": "1473.2"
        },
        {
          "StationName": "New West Cabin",
          "StationCode": "NEWC",
          "ArrivalTime": "13:45",
          "DepartureTime": "13:45",
          "HaltMinutes": "&nbsp;",
          "Day": 2,
          "Latitude": 25.273123,
          "Longitude": 83.1088,
          "stopNumberDisplay": "14.19",
          "Distance": "1476.7"
        }
      ],
      "TrainNo": 1043,
      "StationCode": "PCOI",
      "RouteNo": null,
      "StopNumber": 14,
      "TrainMappingKey": null,
      "StationName": "Prayagraj Chheoki Jn",
      "ArrivalTime": "11:45",
      "DepartureTime": "11:50",
      "HaltMinutes": "5m",
      "Distance": "1334.6",
      "HasWifi": false,
      "Day": 2,
      "DataChanged": false,
      "ExpectedPlatformNo": null,
      "arrivalDelay": null,
      "departureDelay": null,
      "Latitude": null,
      "Longitude": null,
      "stopNumberDisplay": 14
    },
    {
      "intermediateStations": [
        {
          "StationName": "Mughal Sarai Marshalling Yard",
          "StationCode": "MGMY",
          "ArrivalTime": "14:07",
          "DepartureTime": "14:07",
          "HaltMinutes": "&nbsp;",
          "Day": 2,
          "Latitude": 25.289487,
          "Longitude": 83.141244,
          "stopNumberDisplay": "15.1",
          "Distance": "1480.4"
        },
        {
          "StationName": "Mughal Sarai Outer Cabin",
          "StationCode": "MGSO",
          "ArrivalTime": "14:08",
          "DepartureTime": "14:08",
          "HaltMinutes": "&nbsp;",
          "Day": 2,
          "Latitude": 25.298069,
          "Longitude": 83.158784,
          "stopNumberDisplay": "15.2",
          "Distance": "1482.1"
        },
        {
          "StationName": "Jn Hut DDU",
          "StationCode": "JTHT",
          "ArrivalTime": "14:08",
          "DepartureTime": "14:08",
          "HaltMinutes": "&nbsp;",
          "Day": 2,
          "Latitude": 25.298393,
          "Longitude": 83.16029,
          "stopNumberDisplay": "15.3",
          "Distance": "1482.4"
        },
        {
          "StationName": "EOCM Cabin",
          "StationCode": "EOCM",
          "ArrivalTime": "14:09",
          "DepartureTime": "14:09",
          "HaltMinutes": "&nbsp;",
          "Day": 2,
          "Latitude": 25.315306,
          "Longitude": 83.195151,
          "stopNumberDisplay": "15.4",
          "Distance": "1484.7"
        },
        {
          "StationName": "Kuchman",
          "StationCode": "KCA",
          "ArrivalTime": "14:12",
          "DepartureTime": "14:12",
          "HaltMinutes": "&nbsp;",
          "Day": 2,
          "Latitude": 25.319164,
          "Longitude": 83.214446,
          "stopNumberDisplay": "15.5",
          "Distance": "1488.5"
        },
        {
          "StationName": "Sakaldiha",
          "StationCode": "SLD",
          "ArrivalTime": "14:17",
          "DepartureTime": "14:17",
          "HaltMinutes": "&nbsp;",
          "Day": 2,
          "Latitude": 25.331686,
          "Longitude": 83.289491,
          "stopNumberDisplay": "15.6",
          "Distance": "1496.2"
        },
        {
          "StationName": "Tulsi Ashram",
          "StationCode": "TLAM",
          "ArrivalTime": "14:21",
          "DepartureTime": "14:21",
          "HaltMinutes": "&nbsp;",
          "Day": 2,
          "Latitude": 25.342012,
          "Longitude": 83.351131,
          "stopNumberDisplay": "15.7",
          "Distance": "1502.5"
        },
        {
          "StationName": "Dheena",
          "StationCode": "DHA",
          "ArrivalTime": "14:25",
          "DepartureTime": "14:25",
          "HaltMinutes": "&nbsp;",
          "Day": 2,
          "Latitude": 25.353935,
          "Longitude": 83.422426,
          "stopNumberDisplay": "15.8",
          "Distance": "1509.8"
        },
        {
          "StationName": "Bahora Chandil Halt",
          "StationCode": "BHCL",
          "ArrivalTime": "14:30",
          "DepartureTime": "14:30",
          "HaltMinutes": "&nbsp;",
          "Day": 2,
          "Latitude": 25.366072,
          "Longitude": 83.495354,
          "stopNumberDisplay": "15.9",
          "Distance": "1517.2"
        },
        {
          "StationName": "Zamania",
          "StationCode": "ZNA",
          "ArrivalTime": "14:33",
          "DepartureTime": "14:33",
          "HaltMinutes": "&nbsp;",
          "Day": 2,
          "Latitude": 25.374116,
          "Longitude": 83.543874,
          "stopNumberDisplay": "15.10",
          "Distance": "1522.2"
        },
        {
          "StationName": "Darauli",
          "StationCode": "DRV",
          "ArrivalTime": "14:37",
          "DepartureTime": "14:37",
          "HaltMinutes": "&nbsp;",
          "Day": 2,
          "Latitude": 25.394537,
          "Longitude": 83.604627,
          "stopNumberDisplay": "15.11",
          "Distance": "1528.7"
        },
        {
          "StationName": "Dildarnagar Jn",
          "StationCode": "DLN",
          "ArrivalTime": "14:42",
          "DepartureTime": "14:42",
          "HaltMinutes": "&nbsp;",
          "Day": 2,
          "Latitude": 25.41717,
          "Longitude": 83.66276,
          "stopNumberDisplay": "15.12",
          "Distance": "1535.6"
        },
        {
          "StationName": "Usia Khas Halt",
          "StationCode": "USK",
          "ArrivalTime": "14:45",
          "DepartureTime": "14:45",
          "HaltMinutes": "&nbsp;",
          "Day": 2,
          "Latitude": 25.4346,
          "Longitude": 83.7072,
          "stopNumberDisplay": "15.13",
          "Distance": "1539.9"
        },
        {
          "StationName": "Bhadaura",
          "StationCode": "BWH",
          "ArrivalTime": "14:47",
          "DepartureTime": "14:47",
          "HaltMinutes": "&nbsp;",
          "Day": 2,
          "Latitude": 25.4501,
          "Longitude": 83.7384,
          "stopNumberDisplay": "15.14",
          "Distance": "1543.6"
        },
        {
          "StationName": "Karahia Halt",
          "StationCode": "KKRH",
          "ArrivalTime": "14:50",
          "DepartureTime": "14:50",
          "HaltMinutes": "&nbsp;",
          "Day": 2,
          "Latitude": 25.4717,
          "Longitude": 83.7718,
          "stopNumberDisplay": "15.15",
          "Distance": "1547.7"
        },
        {
          "StationName": "Gahmar",
          "StationCode": "GMR",
          "ArrivalTime": "14:52",
          "DepartureTime": "14:52",
          "HaltMinutes": "&nbsp;",
          "Day": 2,
          "Latitude": 25.4893,
          "Longitude": 83.8068,
          "stopNumberDisplay": "15.16",
          "Distance": "1551.4"
        },
        {
          "StationName": "Barakalan Halt",
          "StationCode": "BQW",
          "ArrivalTime": "14:54",
          "DepartureTime": "14:54",
          "HaltMinutes": "&nbsp;",
          "Day": 2,
          "Latitude": 25.491,
          "Longitude": 83.8399,
          "stopNumberDisplay": "15.17",
          "Distance": "1555.0"
        },
        {
          "StationName": "Chausa",
          "StationCode": "CSA",
          "ArrivalTime": "14:58",
          "DepartureTime": "14:58",
          "HaltMinutes": "&nbsp;",
          "Day": 2,
          "Latitude": 25.4989,
          "Longitude": 83.8969,
          "stopNumberDisplay": "15.18",
          "Distance": "1560.9"
        },
        {
          "StationName": "Pawani Kamarpur Halt",
          "StationCode": "PWXP",
          "ArrivalTime": "15:01",
          "DepartureTime": "15:01",
          "HaltMinutes": "&nbsp;",
          "Day": 2,
          "Latitude": 25.5104,
          "Longitude": 83.9125,
          "stopNumberDisplay": "15.19",
          "Distance": "1565.9"
        }
      ],
      "TrainNo": 1043,
      "StationCode": "DDU",
      "RouteNo": null,
      "StopNumber": 15,
      "TrainMappingKey": null,
      "StationName": "Pt DD Upadhyaya Jn",
      "ArrivalTime": "13:55",
      "DepartureTime": "14:05",
      "HaltMinutes": "10m",
      "Distance": "1477.9",
      "HasWifi": true,
      "Day": 2,
      "DataChanged": false,
      "ExpectedPlatformNo": null,
      "arrivalDelay": null,
      "departureDelay": null,
      "Latitude": 25.27922,
      "Longitude": 83.12109,
      "stopNumberDisplay": 15
    },
    {
      "intermediateStations": [
        {
          "StationName": "Nadaon Halt",
          "StationCode": "NDON",
          "ArrivalTime": "15:10",
          "DepartureTime": "15:10",
          "HaltMinutes": "&nbsp;",
          "Day": 2,
          "Latitude": 25.566803,
          "Longitude": 84.008587,
          "stopNumberDisplay": "16.1",
          "Distance": "1575.5"
        },
        {
          "StationName": "Baruna",
          "StationCode": "BUE",
          "ArrivalTime": "15:15",
          "DepartureTime": "15:15",
          "HaltMinutes": "&nbsp;",
          "Day": 2,
          "Latitude": 25.5691,
          "Longitude": 84.0725,
          "stopNumberDisplay": "16.2",
          "Distance": "1581.1"
        },
        {
          "StationName": "Kushalpur Harnaha Halt",
          "StationCode": "KPHH",
          "ArrivalTime": "15:18",
          "DepartureTime": "15:18",
          "HaltMinutes": "&nbsp;",
          "Day": 2,
          "Latitude": null,
          "Longitude": null,
          "stopNumberDisplay": "16.3",
          "Distance": "1583.7"
        },
        {
          "StationName": "Dumraon",
          "StationCode": "DURE",
          "ArrivalTime": "15:22",
          "DepartureTime": "15:22",
          "HaltMinutes": "&nbsp;",
          "Day": 2,
          "Latitude": 25.5717,
          "Longitude": 84.1429,
          "stopNumberDisplay": "16.4",
          "Distance": "1588.2"
        },
        {
          "StationName": "V V Giri Halt",
          "StationCode": "VVG",
          "ArrivalTime": "15:25",
          "DepartureTime": "15:25",
          "HaltMinutes": "&nbsp;",
          "Day": 2,
          "Latitude": 25.57072,
          "Longitude": 84.17739,
          "stopNumberDisplay": "16.5",
          "Distance": "1591.6"
        },
        {
          "StationName": "Twining Ganj",
          "StationCode": "TWG",
          "ArrivalTime": "15:28",
          "DepartureTime": "15:28",
          "HaltMinutes": "&nbsp;",
          "Day": 2,
          "Latitude": 25.5687,
          "Longitude": 84.2187,
          "stopNumberDisplay": "16.6",
          "Distance": "1595.8"
        },
        {
          "StationName": "Veer Kunwar Singh Dharauli Halt",
          "StationCode": "VKDH",
          "ArrivalTime": "15:32",
          "DepartureTime": "15:32",
          "HaltMinutes": "&nbsp;",
          "Day": 2,
          "Latitude": 25.5671,
          "Longitude": 84.2594,
          "stopNumberDisplay": "16.7",
          "Distance": "1599.9"
        },
        {
          "StationName": "Raghunathpur",
          "StationCode": "RPR",
          "ArrivalTime": "15:36",
          "DepartureTime": "15:36",
          "HaltMinutes": "&nbsp;",
          "Day": 2,
          "Latitude": 25.5651,
          "Longitude": 84.3021,
          "stopNumberDisplay": "16.8",
          "Distance": "1604.4"
        },
        {
          "StationName": "Sikaria Halt",
          "StationCode": "SKRI",
          "ArrivalTime": "15:40",
          "DepartureTime": "15:40",
          "HaltMinutes": "&nbsp;",
          "Day": 2,
          "Latitude": 25.5629,
          "Longitude": 84.3507,
          "stopNumberDisplay": "16.9",
          "Distance": "1608.8"
        },
        {
          "StationName": "Banahi",
          "StationCode": "BYN",
          "ArrivalTime": "15:44",
          "DepartureTime": "15:44",
          "HaltMinutes": "&nbsp;",
          "Day": 2,
          "Latitude": 25.5609,
          "Longitude": 84.3902,
          "stopNumberDisplay": "16.10",
          "Distance": "1613.0"
        },
        {
          "StationName": "Amar Shahid Jagdev Prasad Halt",
          "StationCode": "ASJP",
          "ArrivalTime": "15:46",
          "DepartureTime": "15:46",
          "HaltMinutes": "&nbsp;",
          "Day": 2,
          "Latitude": 25.5604,
          "Longitude": 84.4114,
          "stopNumberDisplay": "16.11",
          "Distance": "1615.1"
        },
        {
          "StationName": "Bihiya",
          "StationCode": "BEA",
          "ArrivalTime": "15:49",
          "DepartureTime": "15:49",
          "HaltMinutes": "&nbsp;",
          "Day": 2,
          "Latitude": 25.5587,
          "Longitude": 84.4492,
          "stopNumberDisplay": "16.12",
          "Distance": "1618.9"
        },
        {
          "StationName": "Ramanand Tiwary Halt",
          "StationCode": "RNTE",
          "ArrivalTime": "15:52",
          "DepartureTime": "15:52",
          "HaltMinutes": "&nbsp;",
          "Day": 2,
          "Latitude": 25.5552,
          "Longitude": 84.4875,
          "stopNumberDisplay": "16.13",
          "Distance": "1622.8"
        },
        {
          "StationName": "Sarvodaya Halt",
          "StationCode": "XSAN",
          "ArrivalTime": "15:54",
          "DepartureTime": "15:54",
          "HaltMinutes": "&nbsp;",
          "Day": 2,
          "Latitude": 25.5525,
          "Longitude": 84.5076,
          "stopNumberDisplay": "16.14",
          "Distance": "1624.3"
        },
        {
          "StationName": "Kauriya Halt",
          "StationCode": "KYA",
          "ArrivalTime": "15:55",
          "DepartureTime": "15:55",
          "HaltMinutes": "&nbsp;",
          "Day": 2,
          "Latitude": 25.5501,
          "Longitude": 84.527,
          "stopNumberDisplay": "16.15",
          "Distance": "1626.2"
        },
        {
          "StationName": "Karisath",
          "StationCode": "KRS",
          "ArrivalTime": "15:59",
          "DepartureTime": "15:59",
          "HaltMinutes": "&nbsp;",
          "Day": 2,
          "Latitude": 25.5494,
          "Longitude": 84.5633,
          "stopNumberDisplay": "16.16",
          "Distance": "1630.5"
        },
        {
          "StationName": "Mahatbania Halt",
          "StationCode": "MTBH",
          "ArrivalTime": "16:03",
          "DepartureTime": "16:03",
          "HaltMinutes": "&nbsp;",
          "Day": 2,
          "Latitude": null,
          "Longitude": null,
          "stopNumberDisplay": "16.17",
          "Distance": "1634.4"
        },
        {
          "StationName": "Jagjeewan Halt",
          "StationCode": "JGWL",
          "ArrivalTime": "16:05",
          "DepartureTime": "16:05",
          "HaltMinutes": "&nbsp;",
          "Day": 2,
          "Latitude": 25.548,
          "Longitude": 84.6306,
          "stopNumberDisplay": "16.18",
          "Distance": "1637.0"
        }
      ],
      "TrainNo": 1043,
      "StationCode": "BXR",
      "RouteNo": null,
      "StopNumber": 16,
      "TrainMappingKey": null,
      "StationName": "Buxar",
      "ArrivalTime": "15:05",
      "DepartureTime": "15:07",
      "HaltMinutes": "2m",
      "Distance": "1571.8",
      "HasWifi": true,
      "Day": 2,
      "DataChanged": false,
      "ExpectedPlatformNo": null,
      "arrivalDelay": null,
      "departureDelay": null,
      "Latitude": 25.5611,
      "Longitude": 83.9815,
      "stopNumberDisplay": 16
    },
    {
      "intermediateStations": [
        {
          "StationName": "Jamira Halt",
          "StationCode": "JMIR",
          "ArrivalTime": "16:14",
          "DepartureTime": "16:14",
          "HaltMinutes": "&nbsp;",
          "Day": 2,
          "Latitude": 25.557527,
          "Longitude": 84.705564,
          "stopNumberDisplay": "17.1",
          "Distance": "1644.8"
        },
        {
          "StationName": "Kulharia",
          "StationCode": "KUA",
          "ArrivalTime": "16:20",
          "DepartureTime": "16:20",
          "HaltMinutes": "&nbsp;",
          "Day": 2,
          "Latitude": 25.568139,
          "Longitude": 84.758006,
          "stopNumberDisplay": "17.2",
          "Distance": "1650.2"
        },
        {
          "StationName": "Koelwar",
          "StationCode": "KWR",
          "ArrivalTime": "16:23",
          "DepartureTime": "16:23",
          "HaltMinutes": "&nbsp;",
          "Day": 2,
          "Latitude": 25.569339,
          "Longitude": 84.792819,
          "stopNumberDisplay": "17.3",
          "Distance": "1653.8"
        },
        {
          "StationName": "Pali Halt",
          "StationCode": "PAIL",
          "ArrivalTime": "16:25",
          "DepartureTime": "16:25",
          "HaltMinutes": "&nbsp;",
          "Day": 2,
          "Latitude": 25.557352,
          "Longitude": 84.813491,
          "stopNumberDisplay": "17.4",
          "Distance": "1656.3"
        },
        {
          "StationName": "Bihta",
          "StationCode": "BTA",
          "ArrivalTime": "16:31",
          "DepartureTime": "16:31",
          "HaltMinutes": "&nbsp;",
          "Day": 2,
          "Latitude": 25.560972,
          "Longitude": 84.872454,
          "stopNumberDisplay": "17.5",
          "Distance": "1662.3"
        },
        {
          "StationName": "Patel Halt",
          "StationCode": "PATL",
          "ArrivalTime": "16:34",
          "DepartureTime": "16:34",
          "HaltMinutes": "&nbsp;",
          "Day": 2,
          "Latitude": 25.563815,
          "Longitude": 84.895985,
          "stopNumberDisplay": "17.6",
          "Distance": "1664.6"
        },
        {
          "StationName": "Sadisopur",
          "StationCode": "SDE",
          "ArrivalTime": "16:36",
          "DepartureTime": "16:36",
          "HaltMinutes": "&nbsp;",
          "Day": 2,
          "Latitude": 25.566478,
          "Longitude": 84.917289,
          "stopNumberDisplay": "17.7",
          "Distance": "1666.8"
        },
        {
          "StationName": "Gandhi Halt",
          "StationCode": "GNHI",
          "ArrivalTime": "16:40",
          "DepartureTime": "16:40",
          "HaltMinutes": "&nbsp;",
          "Day": 2,
          "Latitude": 25.571609,
          "Longitude": 84.958344,
          "stopNumberDisplay": "17.8",
          "Distance": "1670.9"
        },
        {
          "StationName": "Neora",
          "StationCode": "NEO",
          "ArrivalTime": "16:42",
          "DepartureTime": "16:42",
          "HaltMinutes": "&nbsp;",
          "Day": 2,
          "Latitude": 25.575127,
          "Longitude": 84.986709,
          "stopNumberDisplay": "17.9",
          "Distance": "1673.8"
        }
      ],
      "TrainNo": 1043,
      "StationCode": "ARA",
      "RouteNo": null,
      "StopNumber": 17,
      "TrainMappingKey": null,
      "StationName": "Ara Jn",
      "ArrivalTime": "16:08",
      "DepartureTime": "16:10",
      "HaltMinutes": "2m",
      "Distance": "1640.3",
      "HasWifi": true,
      "Day": 2,
      "DataChanged": false,
      "ExpectedPlatformNo": null,
      "arrivalDelay": null,
      "departureDelay": null,
      "Latitude": 25.5482,
      "Longitude": 84.6621,
      "stopNumberDisplay": 17
    },
    {
      "intermediateStations": [],
      "TrainNo": 1043,
      "StationCode": "DNR",
      "RouteNo": null,
      "StopNumber": 18,
      "TrainMappingKey": null,
      "StationName": "Danapur",
      "ArrivalTime": "16:48",
      "DepartureTime": "16:50",
      "HaltMinutes": "2m",
      "Distance": "1679.6",
      "HasWifi": false,
      "Day": 2,
      "DataChanged": false,
      "ExpectedPlatformNo": null,
      "arrivalDelay": null,
      "departureDelay": null,
      "Latitude": 25.58204,
      "Longitude": 85.04367,
      "stopNumberDisplay": 18
    },
    {
      "intermediateStations": [
        {
          "StationName": "Digha Bridge Halt",
          "StationCode": "DGBH",
          "ArrivalTime": "17:21",
          "DepartureTime": "17:21",
          "HaltMinutes": "&nbsp;",
          "Day": 2,
          "Latitude": null,
          "Longitude": null,
          "stopNumberDisplay": "19.1",
          "Distance": "1688.5"
        },
        {
          "StationName": "Bharpura Pahleza Ghat Jn",
          "StationCode": "PHLG",
          "ArrivalTime": "17:37",
          "DepartureTime": "17:37",
          "HaltMinutes": "&nbsp;",
          "Day": 2,
          "Latitude": 25.69981,
          "Longitude": 85.13515,
          "stopNumberDisplay": "19.2",
          "Distance": "1697.0"
        },
        {
          "StationName": "Sonpur Jn",
          "StationCode": "SEE",
          "ArrivalTime": "17:45",
          "DepartureTime": "17:45",
          "HaltMinutes": "&nbsp;",
          "Day": 2,
          "Latitude": 25.69663,
          "Longitude": 85.16888,
          "stopNumberDisplay": "19.3",
          "Distance": "1700.9"
        }
      ],
      "TrainNo": 1043,
      "StationCode": "PPTA",
      "RouteNo": null,
      "StopNumber": 19,
      "TrainMappingKey": null,
      "StationName": "Patliputra Jn",
      "ArrivalTime": "17:10",
      "DepartureTime": "17:15",
      "HaltMinutes": "5m",
      "Distance": "1685.6",
      "HasWifi": false,
      "Day": 2,
      "DataChanged": false,
      "ExpectedPlatformNo": null,
      "arrivalDelay": null,
      "departureDelay": null,
      "Latitude": 25.62172,
      "Longitude": 85.06882,
      "stopNumberDisplay": 19
    },
    {
      "intermediateStations": [
        {
          "StationName": "Ghoswar Jn",
          "StationCode": "GWH",
          "ArrivalTime": "18:05",
          "DepartureTime": "18:05",
          "HaltMinutes": "&nbsp;",
          "Day": 2,
          "Latitude": 25.73624,
          "Longitude": 85.242182,
          "stopNumberDisplay": "20.1",
          "Distance": "1711.4"
        },
        {
          "StationName": "Sarai",
          "StationCode": "SAI",
          "ArrivalTime": "18:10",
          "DepartureTime": "18:10",
          "HaltMinutes": "&nbsp;",
          "Day": 2,
          "Latitude": 25.78004,
          "Longitude": 85.27744,
          "stopNumberDisplay": "20.2",
          "Distance": "1716.8"
        },
        {
          "StationName": "Bithauli Halt",
          "StationCode": "BTHL",
          "ArrivalTime": "18:14",
          "DepartureTime": "18:14",
          "HaltMinutes": "&nbsp;",
          "Day": 2,
          "Latitude": 25.81721,
          "Longitude": 85.29177,
          "stopNumberDisplay": "20.3",
          "Distance": "1721.2"
        },
        {
          "StationName": "Bhagwanpur",
          "StationCode": "BNR",
          "ArrivalTime": "18:18",
          "DepartureTime": "18:18",
          "HaltMinutes": "&nbsp;",
          "Day": 2,
          "Latitude": 25.85823,
          "Longitude": 85.30104,
          "stopNumberDisplay": "20.4",
          "Distance": "1725.9"
        },
        {
          "StationName": "Benipatti Pirapur Halt",
          "StationCode": "BNPT",
          "ArrivalTime": "18:22",
          "DepartureTime": "18:22",
          "HaltMinutes": "&nbsp;",
          "Day": 2,
          "Latitude": 25.91426,
          "Longitude": 85.31413,
          "stopNumberDisplay": "20.5",
          "Distance": "1729.7"
        },
        {
          "StationName": "Goraul",
          "StationCode": "GRL",
          "ArrivalTime": "18:26",
          "DepartureTime": "18:26",
          "HaltMinutes": "&nbsp;",
          "Day": 2,
          "Latitude": 25.93105,
          "Longitude": 85.31872,
          "stopNumberDisplay": "20.6",
          "Distance": "1734.2"
        },
        {
          "StationName": "Kurhani",
          "StationCode": "KHI",
          "ArrivalTime": "18:31",
          "DepartureTime": "18:31",
          "HaltMinutes": "&nbsp;",
          "Day": 2,
          "Latitude": 25.97974,
          "Longitude": 85.33958,
          "stopNumberDisplay": "20.7",
          "Distance": "1740.0"
        },