{
  "TrainName": "JAN SHATABDI EXPRESS",
  "TrainNo": 12067,
  "TrainNumberString": null,
  "CoachPosition": "L EOG D1 D2 C1 C2 C3 D3 D4 D5 D6 D7 D8 D9 D10 EOG EV1",
  "Classes": [
    "EV",
    "CC",
    "2S"
  ],
  "Schedule": [
    {
      "intermediateStations": [
        {
          "StationName": "New Guwahati",
          "StationCode": "NGC",
          "ArrivalTime": "06:14",
          "DepartureTime": "06:14",
          "HaltMinutes": "&nbsp;",
          "Day": 1,
          "Latitude": 26.1818,
          "Longitude": 91.7906,
          "stopNumberDisplay": "1.1",
          "Distance": "4.2"
        },
        {
          "StationName": "Noonmati",
          "StationCode": "NMY",
          "ArrivalTime": "06:15",
          "DepartureTime": "06:15",
          "HaltMinutes": "&nbsp;",
          "Day": 1,
          "Latitude": 26.1806,
          "Longitude": 91.8069,
          "stopNumberDisplay": "1.2",
          "Distance": "5.7"
        },
        {
          "StationName": "Narangi",
          "StationCode": "NNGE",
          "ArrivalTime": "06:17",
          "DepartureTime": "06:17",
          "HaltMinutes": "&nbsp;",
          "Day": 1,
          "Latitude": 26.1825,
          "Longitude": 91.8349,
          "stopNumberDisplay": "1.3",
          "Distance": "8.4"
        },
        {
          "StationName": "Panikhaiti",
          "StationCode": "PHI",
          "ArrivalTime": "06:22",
          "DepartureTime": "06:22",
          "HaltMinutes": "&nbsp;",
          "Day": 1,
          "Latitude": 26.2114,
          "Longitude": 91.8753,
          "stopNumberDisplay": "1.4",
          "Distance": "13.9"
        },
        {
          "StationName": "Thakurkuchi",
          "StationCode": "TKC",
          "ArrivalTime": "06:26",
          "DepartureTime": "06:26",
          "HaltMinutes": "&nbsp;",
          "Day": 1,
          "Latitude": 26.2336,
          "Longitude": 91.922,
          "stopNumberDisplay": "1.5",
          "Distance": "19.2"
        },
        {
          "StationName": "Panbari",
          "StationCode": "PNB",
          "ArrivalTime": "06:32",
          "DepartureTime": "06:32",
          "HaltMinutes": "&nbsp;",
          "Day": 1,
          "Latitude": 26.2007,
          "Longitude": 91.976,
          "stopNumberDisplay": "1.6",
          "Distance": "26.5"
        },
        {
          "StationName": "Digaru",
          "StationCode": "DGU",
          "ArrivalTime": "06:38",
          "DepartureTime": "06:38",
          "HaltMinutes": "&nbsp;",
          "Day": 1,
          "Latitude": 26.1537,
          "Longitude": 91.9789,
          "stopNumberDisplay": "1.7",
          "Distance": "33.5"
        },
        {
          "StationName": "Tetelia Bypass Cabin",
          "StationCode": "XX-TTLX",
          "ArrivalTime": "06:42",
          "DepartureTime": "06:42",
          "HaltMinutes": "&nbsp;",
          "Day": 1,
          "Latitude": null,
          "Longitude": null,
          "stopNumberDisplay": "1.8",
          "Distance": "37.4"
        },
        {
          "StationName": "Tetelia Jn",
          "StationCode": "TTLA",
          "ArrivalTime": "06:43",
          "DepartureTime": "06:43",
          "HaltMinutes": "&nbsp;",
          "Day": 1,
          "Latitude": 26.1256,
          "Longitude": 92.0229,
          "stopNumberDisplay": "1.9",
          "Distance": "39.0"
        },
        {
          "StationName": "Kamrup Khetri",
          "StationCode": "KKET",
          "ArrivalTime": "06:48",
          "DepartureTime": "06:48",
          "HaltMinutes": "&nbsp;",
          "Day": 1,
          "Latitude": 26.1276,
          "Longitude": 92.0824,
          "stopNumberDisplay": "1.10",
          "Distance": "45.2"
        },
        {
          "StationName": "Barahu",
          "StationCode": "BRHU",
          "ArrivalTime": "06:53",
          "DepartureTime": "06:53",
          "HaltMinutes": "&nbsp;",
          "Day": 1,
          "Latitude": 26.1161,
          "Longitude": 92.1395,
          "stopNumberDisplay": "1.11",
          "Distance": "51.1"
        },
        {
          "StationName": "Jagi Road",
          "StationCode": "JID",
          "ArrivalTime": "06:58",
          "DepartureTime": "06:58",
          "HaltMinutes": "&nbsp;",
          "Day": 1,
          "Latitude": 26.1256,
          "Longitude": 92.1976,
          "stopNumberDisplay": "1.12",
          "Distance": "57.0"
        },
        {
          "StationName": "Aujuri",
          "StationCode": "AJRE",
          "ArrivalTime": "07:05",
          "DepartureTime": "07:05",
          "HaltMinutes": "&nbsp;",
          "Day": 1,
          "Latitude": 26.145,
          "Longitude": 92.2668,
          "stopNumberDisplay": "1.13",
          "Distance": "64.6"
        },
        {
          "StationName": "Sonuabori",
          "StationCode": "SNBR",
          "ArrivalTime": "07:09",
          "DepartureTime": "07:09",
          "HaltMinutes": "&nbsp;",
          "Day": 1,
          "Latitude": 26.1726,
          "Longitude": 92.3087,
          "stopNumberDisplay": "1.14",
          "Distance": "70.1"
        },
        {
          "StationName": "Dharamtul",
          "StationCode": "DML",
          "ArrivalTime": "07:14",
          "DepartureTime": "07:14",
          "HaltMinutes": "&nbsp;",
          "Day": 1,
          "Latitude": 26.1885,
          "Longitude": 92.3652,
          "stopNumberDisplay": "1.15",
          "Distance": "75.7"
        },
        {
          "StationName": "Thekeraguri",
          "StationCode": "TGE",
          "ArrivalTime": "07:20",
          "DepartureTime": "07:20",
          "HaltMinutes": "&nbsp;",
          "Day": 1,
          "Latitude": 26.2065,
          "Longitude": 92.4355,
          "stopNumberDisplay": "1.16",
          "Distance": "82.9"
        }
      ],
      "TrainNo": 12067,
      "StationCode": "GHY",
      "RouteNo": null,
      "StopNumber": 1,
      "TrainMappingKey": null,
      "StationName": "Guwahati",
      "ArrivalTime": "",
      "DepartureTime": "06:10",
      "HaltMinutes": "",
      "Distance": "0.0",
      "HasWifi": true,
      "Day": 1,
      "DataChanged": false,
      "ExpectedPlatformNo": "6",
      "arrivalDelay": "23 Min",
      "departureDelay": "23 Min",
      "Latitude": 26.1822,
      "Longitude": 91.7504,
      "stopNumberDisplay": 1
    },
    {
      "intermediateStations": [
        {
          "StationName": "Laopani",
          "StationCode": "LPN",
          "ArrivalTime": "07:35",
          "DepartureTime": "07:35",
          "HaltMinutes": "&nbsp;",
          "Day": 1,
          "Latitude": 26.199436,
          "Longitude": 92.594656,
          "stopNumberDisplay": "2.1",
          "Distance": "99.7"
        },
        {
          "StationName": "Kampur",
          "StationCode": "KWM",
          "ArrivalTime": "07:42",
          "DepartureTime": "07:42",
          "HaltMinutes": "&nbsp;",
          "Day": 1,
          "Latitude": 26.16074,
          "Longitude": 92.6583,
          "stopNumberDisplay": "2.2",
          "Distance": "108.2"
        },
        {
          "StationName": "Jamunamukh",
          "StationCode": "JMK",
          "ArrivalTime": "07:50",
          "DepartureTime": "07:50",
          "HaltMinutes": "&nbsp;",
          "Day": 1,
          "Latitude": 26.11142,
          "Longitude": 92.7403,
          "stopNumberDisplay": "2.3",
          "Distance": "119.1"
        },
        {
          "StationName": "Jugijan",
          "StationCode": "JGJN",
          "ArrivalTime": "07:57",
          "DepartureTime": "07:57",
          "HaltMinutes": "&nbsp;",
          "Day": 1,
          "Latitude": 26.04031,
          "Longitude": 92.80189,
          "stopNumberDisplay": "2.4",
          "Distance": "128.9"
        }
      ],
      "TrainNo": 12067,
      "StationCode": "CPK",
      "RouteNo": null,
      "StopNumber": 2,
      "TrainMappingKey": null,
      "StationName": "Chaparmukh Jn",
      "ArrivalTime": "07:27",
      "DepartureTime": "07:29",
      "HaltMinutes": "2m",
      "Distance": "91.0",
      "HasWifi": false,
      "Day": 1,
      "DataChanged": false,
      "ExpectedPlatformNo": "1",
      "arrivalDelay": "14 Min",
      "departureDelay": "14 Min",
      "Latitude": 26.2029,
      "Longitude": 92.5123,
      "stopNumberDisplay": 2
    },
    {
      "intermediateStations": [
        {
          "StationName": "Dhalpukhuri",
          "StationCode": "DHRY",
          "ArrivalTime": "08:10",
          "DepartureTime": "08:10",
          "HaltMinutes": "&nbsp;",
          "Day": 1,
          "Latitude": 25.95902,
          "Longitude": 92.90835,
          "stopNumberDisplay": "3.1",
          "Distance": "142.7"
        }
      ],
      "TrainNo": 12067,
      "StationCode": "HJI",
      "RouteNo": null,
      "StopNumber": 3,
      "TrainMappingKey": null,
      "StationName": "Hojai",
      "ArrivalTime": "08:02",
      "DepartureTime": "08:04",
      "HaltMinutes": "2m",
      "Distance": "135.5",
      "HasWifi": false,
      "Day": 1,
      "DataChanged": false,
      "ExpectedPlatformNo": "2",
      "arrivalDelay": "28 Min",
      "departureDelay": "28 Min",
      "Latitude": 26.00181,
      "Longitude": 92.85244,
      "stopNumberDisplay": 3
    },
    {
      "intermediateStations": [
        {
          "StationName": "Habaipur",
          "StationCode": "HWX",
          "ArrivalTime": "08:25",
          "DepartureTime": "08:25",
          "HaltMinutes": "&nbsp;",
          "Day": 1,
          "Latitude": 25.87152,
          "Longitude": 92.98534,
          "stopNumberDisplay": "4.1",
          "Distance": "155.4"
        },
        {
          "StationName": "Lamsakhang",
          "StationCode": "LKG",
          "ArrivalTime": "08:37",
          "DepartureTime": "08:37",
          "HaltMinutes": "&nbsp;",
          "Day": 1,
          "Latitude": 25.79705,
          "Longitude": 93.04631,
          "stopNumberDisplay": "4.2",
          "Distance": "166.0"
        },
        {
          "StationName": "Patharkhola",
          "StationCode": "PKB",
          "ArrivalTime": "08:45",
          "DepartureTime": "08:45",
          "HaltMinutes": "&nbsp;",
          "Day": 1,
          "Latitude": 25.77877,
          "Longitude": 93.10259,
          "stopNumberDisplay": "4.3",
          "Distance": "172.1"
        }
      ],
      "TrainNo": 12067,
      "StationCode": "LKA",
      "RouteNo": null,
      "StopNumber": 4,
      "TrainMappingKey": null,
      "StationName": "Lanka",
      "ArrivalTime": "08:16",
      "DepartureTime": "08:18",
      "HaltMinutes": "2m",
      "Distance": "149.9",
      "HasWifi": false,
      "Day": 1,
      "DataChanged": false,
      "ExpectedPlatformNo": "1",
      "arrivalDelay": "28 Min",
      "departureDelay": "28 Min",
      "Latitude": 25.91578,
      "Longitude": 92.95773,
      "stopNumberDisplay": 4
    },
    {
      "intermediateStations": [
        {
          "StationName": "Barlangfer",
          "StationCode": "BRLF",
          "ArrivalTime": "09:09",
          "DepartureTime": "09:09",
          "HaltMinutes": "&nbsp;",
          "Day": 1,
          "Latitude": 25.755126,
          "Longitude": 93.243102,
          "stopNumberDisplay": "5.1",
          "Distance": "187.5"
        },
        {
          "StationName": "Langcholiet",
          "StationCode": "LCT",
          "ArrivalTime": "09:17",
          "DepartureTime": "09:17",
          "HaltMinutes": "&nbsp;",
          "Day": 1,
          "Latitude": 25.758601,
          "Longitude": 93.304156,
          "stopNumberDisplay": "5.2",
          "Distance": "194.0"
        },
        {
          "StationName": "Nailalung",
          "StationCode": "NLN",
          "ArrivalTime": "09:28",
          "DepartureTime": "09:28",
          "HaltMinutes": "&nbsp;",
          "Day": 1,
          "Latitude": 25.773742,
          "Longitude": 93.388728,
          "stopNumberDisplay": "5.3",
          "Distance": "203.6"
        }
      ],
      "TrainNo": 12067,
      "StationCode": "LMG",
      "RouteNo": null,
      "StopNumber": 5,
      "TrainMappingKey": null,
      "StationName": "Lumding Jn",
      "ArrivalTime": "08:55",
      "DepartureTime": "09:00",
      "HaltMinutes": "5m",
      "Distance": "180.5",
      "HasWifi": true,
      "Day": 1,
      "DataChanged": false,
      "ExpectedPlatformNo": "2",
      "arrivalDelay": "20 Min",
      "departureDelay": "20 Min",
      "Latitude": 25.7505782,
      "Longitude": 93.1765539,
      "stopNumberDisplay": 5
    },
    {
      "intermediateStations": [
        {
          "StationName": "Daldali",
          "StationCode": "DLDE",
          "ArrivalTime": "09:51",
          "DepartureTime": "09:51",
          "HaltMinutes": "&nbsp;",
          "Day": 1,
          "Latitude": 25.819907,
          "Longitude": 93.516414,
          "stopNumberDisplay": "6.1",
          "Distance": "222.9"
        },
        {
          "StationName": "Dhansiri Jn",
          "StationCode": "DSR",
          "ArrivalTime": "10:00",
          "DepartureTime": "10:00",
          "HaltMinutes": "&nbsp;",
          "Day": 1,
          "Latitude": 25.811509,
          "Longitude": 93.600572,
          "stopNumberDisplay": "6.2",
          "Distance": "231.8"
        },
        {
          "StationName": "Rangapahar",
          "StationCode": "RXR",
          "ArrivalTime": "10:06",
          "DepartureTime": "10:06",
          "HaltMinutes": "&nbsp;",
          "Day": 1,
          "Latitude": 25.855508,
          "Longitude": 93.708598,
          "stopNumberDisplay": "6.3",
          "Distance": "238.8"
        },
        {
          "StationName": "Rangapahar Crossing",
          "StationCode": "RXRX",
          "ArrivalTime": "10:11",
          "DepartureTime": "10:11",
          "HaltMinutes": "&nbsp;",
          "Day": 1,
          "Latitude": 25.871874,
          "Longitude": 93.714892,
          "stopNumberDisplay": "6.4",
          "Distance": "243.9"
        },
        {
          "StationName": "FCI Siding Dimapur",
          "StationCode": "DMFS",
          "ArrivalTime": "10:17",
          "DepartureTime": "10:17",
          "HaltMinutes": "&nbsp;",
          "Day": 1,
          "Latitude": 25.902224,
          "Longitude": 93.727149,
          "stopNumberDisplay": "6.5",
          "Distance": "249.7"
        }
      ],
      "TrainNo": 12067,
      "StationCode": "DPU",
      "RouteNo": null,
      "StopNumber": 6,
      "TrainMappingKey": null,
      "StationName": "Diphu",
      "ArrivalTime": "09:40",
      "DepartureTime": "09:42",
      "HaltMinutes": "2m",
      "Distance": "213.0",
      "HasWifi": false,
      "Day": 1,
      "DataChanged": false,
      "ExpectedPlatformNo": "2",
      "arrivalDelay": "25 Min",
      "departureDelay": "25 Min",
      "Latitude": 25.837983,
      "Longitude": 93.43866,
      "stopNumberDisplay": 6
    },
    {
      "intermediateStations": [
        {
          "StationName": "Khotkhoti",
          "StationCode": "KHKT",
          "ArrivalTime": "10:28",
          "DepartureTime": "10:28",
          "HaltMinutes": "&nbsp;",
          "Day": 1,
          "Latitude": 25.95271,
          "Longitude": 93.754637,
          "stopNumberDisplay": "7.1",
          "Distance": "256.2"
        }
      ],
      "TrainNo": 12067,
      "StationCode": "DMV",
      "RouteNo": null,
      "StopNumber": 7,
      "TrainMappingKey": null,
      "StationName": "Dimapur",
      "ArrivalTime": "10:17",
      "DepartureTime": "10:22",
      "HaltMinutes": "5m",
      "Distance": "250.1",
      "HasWifi": true,
      "Day": 1,
      "DataChanged": false,
      "ExpectedPlatformNo": "1",
      "arrivalDelay": "28 Min",
      "departureDelay": "28 Min",
      "Latitude": 25.905962,
      "Longitude": 93.727929,
      "stopNumberDisplay": 7
    },
    {
      "intermediateStations": [
        {
          "StationName": "Chongajan",
          "StationCode": "CJA",
          "ArrivalTime": "10:45",
          "DepartureTime": "10:45",
          "HaltMinutes": "&nbsp;",
          "Day": 1,
          "Latitude": 26.058147,
          "Longitude": 93.815779,
          "stopNumberDisplay": "8.1",
          "Distance": "270.3"
        },
        {
          "StationName": "Naojan",
          "StationCode": "NJN",
          "ArrivalTime": "10:54",
          "DepartureTime": "10:54",
          "HaltMinutes": "&nbsp;",
          "Day": 1,
          "Latitude": 26.121852,
          "Longitude": 93.842672,
          "stopNumberDisplay": "8.2",
          "Distance": "278.0"
        },
        {
          "StationName": "Sarupathar",
          "StationCode": "SZR",
          "ArrivalTime": "11:03",
          "DepartureTime": "11:03",
          "HaltMinutes": "&nbsp;",
          "Day": 1,
          "Latitude": 26.195491,
          "Longitude": 93.862346,
          "stopNumberDisplay": "8.3",
          "Distance": "286.4"
        },
        {
          "StationName": "Barpathar",
          "StationCode": "BXP",
          "ArrivalTime": "11:14",
          "DepartureTime": "11:14",
          "HaltMinutes": "&nbsp;",
          "Day": 1,
          "Latitude": 26.273847,
          "Longitude": 93.899312,
          "stopNumberDisplay": "8.4",
          "Distance": "295.9"
        },
        {
          "StationName": "Bhilgaon",
          "StationCode": "BHGN",
          "ArrivalTime": "11:23",
          "DepartureTime": "11:23",
          "HaltMinutes": "&nbsp;",
          "Day": 1,
          "Latitude": 26.341659,
          "Longitude": 93.922373,
          "stopNumberDisplay": "8.5",
          "Distance": "303.8"
        },
        {
          "StationName": "Jamguri",
          "StationCode": "JMI",
          "ArrivalTime": "11:31",
          "DepartureTime": "11:31",
          "HaltMinutes": "&nbsp;",
          "Day": 1,
          "Latitude": 26.386629,
          "Longitude": 93.959455,
          "stopNumberDisplay": "8.6",
          "Distance": "310.5"
        },
        {
          "StationName": "Oating",
          "StationCode": "OTN",
          "ArrivalTime": "11:37",
          "DepartureTime": "11:37",
          "HaltMinutes": "&nbsp;",
          "Day": 1,
          "Latitude": 26.430215,
          "Longitude": 93.987619,
          "stopNumberDisplay": "8.7",
          "Distance": "316.1"
        }
      ],
      "TrainNo": 12067,
      "StationCode": "BXJ",
      "RouteNo": null,
      "StopNumber": 8,
      "TrainMappingKey": null,
      "StationName": "Bokajan",
      "ArrivalTime": "10:37",
      "DepartureTime": "10:38",
      "HaltMinutes": "1m",
      "Distance": "264.3",
      "HasWifi": false,
      "Day": 1,
      "DataChanged": false,
      "ExpectedPlatformNo": "2",
      "arrivalDelay": "27 Min",
      "departureDelay": "27 Min",
      "Latitude": 26.018798,
      "Longitude": 93.779997,
      "stopNumberDisplay": 8
    },
    {
      "intermediateStations": [
        {
          "StationName": "Kamarbandha Ali",
          "StationCode": "KXL",
          "ArrivalTime": "11:52",
          "DepartureTime": "11:52",
          "HaltMinutes": "&nbsp;",
          "Day": 1,
          "Latitude": 26.5296,
          "Longitude": 94.0562,
          "stopNumberDisplay": "9.1",
          "Distance": "329.2"
        },
        {
          "StationName": "Chakiting",
          "StationCode": "CFG",
          "ArrivalTime": "11:56",
          "DepartureTime": "11:56",
          "HaltMinutes": "&nbsp;",
          "Day": 1,
          "Latitude": 26.5617,
          "Longitude": 94.0957,
          "stopNumberDisplay": "9.2",
          "Distance": "334.6"
        },
        {
          "StationName": "Titabar",
          "StationCode": "TTB",
          "ArrivalTime": "12:06",
          "DepartureTime": "12:06",
          "HaltMinutes": "&nbsp;",
          "Day": 1,
          "Latitude": 26.6018,
          "Longitude": 94.1998,
          "stopNumberDisplay": "9.3",
          "Distance": "345.9"
        },
        {
          "StationName": "Kharikatia",
          "StationCode": "KQY",
          "ArrivalTime": "12:12",
          "DepartureTime": "12:12",
          "HaltMinutes": "&nbsp;",
          "Day": 1,
          "Latitude": 26.6205,
          "Longitude": 94.2614,
          "stopNumberDisplay": "9.4",
          "Distance": "352.4"
        }
      ],
      "TrainNo": 12067,
      "StationCode": "FKG",
      "RouteNo": null,
      "StopNumber": 9,
      "TrainMappingKey": null,
      "StationName": "Furkating Jn",
      "ArrivalTime": "11:42",
      "DepartureTime": "11:44",
      "HaltMinutes": "2m",
      "Distance": "320.3",
      "HasWifi": false,
      "Day": 1,
      "DataChanged": false,
      "ExpectedPlatformNo": "1",
      "arrivalDelay": "11 Min",
      "departureDelay": "11 Min",
      "Latitude": 26.464988,
      "Longitude": 94.002191,
      "stopNumberDisplay": 9
    },
    {
      "intermediateStations": [
        {
          "StationName": "Duklangia",
          "StationCode": "DLGS",
          "ArrivalTime": "12:35",
          "DepartureTime": "12:35",
          "HaltMinutes": "&nbsp;",
          "Day": 1,
          "Latitude": 26.6842,
          "Longitude": 94.2856,
          "stopNumberDisplay": "10.1",
          "Distance": "363.4"
        },
        {
          "StationName": "Cinnamara",
          "StationCode": "CMA",
          "ArrivalTime": "12:49",
          "DepartureTime": "12:49",
          "HaltMinutes": "&nbsp;",
          "Day": 1,
          "Latitude": 26.7064,
          "Longitude": 94.2396,
          "stopNumberDisplay": "10.2",
          "Distance": "368.7"
        }
      ],
      "TrainNo": 12067,
      "StationCode": "MXN",
      "RouteNo": null,
      "StopNumber": 10,
      "TrainMappingKey": null,
      "StationName": "Mariani Jn",
      "ArrivalTime": "12:17",
      "DepartureTime": "12:22",
      "HaltMinutes": "5m",
      "Distance": "358.4",
      "HasWifi": false,
      "Day": 1,
      "DataChanged": false,
      "ExpectedPlatformNo": "1",
      "arrivalDelay": "11 Min",
      "departureDelay": "11 Min",
      "Latitude": 26.6545,
      "Longitude": 94.311,
      "stopNumberDisplay": 10
    },
    {
      "intermediateStations": [],
      "TrainNo": 12067,
      "StationCode": "JTTN",
      "RouteNo": null,
      "StopNumber": 11,
      "TrainMappingKey": null,
      "StationName": "Jorhat Town",
      "ArrivalTime": "13:05",
      "DepartureTime": "",
      "HaltMinutes": "",
      "Distance": "374.7",
      "HasWifi": true,
      "Day": 1,
      "DataChanged": false,
      "ExpectedPlatformNo": "1",
      "arrivalDelay": "13 Min",
      "departureDelay": "13 Min",
      "Latitude": 26.7504,
      "Longitude": 94.2168,
      "stopNumberDisplay": 11
    }
  ],
  "Source": "Guwahati",
  "Destination": "Jorhat Town",
  "SourceCode": "GHY",
  "DestinationCode": "JTTN",
  "DaysOfRun": {
    "Sun": false,
    "Mon": true,
    "Tue": false,
    "Wed": false,
    "Thu": false,
    "Fri": false,
    "Sat": false
  },
  "FooterText": null,
  "TrainType": null,
  "IsUnreserved": false,
  "Rating": 4.3,
  "FoodRating": 3.8,
  "PunctualityRating": 4.1,
  "CleanlinessRating": 4.1,
  "RatingCount": 594,
  "TotalDuration": "6:55",
  "FromCity": "Guwahati",
  "ToCity": "Jorhat",
  "CacheTime": "2024-03-09T08:56:47.8600277+05:30",
  "HasPantry": false,
  "ErrorMsg": null
}