{
  "TrainName": "BBS JANSHATABDI",
  "TrainNo": 12073,
  "TrainNumberString": null,
  "CoachPosition": "L DL1 DE1 D13 D12 D11 D10 D9 D8 D7 D6 D5 D4 C2 C1 D3 D2 D1 EOG",
  "Classes": [
    "CC",
    "2S"
  ],
  "Schedule": [
    {
      "intermediateStations": [
        {
          "StationName": "Howrah Cabin",
          "StationCode": "HJN",
          "ArrivalTime": "13:26",
          "DepartureTime": "13:26",
          "HaltMinutes": "&nbsp;",
          "Day": 1,
          "Latitude": 22.58699,
          "Longitude": 88.33553,
          "stopNumberDisplay": "1.1",
          "Distance": "0.8"
        },
        {
          "StationName": "Howrah Goods Cabin",
          "StationCode": "HWHG",
          "ArrivalTime": "13:26",
          "DepartureTime": "13:26",
          "HaltMinutes": "&nbsp;",
          "Day": 1,
          "Latitude": null,
          "Longitude": null,
          "stopNumberDisplay": "1.2",
          "Distance": "1.1"
        },
        {
          "StationName": "Tikiapara",
          "StationCode": "TPKR",
          "ArrivalTime": "13:27",
          "DepartureTime": "13:27",
          "HaltMinutes": "&nbsp;",
          "Day": 1,
          "Latitude": 22.59864,
          "Longitude": 88.32371,
          "stopNumberDisplay": "1.3",
          "Distance": "2.7"
        },
        {
          "StationName": "Dasnagar",
          "StationCode": "DSNR",
          "ArrivalTime": "13:29",
          "DepartureTime": "13:29",
          "HaltMinutes": "&nbsp;",
          "Day": 1,
          "Latitude": 22.59788,
          "Longitude": 88.3075,
          "stopNumberDisplay": "1.4",
          "Distance": "4.4"
        },
        {
          "StationName": "Ramrajatala",
          "StationCode": "RMJ",
          "ArrivalTime": "13:30",
          "DepartureTime": "13:30",
          "HaltMinutes": "&nbsp;",
          "Day": 1,
          "Latitude": 22.58941,
          "Longitude": 88.29685,
          "stopNumberDisplay": "1.5",
          "Distance": "5.9"
        },
        {
          "StationName": "Santragachi Jn",
          "StationCode": "SRC",
          "ArrivalTime": "13:31",
          "DepartureTime": "13:31",
          "HaltMinutes": "&nbsp;",
          "Day": 1,
          "Latitude": 22.58363,
          "Longitude": 88.28557,
          "stopNumberDisplay": "1.6",
          "Distance": "7.3"
        },
        {
          "StationName": "Maurigram",
          "StationCode": "MRGM",
          "ArrivalTime": "13:34",
          "DepartureTime": "13:34",
          "HaltMinutes": "&nbsp;",
          "Day": 1,
          "Latitude": 22.57995,
          "Longitude": 88.25583,
          "stopNumberDisplay": "1.7",
          "Distance": "10.4"
        },
        {
          "StationName": "Andul",
          "StationCode": "ADL",
          "ArrivalTime": "13:35",
          "DepartureTime": "13:35",
          "HaltMinutes": "&nbsp;",
          "Day": 1,
          "Latitude": 22.5754,
          "Longitude": 88.2399,
          "stopNumberDisplay": "1.8",
          "Distance": "12.2"
        },
        {
          "StationName": "Sankrail",
          "StationCode": "SEL",
          "ArrivalTime": "13:38",
          "DepartureTime": "13:38",
          "HaltMinutes": "&nbsp;",
          "Day": 1,
          "Latitude": 22.5624,
          "Longitude": 88.2099,
          "stopNumberDisplay": "1.9",
          "Distance": "15.8"
        },
        {
          "StationName": "Sankrail Goods Yard",
          "StationCode": "SGTY",
          "ArrivalTime": "13:39",
          "DepartureTime": "13:39",
          "HaltMinutes": "&nbsp;",
          "Day": 1,
          "Latitude": null,
          "Longitude": null,
          "stopNumberDisplay": "1.10",
          "Distance": "17.0"
        },
        {
          "StationName": "Abada",
          "StationCode": "ABB",
          "ArrivalTime": "13:40",
          "DepartureTime": "13:40",
          "HaltMinutes": "&nbsp;",
          "Day": 1,
          "Latitude": 22.5475,
          "Longitude": 88.1994,
          "stopNumberDisplay": "1.11",
          "Distance": "17.6"
        },
        {
          "StationName": "Nalpur",
          "StationCode": "NALR",
          "ArrivalTime": "13:42",
          "DepartureTime": "13:42",
          "HaltMinutes": "&nbsp;",
          "Day": 1,
          "Latitude": 22.5289,
          "Longitude": 88.1857,
          "stopNumberDisplay": "1.12",
          "Distance": "20.1"
        },
        {
          "StationName": "Bauria",
          "StationCode": "BVA",
          "ArrivalTime": "13:45",
          "DepartureTime": "13:45",
          "HaltMinutes": "&nbsp;",
          "Day": 1,
          "Latitude": 22.5028,
          "Longitude": 88.1629,
          "stopNumberDisplay": "1.13",
          "Distance": "24.0"
        },
        {
          "StationName": "Chengel",
          "StationCode": "CGA",
          "ArrivalTime": "13:47",
          "DepartureTime": "13:47",
          "HaltMinutes": "&nbsp;",
          "Day": 1,
          "Latitude": 22.4866,
          "Longitude": 88.1388,
          "stopNumberDisplay": "1.14",
          "Distance": "27.0"
        },
        {
          "StationName": "Fuleswar",
          "StationCode": "FLR",
          "ArrivalTime": "13:50",
          "DepartureTime": "13:50",
          "HaltMinutes": "&nbsp;",
          "Day": 1,
          "Latitude": 22.4775,
          "Longitude": 88.1156,
          "stopNumberDisplay": "1.15",
          "Distance": "29.7"
        },
        {
          "StationName": "Uluberia",
          "StationCode": "ULB",
          "ArrivalTime": "13:51",
          "DepartureTime": "13:51",
          "HaltMinutes": "&nbsp;",
          "Day": 1,
          "Latitude": 22.4725,
          "Longitude": 88.0924,
          "stopNumberDisplay": "1.16",
          "Distance": "32.0"
        },
        {
          "StationName": "Bir Shibpur",
          "StationCode": "BSBP",
          "ArrivalTime": "13:55",
          "DepartureTime": "13:55",
          "HaltMinutes": "&nbsp;",
          "Day": 1,
          "Latitude": 22.4737,
          "Longitude": 88.0536,
          "stopNumberDisplay": "1.17",
          "Distance": "36.1"
        },
        {
          "StationName": "Kulgachia",
          "StationCode": "KGY",
          "ArrivalTime": "13:58",
          "DepartureTime": "13:58",
          "HaltMinutes": "&nbsp;",
          "Day": 1,
          "Latitude": 22.4722,
          "Longitude": 88.0204,
          "stopNumberDisplay": "1.18",
          "Distance": "39.6"
        },
        {
          "StationName": "Bagnan",
          "StationCode": "BZN",
          "ArrivalTime": "14:02",
          "DepartureTime": "14:02",
          "HaltMinutes": "&nbsp;",
          "Day": 1,
          "Latitude": 22.4621,
          "Longitude": 87.9694,
          "stopNumberDisplay": "1.19",
          "Distance": "45.0"
        },
        {
          "StationName": "Ghoraghata",
          "StationCode": "GGTA",
          "ArrivalTime": "14:04",
          "DepartureTime": "14:04",
          "HaltMinutes": "&nbsp;",
          "Day": 1,
          "Latitude": 22.458,
          "Longitude": 87.9439,
          "stopNumberDisplay": "1.20",
          "Distance": "47.7"
        },
        {
          "StationName": "Deulti",
          "StationCode": "DTE",
          "ArrivalTime": "14:07",
          "DepartureTime": "14:07",
          "HaltMinutes": "&nbsp;",
          "Day": 1,
          "Latitude": 22.4533,
          "Longitude": 87.9144,
          "stopNumberDisplay": "1.21",
          "Distance": "50.8"
        },
        {
          "StationName": "Kolaghat",
          "StationCode": "KIG",
          "ArrivalTime": "14:10",
          "DepartureTime": "14:10",
          "HaltMinutes": "&nbsp;",
          "Day": 1,
          "Latitude": 22.4344,
          "Longitude": 87.8802,
          "stopNumberDisplay": "1.22",
          "Distance": "55.0"
        },
        {
          "StationName": "Mecheda",
          "StationCode": "MCA",
          "ArrivalTime": "14:13",
          "DepartureTime": "14:13",
          "HaltMinutes": "&nbsp;",
          "Day": 1,
          "Latitude": 22.4134,
          "Longitude": 87.8572,
          "stopNumberDisplay": "1.23",
          "Distance": "58.2"
        },
        {
          "StationName": "Nandaigajan P H",
          "StationCode": "NDGJ",
          "ArrivalTime": "14:16",
          "DepartureTime": "14:16",
          "HaltMinutes": "&nbsp;",
          "Day": 1,
          "Latitude": 22.4039,
          "Longitude": 87.8325,
          "stopNumberDisplay": "1.24",
          "Distance": "61.1"
        },
        {
          "StationName": "Bhogpur",
          "StationCode": "BOP",
          "ArrivalTime": "14:17",
          "DepartureTime": "14:17",
          "HaltMinutes": "&nbsp;",
          "Day": 1,
          "Latitude": 22.4016,
          "Longitude": 87.8099,
          "stopNumberDisplay": "1.25",
          "Distance": "63.5"
        },
        {
          "StationName": "Narayan Pakuria Murail",
          "StationCode": "NPMR",
          "ArrivalTime": "14:21",
          "DepartureTime": "14:21",
          "HaltMinutes": "&nbsp;",
          "Day": 1,
          "Latitude": 22.3997,
          "Longitude": 87.7742,
          "stopNumberDisplay": "1.26",
          "Distance": "67.2"
        },
        {
          "StationName": "Panskura East Outer Cabin",
          "StationCode": "PKEO",
          "ArrivalTime": "14:21",
          "DepartureTime": "14:21",
          "HaltMinutes": "&nbsp;",
          "Day": 1,
          "Latitude": 22.3974,
          "Longitude": 87.7638,
          "stopNumberDisplay": "1.27",
          "Distance": "68.2"
        },
        {
          "StationName": "Panskura Jn",
          "StationCode": "PKU",
          "ArrivalTime": "14:23",
          "DepartureTime": "14:23",
          "HaltMinutes": "&nbsp;",
          "Day": 1,
          "Latitude": 22.3927,
          "Longitude": 87.7417,
          "stopNumberDisplay": "1.28",
          "Distance": "70.5"
        },
        {
          "StationName": "Khirai",
          "StationCode": "KHAI",
          "ArrivalTime": "14:28",
          "DepartureTime": "14:28",
          "HaltMinutes": "&nbsp;",
          "Day": 1,
          "Latitude": 22.3747,
          "Longitude": 87.6963,
          "stopNumberDisplay": "1.29",
          "Distance": "75.7"
        },
        {
          "StationName": "Haur",
          "StationCode": "HAUR",
          "ArrivalTime": "14:31",
          "DepartureTime": "14:31",
          "HaltMinutes": "&nbsp;",
          "Day": 1,
          "Latitude": 22.3656,
          "Longitude": 87.6545,
          "stopNumberDisplay": "1.30",
          "Distance": "80.1"
        },
        {
          "StationName": "Radhamohanpur",
          "StationCode": "RDU",
          "ArrivalTime": "14:35",
          "DepartureTime": "14:35",
          "HaltMinutes": "&nbsp;",
          "Day": 1,
          "Latitude": 22.3565,
          "Longitude": 87.6129,
          "stopNumberDisplay": "1.31",
          "Distance": "84.5"
        },
        {
          "StationName": "Duan",
          "StationCode": "DUAN",
          "ArrivalTime": "14:37",
          "DepartureTime": "14:37",
          "HaltMinutes": "&nbsp;",
          "Day": 1,
          "Latitude": 22.3547,
          "Longitude": 87.5829,
          "stopNumberDisplay": "1.32",
          "Distance": "87.6"
        },
        {
          "StationName": "Balichak",
          "StationCode": "BCK",
          "ArrivalTime": "14:40",
          "DepartureTime": "14:40",
          "HaltMinutes": "&nbsp;",
          "Day": 1,
          "Latitude": 22.3579,
          "Longitude": 87.5527,
          "stopNumberDisplay": "1.33",
          "Distance": "90.8"
        },
        {
          "StationName": "Shyam Chak",
          "StationCode": "SMCK",
          "ArrivalTime": "14:44",
          "DepartureTime": "14:44",
          "HaltMinutes": "&nbsp;",
          "Day": 1,
          "Latitude": 22.3634,
          "Longitude": 87.5002,
          "stopNumberDisplay": "1.34",
          "Distance": "96.2"
        },
        {
          "StationName": "Madpur",
          "StationCode": "MPD",
          "ArrivalTime": "14:49",
          "DepartureTime": "14:49",
          "HaltMinutes": "&nbsp;",
          "Day": 1,
          "Latitude": 22.3693,
          "Longitude": 87.4431,
          "stopNumberDisplay": "1.35",
          "Distance": "102.1"
        },
        {
          "StationName": "Jakpur",
          "StationCode": "JPR",
          "ArrivalTime": "14:54",
          "DepartureTime": "14:54",
          "HaltMinutes": "&nbsp;",
          "Day": 1,
          "Latitude": 22.3622,
          "Longitude": 87.3897,
          "stopNumberDisplay": "1.36",
          "Distance": "107.9"
        }
      ],
      "TrainNo": 12073,
      "StationCode": "HWH",
      "RouteNo": null,
      "StopNumber": 1,
      "TrainMappingKey": null,
      "StationName": "Howrah Jn",
      "ArrivalTime": "",
      "DepartureTime": "13:25",
      "HaltMinutes": "",
      "Distance": "0.0",
      "HasWifi": false,
      "Day": 1,
      "DataChanged": false,
      "ExpectedPlatformNo": "19",
      "arrivalDelay": "07 Min",
      "departureDelay": "07 Min",
      "Latitude": null,
      "Longitude": null,
      "stopNumberDisplay": 1
    },
    {
      "intermediateStations": [
        {
          "StationName": "Kharagpur Workshop",
          "StationCode": "KGPW",
          "ArrivalTime": "15:07",
          "DepartureTime": "15:07",
          "HaltMinutes": "&nbsp;",
          "Day": 1,
          "Latitude": 22.33461,
          "Longitude": 87.28834,
          "stopNumberDisplay": "2.1",
          "Distance": "116.9"
        },
        {
          "StationName": "Hijli",
          "StationCode": "HIJ",
          "ArrivalTime": "15:09",
          "DepartureTime": "15:09",
          "HaltMinutes": "&nbsp;",
          "Day": 1,
          "Latitude": 22.3198,
          "Longitude": 87.3193,
          "stopNumberDisplay": "2.2",
          "Distance": "118.9"
        },
        {
          "StationName": "Benapur",
          "StationCode": "BPE",
          "ArrivalTime": "15:17",
          "DepartureTime": "15:17",
          "HaltMinutes": "&nbsp;",
          "Day": 1,
          "Latitude": 22.2717,
          "Longitude": 87.3766,
          "stopNumberDisplay": "2.3",
          "Distance": "126.9"
        },
        {
          "StationName": "Narayangarh",
          "StationCode": "NYA",
          "ArrivalTime": "15:28",
          "DepartureTime": "15:28",
          "HaltMinutes": "&nbsp;",
          "Day": 1,
          "Latitude": 22.174086,
          "Longitude": 87.380585,
          "stopNumberDisplay": "2.4",
          "Distance": "138.0"
        },
        {
          "StationName": "Bakhrabad",
          "StationCode": "VKD",
          "ArrivalTime": "15:34",
          "DepartureTime": "15:34",
          "HaltMinutes": "&nbsp;",
          "Day": 1,
          "Latitude": 22.118519,
          "Longitude": 87.363496,
          "stopNumberDisplay": "2.5",
          "Distance": "144.5"
        }
      ],
      "TrainNo": 12073,
      "StationCode": "KGP",
      "RouteNo": null,
      "StopNumber": 2,
      "TrainMappingKey": null,
      "StationName": "Kharagpur Jn",
      "ArrivalTime": "15:00",
      "DepartureTime": "15:05",
      "HaltMinutes": "5m",
      "Distance": "115.0",
      "HasWifi": true,
      "Day": 1,
      "DataChanged": false,
      "ExpectedPlatformNo": "1",
      "arrivalDelay": "09 Min",
      "departureDelay": "09 Min",
      "Latitude": 22.3408,
      "Longitude": 87.3259,
      "stopNumberDisplay": 2
    },
    {
      "intermediateStations": [
        {
          "StationName": "Nekurseni",
          "StationCode": "NSI",
          "ArrivalTime": "15:45",
          "DepartureTime": "15:45",
          "HaltMinutes": "&nbsp;",
          "Day": 1,
          "Latitude": 22.004274,
          "Longitude": 87.305873,
          "stopNumberDisplay": "3.1",
          "Distance": "158.5"
        },
        {
          "StationName": "Dantan",
          "StationCode": "DNT",
          "ArrivalTime": "15:49",
          "DepartureTime": "15:49",
          "HaltMinutes": "&nbsp;",
          "Day": 1,
          "Latitude": 21.930179,
          "Longitude": 87.284114,
          "stopNumberDisplay": "3.2",
          "Distance": "167.1"
        },
        {
          "StationName": "Angua",
          "StationCode": "AGV",
          "ArrivalTime": "15:51",
          "DepartureTime": "15:51",
          "HaltMinutes": "&nbsp;",
          "Day": 1,
          "Latitude": 21.892567,
          "Longitude": 87.269899,
          "stopNumberDisplay": "3.3",
          "Distance": "171.5"
        },
        {
          "StationName": "Lakshannath Road",
          "StationCode": "LXD",
          "ArrivalTime": "15:53",
          "DepartureTime": "15:53",
          "HaltMinutes": "&nbsp;",
          "Day": 1,
          "Latitude": 21.8419,
          "Longitude": 87.2511,
          "stopNumberDisplay": "3.4",
          "Distance": "177.6"
        }
      ],
      "TrainNo": 12073,
      "StationCode": "BLDA",
      "RouteNo": null,
      "StopNumber": 3,
      "TrainMappingKey": null,
      "StationName": "Belda",
      "ArrivalTime": "15:40",
      "DepartureTime": "15:41",
      "HaltMinutes": "1m",
      "Distance": "150.4",
      "HasWifi": false,
      "Day": 1,
      "DataChanged": false,
      "ExpectedPlatformNo": null,
      "arrivalDelay": null,
      "departureDelay": null,
      "Latitude": 22.0677949,
      "Longitude": 87.3363934,
      "stopNumberDisplay": 3
    },
    {
      "intermediateStations": [
        {
          "StationName": "Rajghat",
          "StationCode": "RGT",
          "ArrivalTime": "16:04",
          "DepartureTime": "16:04",
          "HaltMinutes": "&nbsp;",
          "Day": 1,
          "Latitude": 21.7646,
          "Longitude": 87.1553,
          "stopNumberDisplay": "4.1",
          "Distance": "191.3"
        },
        {
          "StationName": "Amarda Road",
          "StationCode": "ARD",
          "ArrivalTime": "16:09",
          "DepartureTime": "16:09",
          "HaltMinutes": "&nbsp;",
          "Day": 1,
          "Latitude": 21.734,
          "Longitude": 87.1022,
          "stopNumberDisplay": "4.2",
          "Distance": "197.8"
        },
        {
          "StationName": "Basta",
          "StationCode": "BTS",
          "ArrivalTime": "16:14",
          "DepartureTime": "16:14",
          "HaltMinutes": "&nbsp;",
          "Day": 1,
          "Latitude": 21.7026,
          "Longitude": 87.0634,
          "stopNumberDisplay": "4.3",
          "Distance": "203.2"
        },
        {
          "StationName": "Nuagan Mayurbhanj Road",
          "StationCode": "NMBR",
          "ArrivalTime": "16:17",
          "DepartureTime": "16:17",
          "HaltMinutes": "&nbsp;",
          "Day": 1,
          "Latitude": 21.6666,
          "Longitude": 87.0384,
          "stopNumberDisplay": "4.4",
          "Distance": "207.6"
        },
        {
          "StationName": "Rupsa Jn",
          "StationCode": "ROP",
          "ArrivalTime": "16:22",
          "DepartureTime": "16:22",
          "HaltMinutes": "&nbsp;",
          "Day": 1,
          "Latitude": 21.622,
          "Longitude": 87.019,
          "stopNumberDisplay": "4.5",
          "Distance": "213.2"
        },
        {
          "StationName": "Haldipada",
          "StationCode": "HIP",
          "ArrivalTime": "16:27",
          "DepartureTime": "16:27",
          "HaltMinutes": "&nbsp;",
          "Day": 1,
          "Latitude": 21.5714,
          "Longitude": 86.9968,
          "stopNumberDisplay": "4.6",
          "Distance": "219.3"
        },
        {
          "StationName": "Tikirapal PH",
          "StationCode": "TKPL",
          "ArrivalTime": "16:32",
          "DepartureTime": "16:32",
          "HaltMinutes": "&nbsp;",
          "Day": 1,
          "Latitude": 21.5357,
          "Longitude": 86.9449,
          "stopNumberDisplay": "4.7",
          "Distance": "226.1"
        }
      ],
      "TrainNo": 12073,
      "StationCode": "JER",
      "RouteNo": null,
      "StopNumber": 4,
      "TrainMappingKey": null,
      "StationName": "Jaleswar",
      "ArrivalTime": "15:56",
      "DepartureTime": "15:58",
      "HaltMinutes": "2m",
      "Distance": "183.6",
      "HasWifi": false,
      "Day": 1,
      "DataChanged": false,
      "ExpectedPlatformNo": "3",
      "arrivalDelay": "07 Min",
      "departureDelay": "07 Min",
      "Latitude": 21.7973,
      "Longitude": 87.22,
      "stopNumberDisplay": 4
    },
    {
      "intermediateStations": [
        {
          "StationName": "Nilgiri Road",
          "StationCode": "NGRD",
          "ArrivalTime": "16:46",
          "DepartureTime": "16:46",
          "HaltMinutes": "&nbsp;",
          "Day": 1,
          "Latitude": 21.4264,
          "Longitude": 86.8559,
          "stopNumberDisplay": "5.1",
          "Distance": "241.8"
        },
        {
          "StationName": "Khantapara",
          "StationCode": "KHF",
          "ArrivalTime": "16:48",
          "DepartureTime": "16:48",
          "HaltMinutes": "&nbsp;",
          "Day": 1,
          "Latitude": 21.3962,
          "Longitude": 86.8233,
          "stopNumberDisplay": "5.2",
          "Distance": "246.5"
        },
        {
          "StationName": "Panpana PH",
          "StationCode": "PNPN",
          "ArrivalTime": "16:51",
          "DepartureTime": "16:51",
          "HaltMinutes": "&nbsp;",
          "Day": 1,
          "Latitude": 21.3615,
          "Longitude": 86.7931,
          "stopNumberDisplay": "5.3",
          "Distance": "251.5"
        },
        {
          "StationName": "Bahanaga Bazar",
          "StationCode": "BNBR",
          "ArrivalTime": "16:53",
          "DepartureTime": "16:53",
          "HaltMinutes": "&nbsp;",
          "Day": 1,
          "Latitude": 21.3355,
          "Longitude": 86.761,
          "stopNumberDisplay": "5.4",
          "Distance": "255.9"
        }
      ],
      "TrainNo": 12073,
      "StationCode": "BLS",
      "RouteNo": null,
      "StopNumber": 5,
      "TrainMappingKey": null,
      "StationName": "Baleshwar",
      "ArrivalTime": "16:36",
      "DepartureTime": "16:40",
      "HaltMinutes": "4m",
      "Distance": "231.1",
      "HasWifi": true,
      "Day": 1,
      "DataChanged": false,
      "ExpectedPlatformNo": "2",
      "arrivalDelay": "10 Min",
      "departureDelay": "10 Min",
      "Latitude": 21.5011,
      "Longitude": 86.9202,
      "stopNumberDisplay": 5
    },
    {
      "intermediateStations": [
        {
          "StationName": "Sabira",
          "StationCode": "SZZ",
          "ArrivalTime": "17:10",
          "DepartureTime": "17:10",
          "HaltMinutes": "&nbsp;",
          "Day": 1,
          "Latitude": 21.2381,
          "Longitude": 86.6311,
          "stopNumberDisplay": "6.1",
          "Distance": "273.2"
        },
        {
          "StationName": "Markona",
          "StationCode": "MKO",
          "ArrivalTime": "17:17",
          "DepartureTime": "17:17",
          "HaltMinutes": "&nbsp;",
          "Day": 1,
          "Latitude": 21.1948,
          "Longitude": 86.5958,
          "stopNumberDisplay": "6.2",
          "Distance": "279.2"
        },
        {
          "StationName": "Ranital",
          "StationCode": "RNTL",
          "ArrivalTime": "17:24",
          "DepartureTime": "17:24",
          "HaltMinutes": "&nbsp;",
          "Day": 1,
          "Latitude": 21.1496,
          "Longitude": 86.5567,
          "stopNumberDisplay": "6.3",
          "Distance": "285.7"
        },
        {
          "StationName": "Ranital Link Jn Cabin",
          "StationCode": "RLJC",
          "ArrivalTime": "17:27",
          "DepartureTime": "17:27",
          "HaltMinutes": "&nbsp;",
          "Day": 1,
          "Latitude": 21.1282,
          "Longitude": 86.5415,
          "stopNumberDisplay": "6.4",
          "Distance": "288.6"
        }
      ],
      "TrainNo": 12073,
      "StationCode": "SORO",
      "RouteNo": null,
      "StopNumber": 6,
      "TrainMappingKey": null,
      "StationName": "Soro",
      "ArrivalTime": "16:58",
      "DepartureTime": "17:00",
      "HaltMinutes": "2m",
      "Distance": "264.5",
      "HasWifi": false,
      "Day": 1,
      "DataChanged": false,
      "ExpectedPlatformNo": "3",
      "arrivalDelay": "06 Min",
      "departureDelay": "06 Min",
      "Latitude": 21.2911,
      "Longitude": 86.6926,
      "stopNumberDisplay": 6
    },
    {
      "intermediateStations": [
        {
          "StationName": "Randia Baudpur",
          "StationCode": "RDBR",
          "ArrivalTime": "17:41",
          "DepartureTime": "17:41",
          "HaltMinutes": "&nbsp;",
          "Day": 1,
          "Latitude": null,
          "Longitude": null,
          "stopNumberDisplay": "7.1",
          "Distance": "300.0"
        },
        {
          "StationName": "Kapali Road PH",
          "StationCode": "KPLD",
          "ArrivalTime": "17:45",
          "DepartureTime": "17:45",
          "HaltMinutes": "&nbsp;",
          "Day": 1,
          "Latitude": 21.0474,
          "Longitude": 86.4248,
          "stopNumberDisplay": "7.2",
          "Distance": "304.7"
        },
        {
          "StationName": "Kenduapada",
          "StationCode": "KED",
          "ArrivalTime": "17:49",
          "DepartureTime": "17:49",
          "HaltMinutes": "&nbsp;",
          "Day": 1,
          "Latitude": 21.0301,
          "Longitude": 86.3832,
          "stopNumberDisplay": "7.3",
          "Distance": "309.0"
        },
        {
          "StationName": "Manjuri Road",
          "StationCode": "MZZ",
          "ArrivalTime": "17:55",
          "DepartureTime": "17:55",
          "HaltMinutes": "&nbsp;",
          "Day": 1,
          "Latitude": 21.0118,
          "Longitude": 86.3196,
          "stopNumberDisplay": "7.4",
          "Distance": "315.9"
        },
        {
          "StationName": "Dulakhapatana PH",
          "StationCode": "DLPT",
          "ArrivalTime": "17:58",
          "DepartureTime": "17:58",
          "HaltMinutes": "&nbsp;",
          "Day": 1,
          "Latitude": 21.0074,
          "Longitude": 86.2822,
          "stopNumberDisplay": "7.5",
          "Distance": "319.9"
        },
        {
          "StationName": "Baitarani Road",
          "StationCode": "BTV",
          "ArrivalTime": "18:03",
          "DepartureTime": "18:03",
          "HaltMinutes": "&nbsp;",
          "Day": 1,
          "Latitude": 20.9872,
          "Longitude": 86.2357,
          "stopNumberDisplay": "7.6",
          "Distance": "325.5"
        },
        {
          "StationName": "Korai",
          "StationCode": "KRIH",
          "ArrivalTime": "18:09",
          "DepartureTime": "18:09",
          "HaltMinutes": "&nbsp;",
          "Day": 1,
          "Latitude": 20.9593,
          "Longitude": 86.1762,
          "stopNumberDisplay": "7.7",
          "Distance": "332.2"
        }
      ],
      "TrainNo": 12073,
      "StationCode": "BHC",
      "RouteNo": null,
      "StopNumber": 7,
      "TrainMappingKey": null,
      "StationName": "Bhadrak",
      "ArrivalTime": "17:33",
      "DepartureTime": "17:35",
      "HaltMinutes": "2m",
      "Distance": "293.5",
      "HasWifi": true,
      "Day": 1,
      "DataChanged": false,
      "ExpectedPlatformNo": "2",
      "arrivalDelay": "08 Min",
      "departureDelay": "08 Min",
      "Latitude": 21.0907,
      "Longitude": 86.5157,
      "stopNumberDisplay": 7
    },
    {
      "intermediateStations": [
        {
          "StationName": "Jakhapura Jn",
          "StationCode": "JKPR",
          "ArrivalTime": "18:21",
          "DepartureTime": "18:21",
          "HaltMinutes": "&nbsp;",
          "Day": 1,
          "Latitude": 20.9166,
          "Longitude": 86.0643,
          "stopNumberDisplay": "8.1",
          "Distance": "345.0"
        },
        {
          "StationName": "Brahmani P H",
          "StationCode": "BRMI",
          "ArrivalTime": "18:23",
          "DepartureTime": "18:23",
          "HaltMinutes": "&nbsp;",
          "Day": 1,
          "Latitude": 20.8677,
          "Longitude": 86.0547,
          "stopNumberDisplay": "8.2",
          "Distance": "348.0"
        },
        {
          "StationName": "Jenapur",
          "StationCode": "JEN",
          "ArrivalTime": "18:27",
          "DepartureTime": "18:27",
          "HaltMinutes": "&nbsp;",
          "Day": 1,
          "Latitude": 20.8507,
          "Longitude": 86.0659,
          "stopNumberDisplay": "8.3",
          "Distance": "352.8"
        },
        {
          "StationName": "New Garh Madhopur",
          "StationCode": "NGMP",
          "ArrivalTime": "18:31",
          "DepartureTime": "18:31",
          "HaltMinutes": "&nbsp;",
          "Day": 1,
          "Latitude": 20.7985,
          "Longitude": 86.0723,
          "stopNumberDisplay": "8.4",
          "Distance": "358.7"
        },
        {
          "StationName": "Haridaspur",
          "StationCode": "HDS",
          "ArrivalTime": "18:39",
          "DepartureTime": "18:39",
          "HaltMinutes": "&nbsp;",
          "Day": 1,
          "Latitude": 20.7254,
          "Longitude": 86.116,
          "stopNumberDisplay": "8.5",
          "Distance": "368.6"
        },
        {
          "StationName": "Dhanmandal",
          "StationCode": "DNM",
          "ArrivalTime": "18:42",
          "DepartureTime": "18:42",
          "HaltMinutes": "&nbsp;",
          "Day": 1,
          "Latitude": 20.6864,
          "Longitude": 86.1116,
          "stopNumberDisplay": "8.6",
          "Distance": "373.7"
        },
        {
          "StationName": "Barithengarh",
          "StationCode": "BRTG",
          "ArrivalTime": "18:47",
          "DepartureTime": "18:47",
          "HaltMinutes": "&nbsp;",
          "Day": 1,
          "Latitude": 20.6567,
          "Longitude": 86.0592,
          "stopNumberDisplay": "8.7",
          "Distance": "380.1"
        },
        {
          "StationName": "Byree",
          "StationCode": "BYY",
          "ArrivalTime": "18:50",
          "DepartureTime": "18:50",
          "HaltMinutes": "&nbsp;",
          "Day": 1,
          "Latitude": 20.628,
          "Longitude": 86.0351,
          "stopNumberDisplay": "8.8",
          "Distance": "384.5"
        },
        {
          "StationName": "Sri Jhadeswar P H",
          "StationCode": "SJDR",
          "ArrivalTime": "18:53",
          "DepartureTime": "18:53",
          "HaltMinutes": "&nbsp;",
          "Day": 1,
          "Latitude": 20.5975,
          "Longitude": 86.0204,
          "stopNumberDisplay": "8.9",
          "Distance": "387.5"
        },
        {
          "StationName": "Kapilas Road Jn",
          "StationCode": "KIS",
          "ArrivalTime": "18:58",
          "DepartureTime": "18:58",
          "HaltMinutes": "&nbsp;",
          "Day": 1,
          "Latitude": 20.55793,
          "Longitude": 85.99319,
          "stopNumberDisplay": "8.10",
          "Distance": "394.4"
        },
        {
          "StationName": "Nergundi Jn",
          "StationCode": "NRG",
          "ArrivalTime": "19:01",
          "DepartureTime": "19:01",
          "HaltMinutes": "&nbsp;",
          "Day": 1,
          "Latitude": 20.53779,
          "Longitude": 85.95799,
          "stopNumberDisplay": "8.11",
          "Distance": "398.6"
        },
        {
          "StationName": "Manguli Chowdwar PH",
          "StationCode": "MACR",
          "ArrivalTime": "19:03",
          "DepartureTime": "19:03",
          "HaltMinutes": "&nbsp;",
          "Day": 1,
          "Latitude": 20.52591,
          "Longitude": 85.93662,
          "stopNumberDisplay": "8.12",
          "Distance": "401.2"
        },
        {
          "StationName": "Kendrapara Road",
          "StationCode": "KNPR",
          "ArrivalTime": "19:06",
          "DepartureTime": "19:06",
          "HaltMinutes": "&nbsp;",
          "Day": 1,
          "Latitude": 20.49868,
          "Longitude": 85.91855,
          "stopNumberDisplay": "8.13",
          "Distance": "405.1"
        }
      ],
      "TrainNo": 12073,
      "StationCode": "JJKR",
      "RouteNo": null,
      "StopNumber": 8,
      "TrainMappingKey": null,
      "StationName": "Jajpur Keonjhar Road",
      "ArrivalTime": "18:13",
      "DepartureTime": "18:15",
      "HaltMinutes": "2m",
      "Distance": "337.1",
      "HasWifi": true,
      "Day": 1,
      "DataChanged": false,
      "ExpectedPlatformNo": "3",
      "arrivalDelay": "12 Min",
      "departureDelay": "12 Min",
      "Latitude": 20.9425,
      "Longitude": 86.1322,
      "stopNumberDisplay": 8
    },
    {
      "intermediateStations": [
        {
          "StationName": "Katha Jori",
          "StationCode": "KTJI",
          "ArrivalTime": "19:14",
          "DepartureTime": "19:14",
          "HaltMinutes": "&nbsp;",
          "Day": 1,
          "Latitude": 20.44972,
          "Longitude": 85.89631,
          "stopNumberDisplay": "9.1",
          "Distance": "410.9"
        },
        {
          "StationName": "Gopalpur Balikuda",
          "StationCode": "GBK",
          "ArrivalTime": "19:19",
          "DepartureTime": "19:19",
          "HaltMinutes": "&nbsp;",
          "Day": 1,
          "Latitude": 20.4326,
          "Longitude": 85.8784,
          "stopNumberDisplay": "9.2",
          "Distance": "413.6"
        },
        {
          "StationName": "Barang Jn",
          "StationCode": "BRAG",
          "ArrivalTime": "19:32",
          "DepartureTime": "19:32",
          "HaltMinutes": "&nbsp;",
          "Day": 1,
          "Latitude": 20.40438,
          "Longitude": 85.83229,
          "stopNumberDisplay": "9.3",
          "Distance": "421.0"
        },
        {
          "StationName": "Bhubaneswar New",
          "StationCode": "BBSN",
          "ArrivalTime": "19:36",
          "DepartureTime": "19:36",
          "HaltMinutes": "&nbsp;",
          "Day": 1,
          "Latitude": 20.38269,
          "Longitude": 85.83564,
          "stopNumberDisplay": "9.4",
          "Distance": "423.5"
        },
        {
          "StationName": "Patia P H",
          "StationCode": "PTAB",
          "ArrivalTime": "19:43",
          "DepartureTime": "19:43",
          "HaltMinutes": "&nbsp;",
          "Day": 1,
          "Latitude": 20.3484,
          "Longitude": 85.8414,
          "stopNumberDisplay": "9.5",
          "Distance": "427.3"
        },
        {
          "StationName": "Mancheswar",
          "StationCode": "MCS",
          "ArrivalTime": "19:48",
          "DepartureTime": "19:48",
          "HaltMinutes": "&nbsp;",
          "Day": 1,
          "Latitude": 20.322,
          "Longitude": 85.8456,
          "stopNumberDisplay": "9.6",
          "Distance": "430.2"
        },
        {
          "StationName": "Vani Vihar",
          "StationCode": "BNBH",
          "ArrivalTime": "19:54",
          "DepartureTime": "19:54",
          "HaltMinutes": "&nbsp;",
          "Day": 1,
          "Latitude": 20.2928,
          "Longitude": 85.8529,
          "stopNumberDisplay": "9.7",
          "Distance": "433.6"
        }
      ],
      "TrainNo": 12073,
      "StationCode": "CTC",
      "RouteNo": null,
      "StopNumber": 9,
      "TrainMappingKey": null,
      "StationName": "Cuttack Jn",
      "ArrivalTime": "19:09",
      "DepartureTime": "19:11",
      "HaltMinutes": "2m",
      "Distance": "409.2",
      "HasWifi": true,
      "Day": 1,
      "DataChanged": false,
      "ExpectedPlatformNo": "3",
      "arrivalDelay": "23 Min",
      "departureDelay": "23 Min",
      "Latitude": 20.46489,
      "Longitude": 85.90077,
      "stopNumberDisplay": 9
    },
    {
      "intermediateStations": [],
      "TrainNo": 12073,
      "StationCode": "BBS",
      "RouteNo": null,
      "StopNumber": 10,
      "TrainMappingKey": null,
      "StationName": "Bhubaneswar",
      "ArrivalTime": "20:00",
      "DepartureTime": "",
      "HaltMinutes": "",
      "Distance": "436.9",
      "HasWifi": true,
      "Day": 1,
      "DataChanged": false,
      "ExpectedPlatformNo": "4",
      "arrivalDelay": "12 Min",
      "departureDelay": "12 Min",
      "Latitude": 20.2655,
      "Longitude": 85.8427,
      "stopNumberDisplay": 10
    }
  ],
  "Source": "Kolkata Howrah Junction",
  "Destination": "Bhubaneswar",
  "SourceCode": "HWH",
  "DestinationCode": "BBS",
  "DaysOfRun": {
    "Sun": true,
    "Mon": true,
    "Tue": true,
    "Wed": true,
    "Thu": true,
    "Fri": true,
    "Sat": true
  },
  "FooterText": null,
  "TrainType": null,
  "IsUnreserved": false,
  "Rating": 4.1,
  "FoodRating": 3.7,
  "PunctualityRating": 4.2,
  "CleanlinessRating": 4.3,
  "RatingCount": 934,
  "TotalDuration": "6:35",
  "FromCity": "KOLKATA",
  "ToCity": "Bhubaneswar",
  "CacheTime": "2024-03-08T22:37:34.9815226+05:30",
  "HasPantry": false,
  "ErrorMsg": null
}