{
  "TrainName": "NED SGNR EXP",
  "TrainNo": 12439,
  "TrainNumberString": null,
  "CoachPosition": null,
  "Classes": [
    "2A",
    "3A",
    "3E",
    "SL"
  ],
  "Schedule": [
    {
      "intermediateStations": [
        {
          "StationName": "Wanegaon Halt",
          "StationCode": "WNG",
          "ArrivalTime": "11:10",
          "DepartureTime": "11:10",
          "HaltMinutes": "&nbsp;",
          "Day": 1,
          "Latitude": 19.166804,
          "Longitude": 77.250245,
          "stopNumberDisplay": "1.1",
          "Distance": "6.4"
        },
        {
          "StationName": "Limbgaon",
          "StationCode": "LBG",
          "ArrivalTime": "11:14",
          "DepartureTime": "11:14",
          "HaltMinutes": "&nbsp;",
          "Day": 1,
          "Latitude": 19.175879,
          "Longitude": 77.205774,
          "stopNumberDisplay": "1.2",
          "Distance": "11.1"
        },
        {
          "StationName": "Chudawa",
          "StationCode": "CRU",
          "ArrivalTime": "11:22",
          "DepartureTime": "11:22",
          "HaltMinutes": "&nbsp;",
          "Day": 1,
          "Latitude": 19.179621,
          "Longitude": 77.116318,
          "stopNumberDisplay": "1.3",
          "Distance": "20.7"
        }
      ],
      "TrainNo": 12439,
      "StationCode": "NED",
      "RouteNo": 1,
      "StopNumber": 1,
      "TrainMappingKey": "99124391",
      "StationName": "H SAHIB NANDED",
      "ArrivalTime": "",
      "DepartureTime": "11:05",
      "HaltMinutes": "0",
      "Distance": "0",
      "HasWifi": true,
      "Day": 1,
      "DataChanged": false,
      "ExpectedPlatformNo": "1",
      "arrivalDelay": "02 Min",
      "departureDelay": "02 Min",
      "Latitude": 19.1605,
      "Longitude": 77.31055,
      "stopNumberDisplay": 1
    },
    {
      "intermediateStations": [
        {
          "StationName": "Marsul",
          "StationCode": "MRV",
          "ArrivalTime": "11:58",
          "DepartureTime": "11:58",
          "HaltMinutes": "&nbsp;",
          "Day": 1,
          "Latitude": 19.23433,
          "Longitude": 77.09935,
          "stopNumberDisplay": "2.1",
          "Distance": "40.3"
        },
        {
          "StationName": "Pimpla Chaure Halt",
          "StationCode": "PPLC",
          "ArrivalTime": "12:04",
          "DepartureTime": "12:04",
          "HaltMinutes": "&nbsp;",
          "Day": 1,
          "Latitude": 19.28602,
          "Longitude": 77.13265,
          "stopNumberDisplay": "2.2",
          "Distance": "47.2"
        },
        {
          "StationName": "Basmat",
          "StationCode": "BMF",
          "ArrivalTime": "12:09",
          "DepartureTime": "12:09",
          "HaltMinutes": "&nbsp;",
          "Day": 1,
          "Latitude": 19.33301,
          "Longitude": 77.15133,
          "stopNumberDisplay": "2.3",
          "Distance": "52.8"
        },
        {
          "StationName": "Chondi",
          "StationCode": "CWI",
          "ArrivalTime": "12:19",
          "DepartureTime": "12:19",
          "HaltMinutes": "&nbsp;",
          "Day": 1,
          "Latitude": 19.43081,
          "Longitude": 77.15591,
          "stopNumberDisplay": "2.4",
          "Distance": "63.7"
        },
        {
          "StationName": "Junona Halt",
          "StationCode": "JUNX",
          "ArrivalTime": "12:23",
          "DepartureTime": "12:23",
          "HaltMinutes": "&nbsp;",
          "Day": 1,
          "Latitude": 19.47614,
          "Longitude": 77.161675,
          "stopNumberDisplay": "2.5",
          "Distance": "68.9"
        },
        {
          "StationName": "Sirli",
          "StationCode": "SIF",
          "ArrivalTime": "12:29",
          "DepartureTime": "12:29",
          "HaltMinutes": "&nbsp;",
          "Day": 1,
          "Latitude": 19.508959,
          "Longitude": 77.212456,
          "stopNumberDisplay": "2.6",
          "Distance": "75.7"
        },
        {
          "StationName": "Pangra Shinde",
          "StationCode": "PNSD",
          "ArrivalTime": "12:32",
          "DepartureTime": "12:32",
          "HaltMinutes": "&nbsp;",
          "Day": 1,
          "Latitude": 19.526494,
          "Longitude": 77.240163,
          "stopNumberDisplay": "2.7",
          "Distance": "79.3"
        },
        {
          "StationName": "Bolda",
          "StationCode": "BLC",
          "ArrivalTime": "12:36",
          "DepartureTime": "12:36",
          "HaltMinutes": "&nbsp;",
          "Day": 1,
          "Latitude": 19.551596,
          "Longitude": 77.273371,
          "stopNumberDisplay": "2.8",
          "Distance": "83.9"
        },
        {
          "StationName": "Nandapur",
          "StationCode": "NDPR",
          "ArrivalTime": "12:42",
          "DepartureTime": "12:42",
          "HaltMinutes": "&nbsp;",
          "Day": 1,
          "Latitude": 19.5938,
          "Longitude": 77.2384,
          "stopNumberDisplay": "2.9",
          "Distance": "91.6"
        },
        {
          "StationName": "Kanjara",
          "StationCode": "KNJJ",
          "ArrivalTime": "12:45",
          "DepartureTime": "12:45",
          "HaltMinutes": "&nbsp;",
          "Day": 1,
          "Latitude": 19.6038,
          "Longitude": 77.2104,
          "stopNumberDisplay": "2.10",
          "Distance": "94.8"
        },
        {
          "StationName": "Dhamni",
          "StationCode": "DNE",
          "ArrivalTime": "12:51",
          "DepartureTime": "12:51",
          "HaltMinutes": "&nbsp;",
          "Day": 1,
          "Latitude": 19.6489,
          "Longitude": 77.1784,
          "stopNumberDisplay": "2.11",
          "Distance": "101.5"
        }
      ],
      "TrainNo": 12439,
      "StationCode": "PAU",
      "RouteNo": 1,
      "StopNumber": 2,
      "TrainMappingKey": "99124392",
      "StationName": "PURNA JN",
      "ArrivalTime": "11:30",
      "DepartureTime": "11:50",
      "HaltMinutes": "20:00",
      "Distance": "31",
      "HasWifi": false,
      "Day": 1,
      "DataChanged": false,
      "ExpectedPlatformNo": null,
      "arrivalDelay": "09 Min",
      "departureDelay": "09 Min",
      "Latitude": 19.18062,
      "Longitude": 77.02569,
      "stopNumberDisplay": 2
    },
    {
      "intermediateStations": [
        {
          "StationName": "Navalgaon",
          "StationCode": "NVLN",
          "ArrivalTime": "13:09",
          "DepartureTime": "13:09",
          "HaltMinutes": "&nbsp;",
          "Day": 1,
          "Latitude": 19.7985,
          "Longitude": 77.1232,
          "stopNumberDisplay": "3.1",
          "Distance": "119.5"
        },
        {
          "StationName": "Malsailu",
          "StationCode": "MLSU",
          "ArrivalTime": "13:17",
          "DepartureTime": "13:17",
          "HaltMinutes": "&nbsp;",
          "Day": 1,
          "Latitude": 19.8675,
          "Longitude": 77.1228,
          "stopNumberDisplay": "3.2",
          "Distance": "128.0"
        },
        {
          "StationName": "Kanhargaon Naka",
          "StationCode": "KNRG",
          "ArrivalTime": "13:27",
          "DepartureTime": "13:27",
          "HaltMinutes": "&nbsp;",
          "Day": 1,
          "Latitude": 19.9436,
          "Longitude": 77.1468,
          "stopNumberDisplay": "3.3",
          "Distance": "137.3"
        },
        {
          "StationName": "Penganga",
          "StationCode": "PGG",
          "ArrivalTime": "13:31",
          "DepartureTime": "13:31",
          "HaltMinutes": "&nbsp;",
          "Day": 1,
          "Latitude": 19.9674,
          "Longitude": 77.1194,
          "stopNumberDisplay": "3.4",
          "Distance": "141.7"
        },
        {
          "StationName": "Kekatumar",
          "StationCode": "KKG",
          "ArrivalTime": "13:38",
          "DepartureTime": "13:38",
          "HaltMinutes": "&nbsp;",
          "Day": 1,
          "Latitude": 20.0252,
          "Longitude": 77.1032,
          "stopNumberDisplay": "3.5",
          "Distance": "148.5"
        }
      ],
      "TrainNo": 12439,
      "StationCode": "HNL",
      "RouteNo": 1,
      "StopNumber": 3,
      "TrainMappingKey": "99124393",
      "StationName": "HINGOLI DECCAN",
      "ArrivalTime": "12:59",
      "DepartureTime": "13:00",
      "HaltMinutes": "01:00",
      "Distance": "111",
      "HasWifi": false,
      "Day": 1,
      "DataChanged": false,
      "ExpectedPlatformNo": null,
      "arrivalDelay": "33 Min",
      "departureDelay": "33 Min",
      "Latitude": 19.7266,
      "Longitude": 77.1474,
      "stopNumberDisplay": 3
    },
    {
      "intermediateStations": [
        {
          "StationName": "Kata Road",
          "StationCode": "KXX",
          "ArrivalTime": "14:05",
          "DepartureTime": "14:05",
          "HaltMinutes": "&nbsp;",
          "Day": 1,
          "Latitude": 20.18509,
          "Longitude": 77.1125,
          "stopNumberDisplay": "4.1",
          "Distance": "169.1"
        },
        {
          "StationName": "Jaulka",
          "StationCode": "JUK",
          "ArrivalTime": "14:25",
          "DepartureTime": "14:25",
          "HaltMinutes": "&nbsp;",
          "Day": 1,
          "Latitude": 20.2846,
          "Longitude": 77.0753,
          "stopNumberDisplay": "4.2",
          "Distance": "181.9"
        },
        {
          "StationName": "Amanwadi",
          "StationCode": "AMW",
          "ArrivalTime": "14:40",
          "DepartureTime": "14:40",
          "HaltMinutes": "&nbsp;",
          "Day": 1,
          "Latitude": 20.36653,
          "Longitude": 77.07398,
          "stopNumberDisplay": "4.3",
          "Distance": "192.1"
        },
        {
          "StationName": "Lohagad",
          "StationCode": "LHD",
          "ArrivalTime": "14:59",
          "DepartureTime": "14:59",
          "HaltMinutes": "&nbsp;",
          "Day": 1,
          "Latitude": 20.46781,
          "Longitude": 77.07895,
          "stopNumberDisplay": "4.4",
          "Distance": "204.4"
        },
        {
          "StationName": "Barsi Takli",
          "StationCode": "BSQ",
          "ArrivalTime": "15:18",
          "DepartureTime": "15:18",
          "HaltMinutes": "&nbsp;",
          "Day": 1,
          "Latitude": 20.57603,
          "Longitude": 77.06098,
          "stopNumberDisplay": "4.5",
          "Distance": "217.1"
        },
        {
          "StationName": "Shivni Shivapur",
          "StationCode": "SVW",
          "ArrivalTime": "15:37",
          "DepartureTime": "15:37",
          "HaltMinutes": "&nbsp;",
          "Day": 1,
          "Latitude": 20.67592,
          "Longitude": 77.04827,
          "stopNumberDisplay": "4.6",
          "Distance": "229.2"
        }
      ],
      "TrainNo": 12439,
      "StationCode": "WHM",
      "RouteNo": 1,
      "StopNumber": 4,
      "TrainMappingKey": "99124394",
      "StationName": "WASHIM",
      "ArrivalTime": "13:49",
      "DepartureTime": "13:50",
      "HaltMinutes": "01:00",
      "Distance": "159",
      "HasWifi": false,
      "Day": 1,
      "DataChanged": false,
      "ExpectedPlatformNo": "1",
      "arrivalDelay": "29 Min",
      "departureDelay": "29 Min",
      "Latitude": 20.1029,
      "Longitude": 77.14839,
      "stopNumberDisplay": 4
    },
    {
      "intermediateStations": [
        {
          "StationName": "Gaigaon",
          "StationCode": "GAO",
          "ArrivalTime": "16:09",
          "DepartureTime": "16:09",
          "HaltMinutes": "&nbsp;",
          "Day": 1,
          "Latitude": 20.72074,
          "Longitude": 76.890435,
          "stopNumberDisplay": "5.1",
          "Distance": "250.2"
        },
        {
          "StationName": "Paras",
          "StationCode": "PS",
          "ArrivalTime": "16:14",
          "DepartureTime": "16:14",
          "HaltMinutes": "&nbsp;",
          "Day": 1,
          "Latitude": 20.724979,
          "Longitude": 76.816647,
          "stopNumberDisplay": "5.2",
          "Distance": "257.9"
        },
        {
          "StationName": "Shri Kshetra Nagjhari",
          "StationCode": "NGZ",
          "ArrivalTime": "16:21",
          "DepartureTime": "16:21",
          "HaltMinutes": "&nbsp;",
          "Day": 1,
          "Latitude": 20.762113,
          "Longitude": 76.75395,
          "stopNumberDisplay": "5.3",
          "Distance": "267.2"
        },
        {
          "StationName": "Shegaon",
          "StationCode": "SEG",
          "ArrivalTime": "16:26",
          "DepartureTime": "16:26",
          "HaltMinutes": "&nbsp;",
          "Day": 1,
          "Latitude": 20.800869,
          "Longitude": 76.690569,
          "stopNumberDisplay": "5.4",
          "Distance": "275.1"
        },
        {
          "StationName": "Jalamb Outer A Cabin",
          "StationCode": "XX-JMOA",
          "ArrivalTime": "16:35",
          "DepartureTime": "16:35",
          "HaltMinutes": "&nbsp;",
          "Day": 1,
          "Latitude": null,
          "Longitude": null,
          "stopNumberDisplay": "5.5",
          "Distance": "287.1"
        },
        {
          "StationName": "Jalamb Jn",
          "StationCode": "JM",
          "ArrivalTime": "16:35",
          "DepartureTime": "16:35",
          "HaltMinutes": "&nbsp;",
          "Day": 1,
          "Latitude": 20.81291,
          "Longitude": 76.57352,
          "stopNumberDisplay": "5.6",
          "Distance": "287.5"
        },
        {
          "StationName": "Jalamb Outer B Cabin",
          "StationCode": "XX-JMOB",
          "ArrivalTime": "16:35",
          "DepartureTime": "16:35",
          "HaltMinutes": "&nbsp;",
          "Day": 1,
          "Latitude": null,
          "Longitude": null,
          "stopNumberDisplay": "5.7",
          "Distance": "288.0"
        },
        {
          "StationName": "Nandura",
          "StationCode": "NN",
          "ArrivalTime": "16:43",
          "DepartureTime": "16:43",
          "HaltMinutes": "&nbsp;",
          "Day": 1,
          "Latitude": 20.83871,
          "Longitude": 76.46032,
          "stopNumberDisplay": "5.8",
          "Distance": "299.7"
        },
        {
          "StationName": "Khumgaon Burti",
          "StationCode": "KJL",
          "ArrivalTime": "16:49",
          "DepartureTime": "16:49",
          "HaltMinutes": "&nbsp;",
          "Day": 1,
          "Latitude": 20.8694,
          "Longitude": 76.3964,
          "stopNumberDisplay": "5.9",
          "Distance": "307.2"
        },
        {
          "StationName": "Biswa Bridge",
          "StationCode": "BIS",
          "ArrivalTime": "16:53",
          "DepartureTime": "16:53",
          "HaltMinutes": "&nbsp;",
          "Day": 1,
          "Latitude": 20.8854,
          "Longitude": 76.3391,
          "stopNumberDisplay": "5.10",
          "Distance": "313.5"
        },
        {
          "StationName": "Wadoda",
          "StationCode": "WADO",
          "ArrivalTime": "16:57",
          "DepartureTime": "16:57",
          "HaltMinutes": "&nbsp;",
          "Day": 1,
          "Latitude": 20.8881,
          "Longitude": 76.2799,
          "stopNumberDisplay": "5.11",
          "Distance": "319.6"
        }
      ],
      "TrainNo": 12439,
      "StationCode": "AK",
      "RouteNo": 1,
      "StopNumber": 5,
      "TrainMappingKey": "99124395",
      "StationName": "AKOLA JN",
      "ArrivalTime": "15:50",
      "DepartureTime": "16:00",
      "HaltMinutes": "10:00",
      "Distance": "238",
      "HasWifi": true,
      "Day": 1,
      "DataChanged": false,
      "ExpectedPlatformNo": null,
      "arrivalDelay": "10 Min",
      "departureDelay": "10 Min",
      "Latitude": 20.723812,
      "Longitude": 77.005383,
      "stopNumberDisplay": 5
    },
    {
      "intermediateStations": [
        {
          "StationName": "Khamkhed",
          "StationCode": "KMKD",
          "ArrivalTime": "17:15",
          "DepartureTime": "17:15",
          "HaltMinutes": "&nbsp;",
          "Day": 1,
          "Latitude": 20.9041,
          "Longitude": 76.122,
          "stopNumberDisplay": "6.1",
          "Distance": "336.4"
        },
        {
          "StationName": "Kolhadi",
          "StationCode": "KLHD",
          "ArrivalTime": "17:22",
          "DepartureTime": "17:22",
          "HaltMinutes": "&nbsp;",
          "Day": 1,
          "Latitude": 20.9006,
          "Longitude": 76.0592,
          "stopNumberDisplay": "6.2",
          "Distance": "342.3"
        },
        {
          "StationName": "Bodwad",
          "StationCode": "BDWD",
          "ArrivalTime": "17:28",
          "DepartureTime": "17:28",
          "HaltMinutes": "&nbsp;",
          "Day": 1,
          "Latitude": 20.9035,
          "Longitude": 76.0173,
          "stopNumberDisplay": "6.3",
          "Distance": "347.2"
        },
        {
          "StationName": "Achegaon",
          "StationCode": "ACG",
          "ArrivalTime": "17:41",
          "DepartureTime": "17:41",
          "HaltMinutes": "&nbsp;",
          "Day": 1,
          "Latitude": null,
          "Longitude": null,
          "stopNumberDisplay": "6.4",
          "Distance": "359.1"
        },
        {
          "StationName": "Varangaon",
          "StationCode": "VNA",
          "ArrivalTime": "17:48",
          "DepartureTime": "17:48",
          "HaltMinutes": "&nbsp;",
          "Day": 1,
          "Latitude": 21.0102,
          "Longitude": 75.901,
          "stopNumberDisplay": "6.5",
          "Distance": "364.9"
        },
        {
          "StationName": "Bhusaval C Cabin",
          "StationCode": "BSCN",
          "ArrivalTime": "17:57",
          "DepartureTime": "17:57",
          "HaltMinutes": "&nbsp;",
          "Day": 1,
          "Latitude": 21.04406,
          "Longitude": 75.82776,
          "stopNumberDisplay": "6.6",
          "Distance": "373.3"
        },
        {
          "StationName": "Bhusaval B Cabin",
          "StationCode": "BSBN",
          "ArrivalTime": "17:59",
          "DepartureTime": "17:59",
          "HaltMinutes": "&nbsp;",
          "Day": 1,
          "Latitude": 21.05443,
          "Longitude": 75.82838,
          "stopNumberDisplay": "6.7",
          "Distance": "374.8"
        },
        {
          "StationName": "Duskheda",
          "StationCode": "DSK",
          "ArrivalTime": "18:02",
          "DepartureTime": "18:02",
          "HaltMinutes": "&nbsp;",
          "Day": 1,
          "Latitude": 21.07345,
          "Longitude": 75.83928,
          "stopNumberDisplay": "6.8",
          "Distance": "377.3"
        },
        {
          "StationName": "Savda",
          "StationCode": "SAV",
          "ArrivalTime": "18:12",
          "DepartureTime": "18:12",
          "HaltMinutes": "&nbsp;",
          "Day": 1,
          "Latitude": 21.11062,
          "Longitude": 75.91042,
          "stopNumberDisplay": "6.9",
          "Distance": "385.9"
        },
        {
          "StationName": "Nimbhora",
          "StationCode": "NB",
          "ArrivalTime": "18:22",
          "DepartureTime": "18:22",
          "HaltMinutes": "&nbsp;",
          "Day": 1,
          "Latitude": 21.16043,
          "Longitude": 75.97479,
          "stopNumberDisplay": "6.10",
          "Distance": "394.6"
        },
        {
          "StationName": "Raver",
          "StationCode": "RV",
          "ArrivalTime": "18:33",
          "DepartureTime": "18:33",
          "HaltMinutes": "&nbsp;",
          "Day": 1,
          "Latitude": 21.22213,
          "Longitude": 76.04454,
          "stopNumberDisplay": "6.11",
          "Distance": "404.6"
        },
        {
          "StationName": "Waghoda",
          "StationCode": "WGA",
          "ArrivalTime": "18:45",
          "DepartureTime": "18:45",
          "HaltMinutes": "&nbsp;",
          "Day": 1,
          "Latitude": 21.27948,
          "Longitude": 76.12049,
          "stopNumberDisplay": "6.12",
          "Distance": "414.8"
        },
        {
          "StationName": "Burhanpur",
          "StationCode": "BAU",
          "ArrivalTime": "18:56",
          "DepartureTime": "18:56",
          "HaltMinutes": "&nbsp;",
          "Day": 1,
          "Latitude": 21.33481,
          "Longitude": 76.19926,
          "stopNumberDisplay": "6.13",
          "Distance": "425.0"
        },
        {
          "StationName": "Asirgarh Road",
          "StationCode": "AGQ",
          "ArrivalTime": "19:06",
          "DepartureTime": "19:06",
          "HaltMinutes": "&nbsp;",
          "Day": 1,
          "Latitude": 21.37813,
          "Longitude": 76.26782,
          "stopNumberDisplay": "6.14",
          "Distance": "434.0"
        },
        {
          "StationName": "Chandni",
          "StationCode": "CDI",
          "ArrivalTime": "19:18",
          "DepartureTime": "19:18",
          "HaltMinutes": "&nbsp;",
          "Day": 1,
          "Latitude": 21.42595,
          "Longitude": 76.34877,
          "stopNumberDisplay": "6.15",
          "Distance": "444.2"
        },
        {
          "StationName": "Nepanagar",
          "StationCode": "NPNR",
          "ArrivalTime": "19:26",
          "DepartureTime": "19:26",
          "HaltMinutes": "&nbsp;",
          "Day": 1,
          "Latitude": 21.46399,
          "Longitude": 76.39708,
          "stopNumberDisplay": "6.16",
          "Distance": "451.3"
        },
        {
          "StationName": "Mandwa",
          "StationCode": "MWA",
          "ArrivalTime": "19:33",
          "DepartureTime": "19:33",
          "HaltMinutes": "&nbsp;",
          "Day": 1,
          "Latitude": 21.51575,
          "Longitude": 76.39162,
          "stopNumberDisplay": "6.17",
          "Distance": "457.1"
        },
        {
          "StationName": "Sagphata",
          "StationCode": "SXA",
          "ArrivalTime": "19:40",
          "DepartureTime": "19:40",
          "HaltMinutes": "&nbsp;",
          "Day": 1,
          "Latitude": 21.55669,
          "Longitude": 76.39251,
          "stopNumberDisplay": "6.18",
          "Distance": "463.1"
        },
        {
          "StationName": "Dongargaon",
          "StationCode": "DGN",
          "ArrivalTime": "19:48",
          "DepartureTime": "19:48",
          "HaltMinutes": "&nbsp;",
          "Day": 1,
          "Latitude": 21.62018,
          "Longitude": 76.37094,
          "stopNumberDisplay": "6.19",
          "Distance": "470.8"
        },
        {
          "StationName": "Kohdad",
          "StationCode": "KDK",
          "ArrivalTime": "19:57",
          "DepartureTime": "19:57",
          "HaltMinutes": "&nbsp;",
          "Day": 1,
          "Latitude": 21.68463,
          "Longitude": 76.36461,
          "stopNumberDisplay": "6.20",
          "Distance": "478.4"
        },
        {
          "StationName": "Bagmar",
          "StationCode": "BMA",
          "ArrivalTime": "20:02",
          "DepartureTime": "20:02",
          "HaltMinutes": "&nbsp;",
          "Day": 1,
          "Latitude": 21.72526,
          "Longitude": 76.36345,
          "stopNumberDisplay": "6.21",
          "Distance": "482.9"
        },
        {
          "StationName": "Bargaon Gujar",
          "StationCode": "BRGJ",
          "ArrivalTime": "20:09",
          "DepartureTime": "20:09",
          "HaltMinutes": "&nbsp;",
          "Day": 1,
          "Latitude": 21.77699,
          "Longitude": 76.35558,
          "stopNumberDisplay": "6.22",
          "Distance": "488.8"
        },
        {
          "StationName": "Khandwa Jn Yard",
          "StationCode": "KNWX",
          "ArrivalTime": "20:14",
          "DepartureTime": "20:14",
          "HaltMinutes": "&nbsp;",
          "Day": 1,
          "Latitude": 21.81706,
          "Longitude": 76.35442,
          "stopNumberDisplay": "6.23",
          "Distance": "493.2"
        }
      ],
      "TrainNo": 12439,
      "StationCode": "MKU",
      "RouteNo": 1,
      "StopNumber": 6,
      "TrainMappingKey": "99124396",
      "StationName": "MALKAPUR",
      "ArrivalTime": "17:03",
      "DepartureTime": "17:05",
      "HaltMinutes": "02:00",
      "Distance": "327",
      "HasWifi": false,
      "Day": 1,
      "DataChanged": false,
      "ExpectedPlatformNo": "1",
      "arrivalDelay": "16 Min",
      "departureDelay": "16 Min",
      "Latitude": 20.8921,
      "Longitude": 76.2033,
      "stopNumberDisplay": 6
    },
    {
      "intermediateStations": [
        {
          "StationName": "Mathela",
          "StationCode": "MTA",
          "ArrivalTime": "20:26",
          "DepartureTime": "20:26",
          "HaltMinutes": "&nbsp;",
          "Day": 1,
          "Latitude": 21.878681,
          "Longitude": 76.38903,
          "stopNumberDisplay": "7.1",
          "Distance": "501.3"
        },
        {
          "StationName": "Talvadiya Jn",
          "StationCode": "TLV",
          "ArrivalTime": "20:32",
          "DepartureTime": "20:32",
          "HaltMinutes": "&nbsp;",
          "Day": 1,
          "Latitude": 21.927835,
          "Longitude": 76.444704,
          "stopNumberDisplay": "7.2",
          "Distance": "509.6"
        },
        {
          "StationName": "Surgaon Banjari",
          "StationCode": "SGBJ",
          "ArrivalTime": "20:41",
          "DepartureTime": "20:41",
          "HaltMinutes": "&nbsp;",
          "Day": 1,
          "Latitude": 21.94667,
          "Longitude": 76.544283,
          "stopNumberDisplay": "7.3",
          "Distance": "521.5"
        },
        {
          "StationName": "Charkheda Khurd",
          "StationCode": "CKKD",
          "ArrivalTime": "20:49",
          "DepartureTime": "20:49",
          "HaltMinutes": "&nbsp;",
          "Day": 1,
          "Latitude": 21.938491,
          "Longitude": 76.641545,
          "stopNumberDisplay": "7.4",
          "Distance": "531.9"
        },
        {
          "StationName": "Chhanera",
          "StationCode": "CAER",
          "ArrivalTime": "20:55",
          "DepartureTime": "20:55",
          "HaltMinutes": "&nbsp;",
          "Day": 1,
          "Latitude": 21.9635,
          "Longitude": 76.70761,
          "stopNumberDisplay": "7.5",
          "Distance": "539.3"
        },
        {
          "StationName": "Barud",
          "StationCode": "BRUD",
          "ArrivalTime": "21:02",
          "DepartureTime": "21:02",
          "HaltMinutes": "&nbsp;",
          "Day": 1,
          "Latitude": 22.02794,
          "Longitude": 76.76351,
          "stopNumberDisplay": "7.6",
          "Distance": "549.5"
        },
        {
          "StationName": "Dagarhkeri",
          "StationCode": "DRHI",
          "ArrivalTime": "21:10",
          "DepartureTime": "21:10",
          "HaltMinutes": "&nbsp;",
          "Day": 1,
          "Latitude": 22.08162,
          "Longitude": 76.82679,
          "stopNumberDisplay": "7.7",
          "Distance": "559.1"
        },
        {
          "StationName": "Khirkiya",
          "StationCode": "KKN",
          "ArrivalTime": "21:18",
          "DepartureTime": "21:18",
          "HaltMinutes": "&nbsp;",
          "Day": 1,
          "Latitude": 22.1661,
          "Longitude": 76.8593,
          "stopNumberDisplay": "7.8",
          "Distance": "570.0"
        },
        {
          "StationName": "Kurawan",
          "StationCode": "KRO",
          "ArrivalTime": "21:23",
          "DepartureTime": "21:23",
          "HaltMinutes": "&nbsp;",
          "Day": 1,
          "Latitude": 22.2051,
          "Longitude": 76.90461,
          "stopNumberDisplay": "7.9",
          "Distance": "576.4"
        },
        {
          "StationName": "Bhiringi",
          "StationCode": "BRI",
          "ArrivalTime": "21:30",
          "DepartureTime": "21:30",
          "HaltMinutes": "&nbsp;",
          "Day": 1,
          "Latitude": 22.23873,
          "Longitude": 76.95677,
          "stopNumberDisplay": "7.10",
          "Distance": "585.4"
        },
        {
          "StationName": "Masangaon",
          "StationCode": "MUO",
          "ArrivalTime": "21:32",
          "DepartureTime": "21:32",
          "HaltMinutes": "&nbsp;",
          "Day": 1,
          "Latitude": 22.26697,
          "Longitude": 76.9969,
          "stopNumberDisplay": "7.11",
          "Distance": "588.3"
        },
        {
          "StationName": "Palasner",
          "StationCode": "PAL",
          "ArrivalTime": "21:36",
          "DepartureTime": "21:36",
          "HaltMinutes": "&nbsp;",
          "Day": 1,
          "Latitude": 22.2991,
          "Longitude": 77.04291,
          "stopNumberDisplay": "7.12",
          "Distance": "594.1"
        },
        {
          "StationName": "Harda",
          "StationCode": "HD",
          "ArrivalTime": "21:42",
          "DepartureTime": "21:42",
          "HaltMinutes": "&nbsp;",
          "Day": 1,
          "Latitude": 22.33781,
          "Longitude": 77.09984,
          "stopNumberDisplay": "7.13",
          "Distance": "601.8"
        },
        {
          "StationName": "Charkhera",
          "StationCode": "CRK",
          "ArrivalTime": "21:48",
          "DepartureTime": "21:48",
          "HaltMinutes": "&nbsp;",
          "Day": 1,
          "Latitude": 22.36622,
          "Longitude": 77.16034,
          "stopNumberDisplay": "7.14",
          "Distance": "608.6"
        },
        {
          "StationName": "Timarni",
          "StationCode": "TBN",
          "ArrivalTime": "21:53",
          "DepartureTime": "21:53",
          "HaltMinutes": "&nbsp;",
          "Day": 1,
          "Latitude": 22.37589,
          "Longitude": 77.22856,
          "stopNumberDisplay": "7.15",
          "Distance": "615.9"
        },
        {
          "StationName": "Chhidgaon",
          "StationCode": "CGO",
          "ArrivalTime": "22:00",
          "DepartureTime": "22:00",
          "HaltMinutes": "&nbsp;",
          "Day": 1,
          "Latitude": 22.40685,
          "Longitude": 77.31417,
          "stopNumberDisplay": "7.16",
          "Distance": "625.2"
        },
        {
          "StationName": "Pagdhal",
          "StationCode": "PGL",
          "ArrivalTime": "22:03",
          "DepartureTime": "22:03",
          "HaltMinutes": "&nbsp;",
          "Day": 1,
          "Latitude": 22.42053,
          "Longitude": 77.35136,
          "stopNumberDisplay": "7.17",
          "Distance": "629.3"
        },
        {
          "StationName": "Bhaironpur",
          "StationCode": "BIF",
          "ArrivalTime": "22:09",
          "DepartureTime": "22:09",
          "HaltMinutes": "&nbsp;",
          "Day": 1,
          "Latitude": 22.44061,
          "Longitude": 77.41903,
          "stopNumberDisplay": "7.18",
          "Distance": "636.6"
        },
        {
          "StationName": "Banapura",
          "StationCode": "BPF",
          "ArrivalTime": "22:14",
          "DepartureTime": "22:14",
          "HaltMinutes": "&nbsp;",
          "Day": 1,
          "Latitude": 22.47048,
          "Longitude": 77.48152,
          "stopNumberDisplay": "7.19",
          "Distance": "643.9"
        },
        {
          "StationName": "Dharamkundi",
          "StationCode": "DKI",
          "ArrivalTime": "22:21",
          "DepartureTime": "22:21",
          "HaltMinutes": "&nbsp;",
          "Day": 1,
          "Latitude": 22.51061,
          "Longitude": 77.54858,
          "stopNumberDisplay": "7.20",
          "Distance": "652.2"
        },
        {
          "StationName": "Khutwansa",
          "StationCode": "KTZ",
          "ArrivalTime": "22:26",
          "DepartureTime": "22:26",
          "HaltMinutes": "&nbsp;",
          "Day": 1,
          "Latitude": 22.54841,
          "Longitude": 77.60744,
          "stopNumberDisplay": "7.21",
          "Distance": "659.5"
        },
        {
          "StationName": "Dularia",
          "StationCode": "DRA",
          "ArrivalTime": "22:31",
          "DepartureTime": "22:31",
          "HaltMinutes": "&nbsp;",
          "Day": 1,
          "Latitude": 22.575317,
          "Longitude": 77.65379,
          "stopNumberDisplay": "7.22",
          "Distance": "665.2"
        },
        {
          "StationName": "Itarsi B Cabin",
          "StationCode": "ETBC",
          "ArrivalTime": "22:39",
          "DepartureTime": "22:39",
          "HaltMinutes": "&nbsp;",
          "Day": 1,
          "Latitude": null,
          "Longitude": null,
          "stopNumberDisplay": "7.23",
          "Distance": "675.5"
        },
        {
          "StationName": "Jujharpur Cabin",
          "StationCode": "JUH",
          "ArrivalTime": "22:39",
          "DepartureTime": "22:39",
          "HaltMinutes": "&nbsp;",
          "Day": 1,
          "Latitude": 22.605241,
          "Longitude": 77.757205,
          "stopNumberDisplay": "7.24",
          "Distance": "676.3"
        }
      ],
      "TrainNo": 12439,
      "StationCode": "KNW",
      "RouteNo": 1,
      "StopNumber": 7,
      "TrainMappingKey": "99124397",
      "StationName": "KHANDWA",
      "ArrivalTime": "20:15",
      "DepartureTime": "20:20",
      "HaltMinutes": "05:00",
      "Distance": "495",
      "HasWifi": true,
      "Day": 1,
      "DataChanged": false,
      "ExpectedPlatformNo": null,
      "arrivalDelay": "06 Min",
      "departureDelay": "06 Min",
      "Latitude": 21.82382,
      "Longitude": 76.35321,
      "stopNumberDisplay": 7
    },
    {
      "intermediateStations": [
        {
          "StationName": "Itarsi F Cabin",
          "StationCode": "ETF",
          "ArrivalTime": "22:46",
          "DepartureTime": "22:46",
          "HaltMinutes": "&nbsp;",
          "Day": 1,
          "Latitude": 22.61562,
          "Longitude": 77.77484,
          "stopNumberDisplay": "8.1",
          "Distance": "678.7"
        },
        {
          "StationName": "Itarsi Bypass Cabin A",
          "StationCode": "XX-ETAC",
          "ArrivalTime": "22:50",
          "DepartureTime": "22:50",
          "HaltMinutes": "&nbsp;",
          "Day": 1,
          "Latitude": null,
          "Longitude": null,
          "stopNumberDisplay": "8.2",
          "Distance": "681.9"
        },
        {
          "StationName": "Powarkheda",
          "StationCode": "PRKD",
          "ArrivalTime": "22:54",
          "DepartureTime": "22:54",
          "HaltMinutes": "&nbsp;",
          "Day": 1,
          "Latitude": 22.67377,
          "Longitude": 77.74777,
          "stopNumberDisplay": "8.3",
          "Distance": "685.7"
        },
        {
          "StationName": "Narmadapuram",
          "StationCode": "NDPM",
          "ArrivalTime": "23:04",
          "DepartureTime": "23:04",
          "HaltMinutes": "&nbsp;",
          "Day": 1,
          "Latitude": 22.75291,
          "Longitude": 77.7168,
          "stopNumberDisplay": "8.4",
          "Distance": "695.4"
        },
        {
          "StationName": "Budni",
          "StationCode": "BNI",
          "ArrivalTime": "23:11",
          "DepartureTime": "23:11",
          "HaltMinutes": "&nbsp;",
          "Day": 1,
          "Latitude": 22.78697,
          "Longitude": 77.68124,
          "stopNumberDisplay": "8.5",
          "Distance": "702.5"
        },
        {
          "StationName": "Midghat",
          "StationCode": "MIG",
          "ArrivalTime": "23:18",
          "DepartureTime": "23:18",
          "HaltMinutes": "&nbsp;",
          "Day": 1,
          "Latitude": 22.82512,
          "Longitude": 77.65034,
          "stopNumberDisplay": "8.6",
          "Distance": "709.3"
        },
        {
          "StationName": "Choka",
          "StationCode": "CHQ",
          "ArrivalTime": "23:24",
          "DepartureTime": "23:24",
          "HaltMinutes": "&nbsp;",
          "Day": 1,
          "Latitude": 22.8638,
          "Longitude": 77.63807,
          "stopNumberDisplay": "8.7",
          "Distance": "715.2"
        },
        {
          "StationName": "Barkhera",
          "StationCode": "BKA",
          "ArrivalTime": "23:31",
          "DepartureTime": "23:31",
          "HaltMinutes": "&nbsp;",
          "Day": 1,
          "Latitude": 22.91768,
          "Longitude": 77.64979,
          "stopNumberDisplay": "8.8",
          "Distance": "721.9"
        },
        {
          "StationName": "Obaidulla Ganj",
          "StationCode": "ODG",
          "ArrivalTime": "23:43",
          "DepartureTime": "23:43",
          "HaltMinutes": "&nbsp;",
          "Day": 1,
          "Latitude": 22.99501,
          "Longitude": 77.58727,
          "stopNumberDisplay": "8.9",
          "Distance": "733.3"
        },
        {
          "StationName": "Itaya Kalan",
          "StationCode": "ITKL",
          "ArrivalTime": "23:51",
          "DepartureTime": "23:51",
          "HaltMinutes": "&nbsp;",
          "Day": 1,
          "Latitude": 23.05521,
          "Longitude": 77.54087,
          "stopNumberDisplay": "8.10",
          "Distance": "741.5"
        },
        {
          "StationName": "Mandideep",
          "StationCode": "MDDP",
          "ArrivalTime": "23:57",
          "DepartureTime": "23:57",
          "HaltMinutes": "&nbsp;",
          "Day": 1,
          "Latitude": 23.0938,
          "Longitude": 77.51125,
          "stopNumberDisplay": "8.11",
          "Distance": "746.8"
        },
        {
          "StationName": "Misrod",
          "StationCode": "MSO",
          "ArrivalTime": "00:07",
          "DepartureTime": "00:07",
          "HaltMinutes": "&nbsp;",
          "Day": 2,
          "Latitude": 23.169,
          "Longitude": 77.45795,
          "stopNumberDisplay": "8.12",
          "Distance": "756.8"
        },
        {
          "StationName": "Rani Kamalapati",
          "StationCode": "RKMP",
          "ArrivalTime": "00:14",
          "DepartureTime": "00:14",
          "HaltMinutes": "&nbsp;",
          "Day": 2,
          "Latitude": null,
          "Longitude": null,
          "stopNumberDisplay": "8.13",
          "Distance": "763.0"
        }
      ],
      "TrainNo": 12439,
      "StationCode": "ET",
      "RouteNo": 1,
      "StopNumber": 8,
      "TrainMappingKey": "99124398",
      "StationName": "ITARSI JN",
      "ArrivalTime": "22:40",
      "DepartureTime": "22:45",
      "HaltMinutes": "05:00",
      "Distance": "678",
      "HasWifi": true,
      "Day": 1,
      "DataChanged": false,
      "ExpectedPlatformNo": null,
      "arrivalDelay": "14 Min",
      "departureDelay": "14 Min",
      "Latitude": 22.6083,
      "Longitude": 77.7673,
      "stopNumberDisplay": 8
    },
    {
      "intermediateStations": [
        {
          "StationName": "Nishatpura",
          "StationCode": "NSZ",
          "ArrivalTime": "00:31",
          "DepartureTime": "00:31",
          "HaltMinutes": "&nbsp;",
          "Day": 2,
          "Latitude": 23.28381,
          "Longitude": 77.42265,
          "stopNumberDisplay": "9.1",
          "Distance": "770.9"
        },
        {
          "StationName": "Sukhisewaniyan",
          "StationCode": "SUW",
          "ArrivalTime": "00:38",
          "DepartureTime": "00:38",
          "HaltMinutes": "&nbsp;",
          "Day": 2,
          "Latitude": 23.34023,
          "Longitude": 77.48556,
          "stopNumberDisplay": "9.2",
          "Distance": "780.3"
        },
        {
          "StationName": "Bhadbhadaghat",
          "StationCode": "BVB",
          "ArrivalTime": "00:44",
          "DepartureTime": "00:44",
          "HaltMinutes": "&nbsp;",
          "Day": 2,
          "Latitude": 23.37473,
          "Longitude": 77.53554,
          "stopNumberDisplay": "9.3",
          "Distance": "787.9"
        },
        {
          "StationName": "DewanGanj",
          "StationCode": "DWG",
          "ArrivalTime": "00:51",
          "DepartureTime": "00:51",
          "HaltMinutes": "&nbsp;",
          "Day": 2,
          "Latitude": 23.42884,
          "Longitude": 77.59265,
          "stopNumberDisplay": "9.4",
          "Distance": "796.7"
        },
        {
          "StationName": "Salamatpur",
          "StationCode": "SMT",
          "ArrivalTime": "00:58",
          "DepartureTime": "00:58",
          "HaltMinutes": "&nbsp;",
          "Day": 2,
          "Latitude": 23.46128,
          "Longitude": 77.67303,
          "stopNumberDisplay": "9.5",
          "Distance": "806.0"
        },
        {
          "StationName": "Sanchi",
          "StationCode": "SCI",
          "ArrivalTime": "01:03",
          "DepartureTime": "01:03",
          "HaltMinutes": "&nbsp;",
          "Day": 2,
          "Latitude": 23.48781,
          "Longitude": 77.73578,
          "stopNumberDisplay": "9.6",
          "Distance": "813.2"
        },
        {
          "StationName": "Betwa Cabin",
          "StationCode": "BTWN",
          "ArrivalTime": "01:08",
          "DepartureTime": "01:08",
          "HaltMinutes": "&nbsp;",
          "Day": 2,
          "Latitude": 23.51058,
          "Longitude": 77.78328,
          "stopNumberDisplay": "9.7",
          "Distance": "818.8"
        },
        {
          "StationName": "Vidisha",
          "StationCode": "BHS",
          "ArrivalTime": "01:10",
          "DepartureTime": "01:10",
          "HaltMinutes": "&nbsp;",
          "Day": 2,
          "Latitude": 23.5224,
          "Longitude": 77.81491,
          "stopNumberDisplay": "9.8",
          "Distance": "822.6"
        },
        {
          "StationName": "Sorai",
          "StationCode": "SORI",
          "ArrivalTime": "01:15",
          "DepartureTime": "01:15",
          "HaltMinutes": "&nbsp;",
          "Day": 2,
          "Latitude": 23.556544,
          "Longitude": 77.850362,
          "stopNumberDisplay": "9.9",
          "Distance": "828.0"
        },
        {
          "StationName": "Sumer",
          "StationCode": "SUMR",
          "ArrivalTime": "01:21",
          "DepartureTime": "01:21",
          "HaltMinutes": "&nbsp;",
          "Day": 2,
          "Latitude": 23.625255,
          "Longitude": 77.880013,
          "stopNumberDisplay": "9.10",
          "Distance": "836.2"
        },
        {
          "StationName": "GulabGanj",
          "StationCode": "GLG",
          "ArrivalTime": "01:26",
          "DepartureTime": "01:26",
          "HaltMinutes": "&nbsp;",
          "Day": 2,
          "Latitude": 23.683694,
          "Longitude": 77.91203,
          "stopNumberDisplay": "9.11",
          "Distance": "843.7"
        },
        {
          "StationName": "Pabai",
          "StationCode": "PAI",
          "ArrivalTime": "01:34",
          "DepartureTime": "01:34",
          "HaltMinutes": "&nbsp;",
          "Day": 2,
          "Latitude": 23.767866,
          "Longitude": 77.931845,
          "stopNumberDisplay": "9.12",
          "Distance": "853.3"
        },
        {
          "StationName": "Ganj Basoda",
          "StationCode": "BAQ",
          "ArrivalTime": "01:40",
          "DepartureTime": "01:40",
          "HaltMinutes": "&nbsp;",
          "Day": 2,
          "Latitude": 23.84542,
          "Longitude": 77.94462,
          "stopNumberDisplay": "9.13",
          "Distance": "862.1"
        },
        {
          "StationName": "Raukheri",
          "StationCode": "RKDI",
          "ArrivalTime": "01:43",
          "DepartureTime": "01:43",
          "HaltMinutes": "&nbsp;",
          "Day": 2,
          "Latitude": null,
          "Longitude": null,
          "stopNumberDisplay": "9.14",
          "Distance": "865.1"
        },
        {
          "StationName": "Bareth",
          "StationCode": "BET",
          "ArrivalTime": "01:48",
          "DepartureTime": "01:48",
          "HaltMinutes": "&nbsp;",
          "Day": 2,
          "Latitude": 23.91639,
          "Longitude": 78.00042,
          "stopNumberDisplay": "9.15",
          "Distance": "871.9"
        },
        {
          "StationName": "Chulheta",
          "StationCode": "CLHT",
          "ArrivalTime": "01:51",
          "DepartureTime": "01:51",
          "HaltMinutes": "&nbsp;",
          "Day": 2,
          "Latitude": 23.94978,
          "Longitude": 78.02075,
          "stopNumberDisplay": "9.16",
          "Distance": "876.3"
        },
        {
          "StationName": "Kalhar",
          "StationCode": "KAH",
          "ArrivalTime": "01:55",
          "DepartureTime": "01:55",
          "HaltMinutes": "&nbsp;",
          "Day": 2,
          "Latitude": 23.97703,
          "Longitude": 78.05727,
          "stopNumberDisplay": "9.17",
          "Distance": "881.6"
        },
        {
          "StationName": "Mandi Bamora",
          "StationCode": "MABA",
          "ArrivalTime": "02:02",
          "DepartureTime": "02:02",
          "HaltMinutes": "&nbsp;",
          "Day": 2,
          "Latitude": 24.0535,
          "Longitude": 78.08244,
          "stopNumberDisplay": "9.18",
          "Distance": "890.5"
        },
        {
          "StationName": "Kurwai Kethora",
          "StationCode": "KIKA",
          "ArrivalTime": "02:08",
          "DepartureTime": "02:08",
          "HaltMinutes": "&nbsp;",
          "Day": 2,
          "Latitude": 24.11819,
          "Longitude": 78.11575,
          "stopNumberDisplay": "9.19",
          "Distance": "898.5"
        }
      ],
      "TrainNo": 12439,
      "StationCode": "BPL",
      "RouteNo": 1,
      "StopNumber": 9,
      "TrainMappingKey": "99124399",
      "StationName": "BHOPAL  JN",
      "ArrivalTime": "00:20",
      "DepartureTime": "00:30",
      "HaltMinutes": "10:00",
      "Distance": "776",
      "HasWifi": true,
      "Day": 2,
      "DataChanged": false,
      "ExpectedPlatformNo": null,
      "arrivalDelay": "19 Min",
      "departureDelay": "19 Min",
      "Latitude": 23.267924,
      "Longitude": 77.41345,
      "stopNumberDisplay": 9
    },
    {
      "intermediateStations": [
        {
          "StationName": "Agasod Jn",
          "StationCode": "AGD",
          "ArrivalTime": "02:23",
          "DepartureTime": "02:23",
          "HaltMinutes": "&nbsp;",
          "Day": 2,
          "Latitude": 24.23414,
          "Longitude": 78.217339,
          "stopNumberDisplay": "10.1",
          "Distance": "915.8"
        },
        {
          "StationName": "Karonda",
          "StationCode": "KOA",
          "ArrivalTime": "02:31",
          "DepartureTime": "02:31",
          "HaltMinutes": "&nbsp;",
          "Day": 2,
          "Latitude": 24.32983,
          "Longitude": 78.2651,
          "stopNumberDisplay": "10.2",
          "Distance": "927.5"
        },
        {
          "StationName": "Mohasa",
          "StationCode": "MXS",
          "ArrivalTime": "02:35",
          "DepartureTime": "02:35",
          "HaltMinutes": "&nbsp;",
          "Day": 2,
          "Latitude": 24.37556,
          "Longitude": 78.28808,
          "stopNumberDisplay": "10.3",
          "Distance": "933.2"
        },
        {
          "StationName": "Dhaura",
          "StationCode": "DUA",
          "ArrivalTime": "02:41",
          "DepartureTime": "02:41",
          "HaltMinutes": "&nbsp;",
          "Day": 2,
          "Latitude": 24.45054,
          "Longitude": 78.32162,
          "stopNumberDisplay": "10.4",
          "Distance": "942.4"
        },
        {
          "StationName": "Jakhalaun",
          "StationCode": "JLN",
          "ArrivalTime": "02:49",
          "DepartureTime": "02:49",
          "HaltMinutes": "&nbsp;",
          "Day": 2,
          "Latitude": 24.54737,
          "Longitude": 78.34213,
          "stopNumberDisplay": "10.5",
          "Distance": "954.0"
        },
        {
          "StationName": "Jiron",
          "StationCode": "JRO",
          "ArrivalTime": "02:54",
          "DepartureTime": "02:54",
          "HaltMinutes": "&nbsp;",
          "Day": 2,
          "Latitude": 24.60775,
          "Longitude": 78.36128,
          "stopNumberDisplay": "10.6",
          "Distance": "961.0"
        },
        {
          "StationName": "Lalitpur Jn",
          "StationCode": "LAR",
          "ArrivalTime": "03:00",
          "DepartureTime": "03:00",
          "HaltMinutes": "&nbsp;",
          "Day": 2,
          "Latitude": 24.68855,
          "Longitude": 78.39574,
          "stopNumberDisplay": "10.7",
          "Distance": "970.7"
        },
        {
          "StationName": "Dailwara",
          "StationCode": "DWA",
          "ArrivalTime": "03:07",
          "DepartureTime": "03:07",
          "HaltMinutes": "&nbsp;",
          "Day": 2,
          "Latitude": 24.78085,
          "Longitude": 78.3931,
          "stopNumberDisplay": "10.8",
          "Distance": "981.0"
        },
        {
          "StationName": "Jakhaura",
          "StationCode": "JHA",
          "ArrivalTime": "03:14",
          "DepartureTime": "03:14",
          "HaltMinutes": "&nbsp;",
          "Day": 2,
          "Latitude": 24.87084,
          "Longitude": 78.40024,
          "stopNumberDisplay": "10.9",
          "Distance": "991.0"
        },
        {
          "StationName": "Bijrotha",
          "StationCode": "BJA",
          "ArrivalTime": "03:20",
          "DepartureTime": "03:20",
          "HaltMinutes": "&nbsp;",
          "Day": 2,
          "Latitude": 24.94681,
          "Longitude": 78.42084,
          "stopNumberDisplay": "10.10",
          "Distance": "999.8"
        },
        {
          "StationName": "Doulta",
          "StationCode": "DLA",
          "ArrivalTime": "03:24",
          "DepartureTime": "03:24",
          "HaltMinutes": "&nbsp;",
          "Day": 2,
          "Latitude": 24.99496,
          "Longitude": 78.42897,
          "stopNumberDisplay": "10.11",
          "Distance": "1005.3"
        },
        {
          "StationName": "Talbahat",
          "StationCode": "TBT",
          "ArrivalTime": "03:27",
          "DepartureTime": "03:27",
          "HaltMinutes": "&nbsp;",
          "Day": 2,
          "Latitude": 25.03912,
          "Longitude": 78.41421,
          "stopNumberDisplay": "10.12",
          "Distance": "1010.5"
        },
        {
          "StationName": "Matatila",
          "StationCode": "MZX",
          "ArrivalTime": "03:30",
          "DepartureTime": "03:30",
          "HaltMinutes": "&nbsp;",
          "Day": 2,
          "Latitude": 25.08346,
          "Longitude": 78.4027,
          "stopNumberDisplay": "10.13",
          "Distance": "1015.6"
        },
        {
          "StationName": "Basai",
          "StationCode": "BZY",
          "ArrivalTime": "03:36",
          "DepartureTime": "03:36",
          "HaltMinutes": "&nbsp;",
          "Day": 2,
          "Latitude": 25.14286,
          "Longitude": 78.39404,
          "stopNumberDisplay": "10.14",
          "Distance": "1023.2"
        },
        {
          "StationName": "Burhpura",
          "StationCode": "BPW",
          "ArrivalTime": "03:40",
          "DepartureTime": "03:40",
          "HaltMinutes": "&nbsp;",
          "Day": 2,
          "Latitude": 25.19948,
          "Longitude": 78.42353,
          "stopNumberDisplay": "10.15",
          "Distance": "1030.2"
        },
        {
          "StationName": "Babina",
          "StationCode": "BAB",
          "ArrivalTime": "03:44",
          "DepartureTime": "03:44",
          "HaltMinutes": "&nbsp;",
          "Day": 2,
          "Latitude": 25.24001,
          "Longitude": 78.45428,
          "stopNumberDisplay": "10.16",
          "Distance": "1035.8"
        },
        {
          "StationName": "Khajraha",
          "StationCode": "KHJ",
          "ArrivalTime": "03:49",
          "DepartureTime": "03:49",
          "HaltMinutes": "&nbsp;",
          "Day": 2,
          "Latitude": 25.30408,
          "Longitude": 78.47815,
          "stopNumberDisplay": "10.17",
          "Distance": "1043.6"
        },
        {
          "StationName": "Bijauli",
          "StationCode": "BJI",
          "ArrivalTime": "03:55",
          "DepartureTime": "03:55",
          "HaltMinutes": "&nbsp;",
          "Day": 2,
          "Latitude": 25.37636,
          "Longitude": 78.51732,
          "stopNumberDisplay": "10.18",
          "Distance": "1052.5"
        },
        {
          "StationName": "Jhansi A Cabin",
          "StationCode": "JHSA",
          "ArrivalTime": "03:59",
          "DepartureTime": "03:59",
          "HaltMinutes": "&nbsp;",
          "Day": 2,
          "Latitude": 25.41872,
          "Longitude": 78.54519,
          "stopNumberDisplay": "10.19",
          "Distance": "1058.2"
        }
      ],
      "TrainNo": 12439,
      "StationCode": "BINA",
      "RouteNo": 1,
      "StopNumber": 10,
      "TrainMappingKey": "991243910",
      "StationName": "BINA JN",
      "ArrivalTime": "02:15",
      "DepartureTime": "02:18",
      "HaltMinutes": "03:00",
      "Distance": "915",
      "HasWifi": true,
      "Day": 2,
      "DataChanged": false,
      "ExpectedPlatformNo": null,
      "arrivalDelay": "-",
      "departureDelay": "-",
      "Latitude": 24.171836,
      "Longitude": 78.185054,
      "stopNumberDisplay": 10
    },
    {
      "intermediateStations": [
        {
          "StationName": "Karari",
          "StationCode": "KRQ",
          "ArrivalTime": "04:16",
          "DepartureTime": "04:16",
          "HaltMinutes": "&nbsp;",
          "Day": 2,
          "Latitude": 25.53056,
          "Longitude": 78.5088,
          "stopNumberDisplay": "11.1",
          "Distance": "1072.4"
        },
        {
          "StationName": "Chirula",
          "StationCode": "CIRL",
          "ArrivalTime": "04:20",
          "DepartureTime": "04:20",
          "HaltMinutes": "&nbsp;",
          "Day": 2,
          "Latitude": null,
          "Longitude": null,
          "stopNumberDisplay": "11.2",
          "Distance": "1079.0"
        },
        {
          "StationName": "Datia",
          "StationCode": "DAA",
          "ArrivalTime": "04:24",
          "DepartureTime": "04:24",
          "HaltMinutes": "&nbsp;",
          "Day": 2,
          "Latitude": 25.64107,
          "Longitude": 78.45602,
          "stopNumberDisplay": "11.3",
          "Distance": "1085.9"
        },
        {
          "StationName": "Sonagir",
          "StationCode": "SOR",
          "ArrivalTime": "04:31",
          "DepartureTime": "04:31",
          "HaltMinutes": "&nbsp;",
          "Day": 2,
          "Latitude": 25.729898,
          "Longitude": 78.409321,
          "stopNumberDisplay": "11.4",
          "Distance": "1097.4"
        },
        {
          "StationName": "Kotra",
          "StationCode": "KTRA",
          "ArrivalTime": "04:37",
          "DepartureTime": "04:37",
          "HaltMinutes": "&nbsp;",
          "Day": 2,
          "Latitude": 25.8109,
          "Longitude": 78.381414,
          "stopNumberDisplay": "11.5",
          "Distance": "1106.8"
        },
        {
          "StationName": "Dabra",
          "StationCode": "DBA",
          "ArrivalTime": "04:43",
          "DepartureTime": "04:43",
          "HaltMinutes": "&nbsp;",
          "Day": 2,
          "Latitude": 25.881389,
          "Longitude": 78.330988,
          "stopNumberDisplay": "11.6",
          "Distance": "1116.3"
        },
        {
          "StationName": "Simariatal",
          "StationCode": "SMTL",
          "ArrivalTime": "04:46",
          "DepartureTime": "04:46",
          "HaltMinutes": "&nbsp;",
          "Day": 2,
          "Latitude": 25.921807,
          "Longitude": 78.304081,
          "stopNumberDisplay": "11.7",
          "Distance": "1121.6"
        },
        {
          "StationName": "Anant Paith",
          "StationCode": "AEH",
          "ArrivalTime": "04:49",
          "DepartureTime": "04:49",
          "HaltMinutes": "&nbsp;",
          "Day": 2,
          "Latitude": 25.955406,
          "Longitude": 78.276622,
          "stopNumberDisplay": "11.8",
          "Distance": "1126.2"
        },
        {
          "StationName": "Antri",
          "StationCode": "ARI",
          "ArrivalTime": "04:55",
          "DepartureTime": "04:55",
          "HaltMinutes": "&nbsp;",
          "Day": 2,
          "Latitude": 26.03561,
          "Longitude": 78.227111,
          "stopNumberDisplay": "11.9",
          "Distance": "1136.5"
        },
        {
          "StationName": "Sandalpur",
          "StationCode": "SLV",
          "ArrivalTime": "04:59",
          "DepartureTime": "04:59",
          "HaltMinutes": "&nbsp;",
          "Day": 2,
          "Latitude": 26.08289,
          "Longitude": 78.20354,
          "stopNumberDisplay": "11.10",
          "Distance": "1142.5"
        },
        {
          "StationName": "Sithouli",
          "StationCode": "STLI",
          "ArrivalTime": "05:04",
          "DepartureTime": "05:04",
          "HaltMinutes": "&nbsp;",
          "Day": 2,
          "Latitude": 26.14565,
          "Longitude": 78.1874,
          "stopNumberDisplay": "11.11",
          "Distance": "1150.0"
        }
      ],
      "TrainNo": 12439,
      "StationCode": "VGLJ",
      "RouteNo": 1,
      "StopNumber": 11,
      "TrainMappingKey": "991243911",
      "StationName": "V LAKSHMIBAIJHS",
      "ArrivalTime": "04:01",
      "DepartureTime": "04:09",
      "HaltMinutes": "08:00",
      "Distance": "1067",
      "HasWifi": false,
      "Day": 2,
      "DataChanged": false,
      "ExpectedPlatformNo": null,
      "arrivalDelay": "-",
      "departureDelay": "-",
      "Latitude": 25.443954,
      "Longitude": 78.553211,
      "stopNumberDisplay": 11
    },
    {
      "intermediateStations": [
        {
          "StationName": "Birlanagar Jn",
          "StationCode": "BLNR",
          "ArrivalTime": "05:13",
          "DepartureTime": "05:13",
          "HaltMinutes": "&nbsp;",
          "Day": 2,
          "Latitude": 26.23762,
          "Longitude": 78.19517,
          "stopNumberDisplay": "12.1",
          "Distance": "1161.4"
        },
        {
          "StationName": "Rayaru",
          "StationCode": "RRU",
          "ArrivalTime": "05:21",
          "DepartureTime": "05:21",
          "HaltMinutes": "&nbsp;",
          "Day": 2,
          "Latitude": 26.3068,
          "Longitude": 78.1298,
          "stopNumberDisplay": "12.2",
          "Distance": "1171.6"
        },
        {
          "StationName": "Banmor",
          "StationCode": "BAO",
          "ArrivalTime": "05:26",
          "DepartureTime": "05:26",
          "HaltMinutes": "&nbsp;",
          "Day": 2,
          "Latitude": 26.3548,
          "Longitude": 78.0991,
          "stopNumberDisplay": "12.3",
          "Distance": "1178.0"
        },
        {
          "StationName": "Nurabad",
          "StationCode": "NUB",
          "ArrivalTime": "05:31",
          "DepartureTime": "05:31",
          "HaltMinutes": "&nbsp;",
          "Day": 2,
          "Latitude": 26.4051,
          "Longitude": 78.0776,
          "stopNumberDisplay": "12.4",
          "Distance": "1184.0"
        },
        {
          "StationName": "Sank",
          "StationCode": "SANK",
          "ArrivalTime": "05:34",
          "DepartureTime": "05:34",
          "HaltMinutes": "&nbsp;",
          "Day": 2,
          "Latitude": 26.4304,
          "Longitude": 78.06,
          "stopNumberDisplay": "12.5",
          "Distance": "1187.4"
        },
        {
          "StationName": "Morena",
          "StationCode": "MRA",
          "ArrivalTime": "05:42",
          "DepartureTime": "05:42",
          "HaltMinutes": "&nbsp;",
          "Day": 2,
          "Latitude": 26.5005,
          "Longitude": 78.0039,
          "stopNumberDisplay": "12.6",
          "Distance": "1197.2"
        },
        {
          "StationName": "Sikroda Kwanri",
          "StationCode": "SIKD",
          "ArrivalTime": "05:48",
          "DepartureTime": "05:48",
          "HaltMinutes": "&nbsp;",
          "Day": 2,
          "Latitude": 26.5695,
          "Longitude": 77.9631,
          "stopNumberDisplay": "12.7",
          "Distance": "1205.4"
        },
        {
          "StationName": "Hetampur",
          "StationCode": "HET",
          "ArrivalTime": "05:53",
          "DepartureTime": "05:53",
          "HaltMinutes": "&nbsp;",
          "Day": 2,
          "Latitude": 26.6118,
          "Longitude": 77.9434,
          "stopNumberDisplay": "12.8",
          "Distance": "1211.1"
        },
        {
          "StationName": "Gher",
          "StationCode": "GHER",
          "ArrivalTime": "05:59",
          "DepartureTime": "05:59",
          "HaltMinutes": "&nbsp;",
          "Day": 2,
          "Latitude": 26.6708,
          "Longitude": 77.9488,
          "stopNumberDisplay": "12.9",
          "Distance": "1218.5"
        },
        {
          "StationName": "Dholpur Jn",
          "StationCode": "DHO",
          "ArrivalTime": "06:03",
          "DepartureTime": "06:03",
          "HaltMinutes": "&nbsp;",
          "Day": 2,
          "Latitude": 26.6976226,
          "Longitude": 77.9056753,
          "stopNumberDisplay": "12.10",
          "Distance": "1224.2"
        },
        {
          "StationName": "Mania",
          "StationCode": "MIA",
          "ArrivalTime": "06:13",
          "DepartureTime": "06:13",
          "HaltMinutes": "&nbsp;",
          "Day": 2,
          "Latitude": 26.806052,
          "Longitude": 77.919936,
          "stopNumberDisplay": "12.11",
          "Distance": "1236.6"
        },
        {
          "StationName": "Jajau",
          "StationCode": "JJ",
          "ArrivalTime": "06:25",
          "DepartureTime": "06:25",
          "HaltMinutes": "&nbsp;",
          "Day": 2,
          "Latitude": 26.934282,
          "Longitude": 77.93644,
          "stopNumberDisplay": "12.12",
          "Distance": "1251.1"
        },
        {
          "StationName": "Bhandai Jn",
          "StationCode": "BHA",
          "ArrivalTime": "06:37",
          "DepartureTime": "06:37",
          "HaltMinutes": "&nbsp;",
          "Day": 2,
          "Latitude": 27.068681,
          "Longitude": 77.966462,
          "stopNumberDisplay": "12.13",
          "Distance": "1266.5"
        }
      ],
      "TrainNo": 12439,
      "StationCode": "GWL",
      "RouteNo": 1,
      "StopNumber": 12,
      "TrainMappingKey": "991243912",
      "StationName": "GWALIOR",
      "ArrivalTime": "05:09",
      "DepartureTime": "05:11",
      "HaltMinutes": "02:00",
      "Distance": "1164",
      "HasWifi": false,
      "Day": 2,
      "DataChanged": false,
      "ExpectedPlatformNo": "2",
      "arrivalDelay": "01 Hr 08 Min",
      "departureDelay": "01 Hr 08 Min",
      "Latitude": 26.2159557,
      "Longitude": 78.181915,
      "stopNumberDisplay": 12
    },
    {
      "intermediateStations": [
        {
          "StationName": "Raja Ki Mandi",
          "StationCode": "RKM",
          "ArrivalTime": "06:53",
          "DepartureTime": "06:53",
          "HaltMinutes": "&nbsp;",
          "Day": 2,
          "Latitude": 27.192579,
          "Longitude": 77.99692,
          "stopNumberDisplay": "13.1",
          "Distance": "1280.7"
        },
        {
          "StationName": "Billoch Pura",
          "StationCode": "BFP",
          "ArrivalTime": "06:54",
          "DepartureTime": "06:54",
          "HaltMinutes": "&nbsp;",
          "Day": 2,
          "Latitude": 27.20215,
          "Longitude": 77.98683,
          "stopNumberDisplay": "13.2",
          "Distance": "1282.3"
        },
        {
          "StationName": "Runkuta",
          "StationCode": "RNKA",
          "ArrivalTime": "07:00",
          "DepartureTime": "07:00",
          "HaltMinutes": "&nbsp;",
          "Day": 2,
          "Latitude": 27.22322,
          "Longitude": 77.8982,
          "stopNumberDisplay": "13.3",
          "Distance": "1291.3"
        },
        {
          "StationName": "Kitham",
          "StationCode": "KXM",
          "ArrivalTime": "07:07",
          "DepartureTime": "07:07",
          "HaltMinutes": "&nbsp;",
          "Day": 2,
          "Latitude": 27.25403,
          "Longitude": 77.81767,
          "stopNumberDisplay": "13.4",
          "Distance": "1300.3"
        },
        {
          "StationName": "Deen Dayal Dham",
          "StationCode": "DDDM",
          "ArrivalTime": "07:13",
          "DepartureTime": "07:13",
          "HaltMinutes": "&nbsp;",
          "Day": 2,
          "Latitude": null,
          "Longitude": null,
          "stopNumberDisplay": "13.5",
          "Distance": "1309.5"
        },
        {
          "StationName": "Farah Town",
          "StationCode": "FHT",
          "ArrivalTime": "07:13",
          "DepartureTime": "07:13",
          "HaltMinutes": "&nbsp;",
          "Day": 2,
          "Latitude": 27.31847,
          "Longitude": 77.7583,
          "stopNumberDisplay": "13.6",
          "Distance": "1309.5"
        },
        {
          "StationName": "Farah",
          "StationCode": "FAR",
          "ArrivalTime": "07:15",
          "DepartureTime": "07:15",
          "HaltMinutes": "&nbsp;",
          "Day": 2,
          "Latitude": 27.33465,
          "Longitude": 77.74434,
          "stopNumberDisplay": "13.7",
          "Distance": "1311.8"
        },
        {
          "StationName": "Baad",
          "StationCode": "BAD",
          "ArrivalTime": "07:21",
          "DepartureTime": "07:21",
          "HaltMinutes": "&nbsp;",
          "Day": 2,
          "Latitude": 27.39608,
          "Longitude": 77.68946,
          "stopNumberDisplay": "13.8",
          "Distance": "1320.5"
        }
      ],
      "TrainNo": 12439,
      "StationCode": "AGC",
      "RouteNo": 1,
      "StopNumber": 13,
      "TrainMappingKey": "991243913",
      "StationName": "AGRA CANTT",
      "ArrivalTime": "06:45",
      "DepartureTime": "06:50",
      "HaltMinutes": "05:00",
      "Distance": "1283",
      "HasWifi": false,
      "Day": 2,
      "DataChanged": false,
      "ExpectedPlatformNo": "2",
      "arrivalDelay": "59 Min",
      "departureDelay": "59 Min",
      "Latitude": null,
      "Longitude": null,
      "stopNumberDisplay": 13
    },
    {
      "intermediateStations": [
        {
          "StationName": "Bhuteshwar",
          "StationCode": "BTSR",
          "ArrivalTime": "07:33",
          "DepartureTime": "07:33",
          "HaltMinutes": "&nbsp;",
          "Day": 2,
          "Latitude": 27.5015007,
          "Longitude": 77.6680613,
          "stopNumberDisplay": "14.1",
          "Distance": "1333.2"
        },
        {
          "StationName": "Vrindaban Road",
          "StationCode": "VRBD",
          "ArrivalTime": "07:42",
          "DepartureTime": "07:42",
          "HaltMinutes": "&nbsp;",
          "Day": 2,
          "Latitude": 27.55592,
          "Longitude": 77.62331,
          "stopNumberDisplay": "14.2",
          "Distance": "1340.7"
        },
        {
          "StationName": "Ajhai",
          "StationCode": "AJH",
          "ArrivalTime": "07:54",
          "DepartureTime": "07:54",
          "HaltMinutes": "&nbsp;",
          "Day": 2,
          "Latitude": 27.63618,
          "Longitude": 77.55788,
          "stopNumberDisplay": "14.3",
          "Distance": "1351.7"
        },
        {
          "StationName": "Chata",
          "StationCode": "CHJ",
          "ArrivalTime": "08:05",
          "DepartureTime": "08:05",
          "HaltMinutes": "&nbsp;",
          "Day": 2,
          "Latitude": 27.71193,
          "Longitude": 77.5027,
          "stopNumberDisplay": "14.4",
          "Distance": "1361.7"
        },
        {
          "StationName": "Kosi Kalan",
          "StationCode": "KSV",
          "ArrivalTime": "08:17",
          "DepartureTime": "08:17",
          "HaltMinutes": "&nbsp;",
          "Day": 2,
          "Latitude": 27.78805,
          "Longitude": 77.4461,
          "stopNumberDisplay": "14.5",
          "Distance": "1372.0"
        },
        {
          "StationName": "Hodal",
          "StationCode": "HDL",
          "ArrivalTime": "08:31",
          "DepartureTime": "08:31",
          "HaltMinutes": "&nbsp;",
          "Day": 2,
          "Latitude": 27.88607,
          "Longitude": 77.38802,
          "stopNumberDisplay": "14.6",
          "Distance": "1384.3"
        },
        {
          "StationName": "Banchari",
          "StationCode": "BNCR",
          "ArrivalTime": "08:39",
          "DepartureTime": "08:39",
          "HaltMinutes": "&nbsp;",
          "Day": 2,
          "Latitude": 27.94527,
          "Longitude": 77.36331,
          "stopNumberDisplay": "14.7",
          "Distance": "1391.5"
        },
        {
          "StationName": "Sholaka",
          "StationCode": "SHLK",
          "ArrivalTime": "08:43",
          "DepartureTime": "08:43",
          "HaltMinutes": "&nbsp;",
          "Day": 2,
          "Latitude": 27.97372,
          "Longitude": 77.36058,
          "stopNumberDisplay": "14.8",
          "Distance": "1394.6"
        },
        {
          "StationName": "Rundhi",
          "StationCode": "RDE",
          "ArrivalTime": "08:55",
          "DepartureTime": "08:55",
          "HaltMinutes": "&nbsp;",
          "Day": 2,
          "Latitude": 28.06737,
          "Longitude": 77.35139,
          "stopNumberDisplay": "14.9",
          "Distance": "1405.1"
        },
        {
          "StationName": "Palwal",
          "StationCode": "PWL",
          "ArrivalTime": "09:05",
          "DepartureTime": "09:05",
          "HaltMinutes": "&nbsp;",
          "Day": 2,
          "Latitude": 28.15112,
          "Longitude": 77.34199,
          "stopNumberDisplay": "14.10",
          "Distance": "1414.4"
        },
        {
          "StationName": "Asaoti",
          "StationCode": "AST",
          "ArrivalTime": "09:18",
          "DepartureTime": "09:18",
          "HaltMinutes": "&nbsp;",
          "Day": 2,
          "Latitude": 28.251743,
          "Longitude": 77.32436,
          "stopNumberDisplay": "14.11",
          "Distance": "1425.8"
        },
        {
          "StationName": "Piyala Block Hut",
          "StationCode": "PYLA",
          "ArrivalTime": "09:22",
          "DepartureTime": "09:22",
          "HaltMinutes": "&nbsp;",
          "Day": 2,
          "Latitude": 28.28671,
          "Longitude": 77.31786,
          "stopNumberDisplay": "14.12",
          "Distance": "1429.7"
        },
        {
          "StationName": "Ballabh Garh",
          "StationCode": "BVH",
          "ArrivalTime": "09:29",
          "DepartureTime": "09:29",
          "HaltMinutes": "&nbsp;",
          "Day": 2,
          "Latitude": 28.34046,
          "Longitude": 77.31233,
          "stopNumberDisplay": "14.13",
          "Distance": "1435.7"
        },
        {
          "StationName": "Faridabad New Town",
          "StationCode": "FDN",
          "ArrivalTime": "09:34",
          "DepartureTime": "09:34",
          "HaltMinutes": "&nbsp;",
          "Day": 2,
          "Latitude": 28.37657,
          "Longitude": 77.30952,
          "stopNumberDisplay": "14.14",
          "Distance": "1439.7"
        },
        {
          "StationName": "Faridabad",
          "StationCode": "FDB",
          "ArrivalTime": "09:38",
          "DepartureTime": "09:38",
          "HaltMinutes": "&nbsp;",
          "Day": 2,
          "Latitude": 28.41074,
          "Longitude": 77.3073,
          "stopNumberDisplay": "14.15",
          "Distance": "1443.5"
        },
        {
          "StationName": "Tughlakabad Cabin",
          "StationCode": "TKDC",
          "ArrivalTime": "09:43",
          "DepartureTime": "09:43",
          "HaltMinutes": "&nbsp;",
          "Day": 2,
          "Latitude": 28.45965,
          "Longitude": 77.30338,
          "stopNumberDisplay": "14.16",
          "Distance": "1448.1"
        },
        {
          "StationName": "Tuglakabad",
          "StationCode": "TKD",
          "ArrivalTime": "09:50",
          "DepartureTime": "09:50",
          "HaltMinutes": "&nbsp;",
          "Day": 2,
          "Latitude": 28.503,
          "Longitude": 77.29716,
          "stopNumberDisplay": "14.17",
          "Distance": "1453.8"
        },
        {
          "StationName": "Tuglakabad East Cabin",
          "StationCode": "TKEC",
          "ArrivalTime": "09:54",
          "DepartureTime": "09:54",
          "HaltMinutes": "&nbsp;",
          "Day": 2,
          "Latitude": 28.53569,
          "Longitude": 77.28318,
          "stopNumberDisplay": "14.18",
          "Distance": "1457.7"
        },
        {
          "StationName": "Okhla",
          "StationCode": "OKA",
          "ArrivalTime": "09:58",
          "DepartureTime": "09:58",
          "HaltMinutes": "&nbsp;",
          "Day": 2,
          "Latitude": null,
          "Longitude": null,
          "stopNumberDisplay": "14.19",
          "Distance": "1460.9"
        },
        {
          "StationName": "Okhla Bypass B Cabin",
          "StationCode": "OKAC",
          "ArrivalTime": "10:00",
          "DepartureTime": "10:00",
          "HaltMinutes": "&nbsp;",
          "Day": 2,
          "Latitude": 28.57121,
          "Longitude": 77.25567,
          "stopNumberDisplay": "14.20",
          "Distance": "1462.5"
        },
        {
          "StationName": "Hazrat Nizamuddin",
          "StationCode": "NZM",
          "ArrivalTime": "10:02",
          "DepartureTime": "10:02",
          "HaltMinutes": "&nbsp;",
          "Day": 2,
          "Latitude": null,
          "Longitude": null,
          "stopNumberDisplay": "14.21",
          "Distance": "1464.5"
        },
        {
          "StationName": "Pragati Maidan",
          "StationCode": "PGMD",
          "ArrivalTime": "10:05",
          "DepartureTime": "10:05",
          "HaltMinutes": "&nbsp;",
          "Day": 2,
          "Latitude": 28.61609,
          "Longitude": 77.24732,
          "stopNumberDisplay": "14.22",
          "Distance": "1467.6"
        },
        {
          "StationName": "Tilak Bridge",
          "StationCode": "TKJ",
          "ArrivalTime": "10:07",
          "DepartureTime": "10:07",
          "HaltMinutes": "&nbsp;",
          "Day": 2,
          "Latitude": 28.62822,
          "Longitude": 77.23714,
          "stopNumberDisplay": "14.23",
          "Distance": "1469.3"
        },
        {
          "StationName": "Shivaji Bridge",
          "StationCode": "CSB",
          "ArrivalTime": "10:09",
          "DepartureTime": "10:09",
          "HaltMinutes": "&nbsp;",
          "Day": 2,
          "Latitude": 28.63359,
          "Longitude": 77.2262,
          "stopNumberDisplay": "14.24",
          "Distance": "1470.6"
        }
      ],
      "TrainNo": 12439,
      "StationCode": "MTJ",
      "RouteNo": 1,
      "StopNumber": 14,
      "TrainMappingKey": "991243914",
      "StationName": "MATHURA JN",
      "ArrivalTime": "07:28",
      "DepartureTime": "07:30",
      "HaltMinutes": "02:00",
      "Distance": "1337",
      "HasWifi": true,
      "Day": 2,
      "DataChanged": false,
      "ExpectedPlatformNo": "2",
      "arrivalDelay": "01 Hr 13 Min",
      "departureDelay": "01 Hr 13 Min",
      "Latitude": 27.479445,
      "Longitude": 77.673213,
      "stopNumberDisplay": 14
    },
    {
      "intermediateStations": [
        {
          "StationName": "Sadar Bazar",
          "StationCode": "DSB",
          "ArrivalTime": "10:27",
          "DepartureTime": "10:27",
          "HaltMinutes": "&nbsp;",
          "Day": 2,
          "Latitude": 28.65866,
          "Longitude": 77.21689,
          "stopNumberDisplay": "15.1",
          "Distance": "1473.6"
        },
        {
          "StationName": "Delhi Kishan Ganj Outer Cabin",
          "StationCode": "XX-DKZO",
          "ArrivalTime": "10:28",
          "DepartureTime": "10:28",
          "HaltMinutes": "&nbsp;",
          "Day": 2,
          "Latitude": null,
          "Longitude": null,
          "stopNumberDisplay": "15.2",
          "Distance": "1474.9"
        },
        {
          "StationName": "Delhi Kishan Ganj",
          "StationCode": "DKZ",
          "ArrivalTime": "10:29",
          "DepartureTime": "10:29",
          "HaltMinutes": "&nbsp;",
          "Day": 2,
          "Latitude": null,
          "Longitude": null,
          "stopNumberDisplay": "15.3",
          "Distance": "1475.7"
        },
        {
          "StationName": "Vivekanand Puri Halt",
          "StationCode": "VVKP",
          "ArrivalTime": "10:30",
          "DepartureTime": "10:30",
          "HaltMinutes": "&nbsp;",
          "Day": 2,
          "Latitude": 28.66439,
          "Longitude": 77.18407,
          "stopNumberDisplay": "15.4",
          "Distance": "1477.4"
        },
        {
          "StationName": "Dayabasti",
          "StationCode": "DBSI",
          "ArrivalTime": "10:31",
          "DepartureTime": "10:31",
          "HaltMinutes": "&nbsp;",
          "Day": 2,
          "Latitude": 28.66749,
          "Longitude": 77.17111,
          "stopNumberDisplay": "15.5",
          "Distance": "1478.5"
        },
        {
          "StationName": "Dayabasti Bypass A Cabin",
          "StationCode": "DBSC",
          "ArrivalTime": "10:33",
          "DepartureTime": "10:33",
          "HaltMinutes": "&nbsp;",
          "Day": 2,
          "Latitude": 28.67349,
          "Longitude": 77.15611,
          "stopNumberDisplay": "15.6",
          "Distance": "1480.3"
        },
        {
          "StationName": "Shakur Basti",
          "StationCode": "SSB",
          "ArrivalTime": "10:36",
          "DepartureTime": "10:36",
          "HaltMinutes": "&nbsp;",
          "Day": 2,
          "Latitude": null,
          "Longitude": null,
          "stopNumberDisplay": "15.7",
          "Distance": "1483.2"
        },
        {
          "StationName": "Mangolpuri",
          "StationCode": "MGLP",
          "ArrivalTime": "10:39",
          "DepartureTime": "10:39",
          "HaltMinutes": "&nbsp;",
          "Day": 2,
          "Latitude": 28.68366,
          "Longitude": 77.09031,
          "stopNumberDisplay": "15.8",
          "Distance": "1486.9"
        },
        {
          "StationName": "Nangloi",
          "StationCode": "NNO",
          "ArrivalTime": "10:42",
          "DepartureTime": "10:42",
          "HaltMinutes": "&nbsp;",
          "Day": 2,
          "Latitude": 28.68637,
          "Longitude": 77.05735,
          "stopNumberDisplay": "15.9",
          "Distance": "1490.1"
        },
        {
          "StationName": "Mundka",
          "StationCode": "MQC",
          "ArrivalTime": "10:44",
          "DepartureTime": "10:44",
          "HaltMinutes": "&nbsp;",
          "Day": 2,
          "Latitude": 28.68895,
          "Longitude": 77.02827,
          "stopNumberDisplay": "15.10",
          "Distance": "1492.9"
        },
        {
          "StationName": "Ghevra",
          "StationCode": "GHE",
          "ArrivalTime": "10:47",
          "DepartureTime": "10:47",
          "HaltMinutes": "&nbsp;",
          "Day": 2,
          "Latitude": 28.69158,
          "Longitude": 76.99755,
          "stopNumberDisplay": "15.11",
          "Distance": "1496.0"
        },
        {
          "StationName": "Bahadurgarh",
          "StationCode": "BGZ",
          "ArrivalTime": "10:53",
          "DepartureTime": "10:53",
          "HaltMinutes": "&nbsp;",
          "Day": 2,
          "Latitude": 28.70127,
          "Longitude": 76.93067,
          "stopNumberDisplay": "15.12",
          "Distance": "1502.7"
        },
        {
          "StationName": "Asaudah",
          "StationCode": "ASE",
          "ArrivalTime": "11:01",
          "DepartureTime": "11:01",
          "HaltMinutes": "&nbsp;",
          "Day": 2,
          "Latitude": 28.73695,
          "Longitude": 76.85919,
          "stopNumberDisplay": "15.13",
          "Distance": "1510.6"
        },
        {
          "StationName": "Rohad Nagar",
          "StationCode": "ROHN",
          "ArrivalTime": "11:05",
          "DepartureTime": "11:05",
          "HaltMinutes": "&nbsp;",
          "Day": 2,
          "Latitude": 28.7613,
          "Longitude": 76.81297,
          "stopNumberDisplay": "15.14",
          "Distance": "1515.8"
        },
        {
          "StationName": "Sampla",
          "StationCode": "SPZ",
          "ArrivalTime": "11:10",
          "DepartureTime": "11:10",
          "HaltMinutes": "&nbsp;",
          "Day": 2,
          "Latitude": 28.783,
          "Longitude": 76.77227,
          "stopNumberDisplay": "15.15",
          "Distance": "1520.6"
        },
        {
          "StationName": "Ismaila Haryana",
          "StationCode": "ISM",
          "ArrivalTime": "11:13",
          "DepartureTime": "11:13",
          "HaltMinutes": "&nbsp;",
          "Day": 2,
          "Latitude": 28.7993,
          "Longitude": 76.74128,
          "stopNumberDisplay": "15.16",
          "Distance": "1524.2"
        },
        {
          "StationName": "Kharawar",
          "StationCode": "KRZ",
          "ArrivalTime": "11:19",
          "DepartureTime": "11:19",
          "HaltMinutes": "&nbsp;",
          "Day": 2,
          "Latitude": 28.83121,
          "Longitude": 76.68118,
          "stopNumberDisplay": "15.17",
          "Distance": "1530.9"
        },
        {
          "StationName": "Asthal Bohar Jn",
          "StationCode": "ABO",
          "ArrivalTime": "11:24",
          "DepartureTime": "11:24",
          "HaltMinutes": "&nbsp;",
          "Day": 2,
          "Latitude": 28.858414,
          "Longitude": 76.62934,
          "stopNumberDisplay": "15.18",
          "Distance": "1536.8"
        }
      ],
      "TrainNo": 12439,
      "StationCode": "NDLS",
      "RouteNo": 1,
      "StopNumber": 15,
      "TrainMappingKey": "991243915",
      "StationName": "NEW DELHI",
      "ArrivalTime": "10:10",
      "DepartureTime": "10:25",
      "HaltMinutes": "15:00",
      "Distance": "1477",
      "HasWifi": false,
      "Day": 2,
      "DataChanged": false,
      "ExpectedPlatformNo": "3",
      "arrivalDelay": "42 Min",
      "departureDelay": "42 Min",
      "Latitude": 28.6429,
      "Longitude": 77.2191,
      "stopNumberDisplay": 15
    },
    {
      "intermediateStations": [
        {
          "StationName": "Samar Gopalpur",
          "StationCode": "SMF",
          "ArrivalTime": "11:39",
          "DepartureTime": "11:39",
          "HaltMinutes": "&nbsp;",
          "Day": 2,
          "Latitude": 28.964299,
          "Longitude": 76.515741,
          "stopNumberDisplay": "16.1",
          "Distance": "1552.9"
        },
        {
          "StationName": "Karainthi",
          "StationCode": "KHV",
          "ArrivalTime": "11:43",
          "DepartureTime": "11:43",
          "HaltMinutes": "&nbsp;",
          "Day": 2,
          "Latitude": 29.014494,
          "Longitude": 76.481603,
          "stopNumberDisplay": "16.2",
          "Distance": "1559.8"
        },
        {
          "StationName": "Lakhan Majra",
          "StationCode": "LNMA",
          "ArrivalTime": "11:46",
          "DepartureTime": "11:46",
          "HaltMinutes": "&nbsp;",
          "Day": 2,
          "Latitude": 29.040733,
          "Longitude": 76.464473,
          "stopNumberDisplay": "16.3",
          "Distance": "1563.2"
        },
        {
          "StationName": "Kila Zafargarh",
          "StationCode": "KZH",
          "ArrivalTime": "11:49",
          "DepartureTime": "11:49",
          "HaltMinutes": "&nbsp;",
          "Day": 2,
          "Latitude": 29.080456,
          "Longitude": 76.428628,
          "stopNumberDisplay": "16.4",
          "Distance": "1568.8"
        },
        {
          "StationName": "Julana",
          "StationCode": "JNA",
          "ArrivalTime": "11:53",
          "DepartureTime": "11:53",
          "HaltMinutes": "&nbsp;",
          "Day": 2,
          "Latitude": 29.122073,
          "Longitude": 76.395037,
          "stopNumberDisplay": "16.5",
          "Distance": "1574.4"
        },
        {
          "StationName": "Jai Jai Wanti",
          "StationCode": "JJT",
          "ArrivalTime": "11:57",
          "DepartureTime": "11:57",
          "HaltMinutes": "&nbsp;",
          "Day": 2,
          "Latitude": 29.169035,
          "Longitude": 76.368535,
          "stopNumberDisplay": "16.6",
          "Distance": "1580.3"
        },
        {
          "StationName": "Kinana",
          "StationCode": "KIU",
          "ArrivalTime": "12:02",
          "DepartureTime": "12:02",
          "HaltMinutes": "&nbsp;",
          "Day": 2,
          "Latitude": 29.227673,
          "Longitude": 76.335786,
          "stopNumberDisplay": "16.7",
          "Distance": "1587.6"
        },
        {
          "StationName": "Bishanpura Haryana",
          "StationCode": "BSPH",
          "ArrivalTime": "12:05",
          "DepartureTime": "12:05",
          "HaltMinutes": "&nbsp;",
          "Day": 2,
          "Latitude": 29.272175,
          "Longitude": 76.3239,
          "stopNumberDisplay": "16.8",
          "Distance": "1592.9"
        }
      ],
      "TrainNo": 12439,
      "StationCode": "ROK",
      "RouteNo": 1,
      "StopNumber": 16,
      "TrainMappingKey": "991243916",
      "StationName": "ROHTAK JN",
      "ArrivalTime": "11:30",
      "DepartureTime": "11:32",
      "HaltMinutes": "02:00",
      "Distance": "1548",
      "HasWifi": true,
      "Day": 2,
      "DataChanged": false,
      "ExpectedPlatformNo": null,
      "arrivalDelay": "50 Min",
      "departureDelay": "50 Min",
      "Latitude": 28.89081,
      "Longitude": 76.57943,
      "stopNumberDisplay": 16
    },
    {
      "intermediateStations": [
        {
          "StationName": "Barsola",
          "StationCode": "BZO",
          "ArrivalTime": "12:22",
          "DepartureTime": "12:22",
          "HaltMinutes": "&nbsp;",
          "Day": 2,
          "Latitude": 29.3864,
          "Longitude": 76.2385,
          "stopNumberDisplay": "17.1",
          "Distance": "1608.0"
        },
        {
          "StationName": "Gaon Baroda",
          "StationCode": "GNBA",
          "ArrivalTime": "12:29",
          "DepartureTime": "12:29",
          "HaltMinutes": "&nbsp;",
          "Day": 2,
          "Latitude": null,
          "Longitude": null,
          "stopNumberDisplay": "17.2",
          "Distance": "1613.9"
        },
        {
          "StationName": "Uchana",
          "StationCode": "UCA",
          "ArrivalTime": "12:35",
          "DepartureTime": "12:35",
          "HaltMinutes": "&nbsp;",
          "Day": 2,
          "Latitude": 29.4664,
          "Longitude": 76.179,
          "stopNumberDisplay": "17.3",
          "Distance": "1618.6"
        },
        {
          "StationName": "Ghaso",
          "StationCode": "GSO",
          "ArrivalTime": "12:45",
          "DepartureTime": "12:45",
          "HaltMinutes": "&nbsp;",
          "Day": 2,
          "Latitude": 29.5312,
          "Longitude": 76.1437,
          "stopNumberDisplay": "17.4",
          "Distance": "1626.6"
        },
        {
          "StationName": "Narwana Jn",
          "StationCode": "NRW",
          "ArrivalTime": "12:54",
          "DepartureTime": "12:54",
          "HaltMinutes": "&nbsp;",
          "Day": 2,
          "Latitude": 29.589,
          "Longitude": 76.10938,
          "stopNumberDisplay": "17.5",
          "Distance": "1633.8"
        },
        {
          "StationName": "Dharodi",
          "StationCode": "DHY",
          "ArrivalTime": "13:03",
          "DepartureTime": "13:03",
          "HaltMinutes": "&nbsp;",
          "Day": 2,
          "Latitude": 29.639688,
          "Longitude": 76.056155,
          "stopNumberDisplay": "17.6",
          "Distance": "1641.4"
        },
        {
          "StationName": "Dhamtan Sahib",
          "StationCode": "DTN",
          "ArrivalTime": "13:12",
          "DepartureTime": "13:12",
          "HaltMinutes": "&nbsp;",
          "Day": 2,
          "Latitude": 29.687318,
          "Longitude": 76.006009,
          "stopNumberDisplay": "17.7",
          "Distance": "1648.6"
        },
        {
          "StationName": "Kalwan",
          "StationCode": "KLWN",
          "ArrivalTime": "13:17",
          "DepartureTime": "13:17",
          "HaltMinutes": "&nbsp;",
          "Day": 2,
          "Latitude": 29.699339,
          "Longitude": 75.966131,
          "stopNumberDisplay": "17.8",
          "Distance": "1652.8"
        },
        {
          "StationName": "Tohana",
          "StationCode": "TUN",
          "ArrivalTime": "13:26",
          "DepartureTime": "13:26",
          "HaltMinutes": "&nbsp;",
          "Day": 2,
          "Latitude": 29.726755,
          "Longitude": 75.902641,
          "stopNumberDisplay": "17.9",
          "Distance": "1659.8"
        },
        {
          "StationName": "Himmatpura",
          "StationCode": "HMQ",
          "ArrivalTime": "13:31",
          "DepartureTime": "13:31",
          "HaltMinutes": "&nbsp;",
          "Day": 2,
          "Latitude": 29.747958,
          "Longitude": 75.864865,
          "stopNumberDisplay": "17.10",
          "Distance": "1664.1"
        }
      ],
      "TrainNo": 12439,
      "StationCode": "JIND",
      "RouteNo": 1,
      "StopNumber": 17,
      "TrainMappingKey": "991243917",
      "StationName": "JIND JN",
      "ArrivalTime": "12:10",
      "DepartureTime": "12:12",
      "HaltMinutes": "02:00",
      "Distance": "1605",
      "HasWifi": false,
      "Day": 2,
      "DataChanged": false,
      "ExpectedPlatformNo": null,
      "arrivalDelay": "40 Min",
      "departureDelay": "40 Min",
      "Latitude": 29.32958,
      "Longitude": 76.29,
      "stopNumberDisplay": 17
    },
    {
      "intermediateStations": [
        {
          "StationName": "Gurnay",
          "StationCode": "GRN",
          "ArrivalTime": "13:49",
          "DepartureTime": "13:49",
          "HaltMinutes": "&nbsp;",
          "Day": 2,
          "Latitude": 29.858992,
          "Longitude": 75.803647,
          "stopNumberDisplay": "18.1",
          "Distance": "1679.4"
        },
        {
          "StationName": "Lehra Gaga",
          "StationCode": "LHA",
          "ArrivalTime": "13:56",
          "DepartureTime": "13:56",
          "HaltMinutes": "&nbsp;",
          "Day": 2,
          "Latitude": 29.938066,
          "Longitude": 75.810376,
          "stopNumberDisplay": "18.2",
          "Distance": "1688.2"
        },
        {
          "StationName": "Govindgarh Khokhar",
          "StationCode": "GGKR",
          "ArrivalTime": "14:01",
          "DepartureTime": "14:01",
          "HaltMinutes": "&nbsp;",
          "Day": 2,
          "Latitude": 29.992977,
          "Longitude": 75.808475,
          "stopNumberDisplay": "18.3",
          "Distance": "1694.4"
        },
        {
          "StationName": "Chhajli",
          "StationCode": "CJL",
          "ArrivalTime": "14:05",
          "DepartureTime": "14:05",
          "HaltMinutes": "&nbsp;",
          "Day": 2,
          "Latitude": 30.043292,
          "Longitude": 75.812647,
          "stopNumberDisplay": "18.4",
          "Distance": "1700.1"
        },
        {
          "StationName": "Sunam Udham Singh Wala",
          "StationCode": "SFM",
          "ArrivalTime": "14:13",
          "DepartureTime": "14:13",
          "HaltMinutes": "&nbsp;",
          "Day": 2,
          "Latitude": 30.129295,
          "Longitude": 75.808588,
          "stopNumberDisplay": "18.5",
          "Distance": "1709.8"
        },
        {
          "StationName": "Sunam Udham Singh Wala",
          "StationCode": "SFMU",
          "ArrivalTime": "14:13",
          "DepartureTime": "14:13",
          "HaltMinutes": "&nbsp;",
          "Day": 2,
          "Latitude": null,
          "Longitude": null,
          "stopNumberDisplay": "18.6",
          "Distance": "1709.8"
        },
        {
          "StationName": "Bharur",
          "StationCode": "BZ",
          "ArrivalTime": "14:17",
          "DepartureTime": "14:17",
          "HaltMinutes": "&nbsp;",
          "Day": 2,
          "Latitude": 30.179961,
          "Longitude": 75.819206,
          "stopNumberDisplay": "18.7",
          "Distance": "1715.5"
        }
      ],
      "TrainNo": 12439,
      "StationCode": "JHL",
      "RouteNo": 1,
      "StopNumber": 18,
      "TrainMappingKey": "991243918",
      "StationName": "JAKHAL JN",
      "ArrivalTime": "13:41",
      "DepartureTime": "13:43",
      "HaltMinutes": "02:00",
      "Distance": "1677",
      "HasWifi": false,
      "Day": 2,
      "DataChanged": false,
      "ExpectedPlatformNo": null,
      "arrivalDelay": "36 Min",
      "departureDelay": "36 Min",
      "Latitude": 29.802,
      "Longitude": 75.8245,
      "stopNumberDisplay": 18
    },
    {
      "intermediateStations": [
        {
          "StationName": "Bahadur Singh Wala",
          "StationCode": "BSS",
          "ArrivalTime": "14:36",
          "DepartureTime": "14:36",
          "HaltMinutes": "&nbsp;",
          "Day": 2,
          "Latitude": 30.308698,
          "Longitude": 75.854655,
          "stopNumberDisplay": "19.1",
          "Distance": "1730.3"
        }
      ],
      "TrainNo": 12439,
      "StationCode": "SAG",
      "RouteNo": 1,
      "StopNumber": 19,
      "TrainMappingKey": "991243919",
      "StationName": "SANGRUR",
      "ArrivalTime": "14:23",
      "DepartureTime": "14:25",
      "HaltMinutes": "02:00",
      "Distance": "1728",
      "HasWifi": false,
      "Day": 2,
      "DataChanged": false,
      "ExpectedPlatformNo": null,
      "arrivalDelay": "44 Min",
      "departureDelay": "44 Min",
      "Latitude": 30.241996,
      "Longitude": 75.83021,
      "stopNumberDisplay": 19
    },
    {
      "intermediateStations": [
        {
          "StationName": "Rajomajra",
          "StationCode": "RJMA",
          "ArrivalTime": "14:54",
          "DepartureTime": "14:54",
          "HaltMinutes": "&nbsp;",
          "Day": 2,
          "Latitude": 30.37505523,
          "Longitude": 75.80485849,
          "stopNumberDisplay": "20.1",
          "Distance": "1744.5"
        },
        {
          "StationName": "Alal",
          "StationCode": "ALAL",
          "ArrivalTime": "14:59",
          "DepartureTime": "14:59",
          "HaltMinutes": "&nbsp;",
          "Day": 2,
          "Latitude": 30.37735997,
          "Longitude": 75.73044329,
          "stopNumberDisplay": "20.2",
          "Distance": "1751.7"
        },
        {
          "StationName": "Sekha",
          "StationCode": "SEQ",
          "ArrivalTime": "15:04",
          "DepartureTime": "15:04",
          "HaltMinutes": "&nbsp;",
          "Day": 2,
          "Latitude": 30.37988681,
          "Longitude": 75.64361482,
          "stopNumberDisplay": "20.3",
          "Distance": "1760.0"
        }
      ],
      "TrainNo": 12439,
      "StationCode": "DUI",
      "RouteNo": 1,
      "StopNumber": 20,
      "TrainMappingKey": "991243920",
      "StationName": "DHURI JN",
      "ArrivalTime": "14:48",
      "DepartureTime": "14:50",
      "HaltMinutes": "02:00",
      "Distance": "1744",
      "HasWifi": false,
      "Day": 2,
      "DataChanged": false,
      "ExpectedPlatformNo": null,
      "arrivalDelay": "46 Min",
      "departureDelay": "46 Min",
      "Latitude": 30.373,
      "Longitude": 75.8662,
      "stopNumberDisplay": 20
    },
    {
      "intermediateStations": [
        {
          "StationName": "Hadiyaya",
          "StationCode": "HYA",
          "ArrivalTime": "15:17",
          "DepartureTime": "15:17",
          "HaltMinutes": "&nbsp;",
          "Day": 2,
          "Latitude": 30.34454226,
          "Longitude": 75.49497752,
          "stopNumberDisplay": "21.1",
          "Distance": "1775.3"
        },
        {
          "StationName": "Ghunas",
          "StationCode": "GUNS",
          "ArrivalTime": "15:23",
          "DepartureTime": "15:23",
          "HaltMinutes": "&nbsp;",
          "Day": 2,
          "Latitude": 30.31994722,
          "Longitude": 75.42071252,
          "stopNumberDisplay": "21.2",
          "Distance": "1782.9"
        },
        {
          "StationName": "Tapa",
          "StationCode": "TAPA",
          "ArrivalTime": "15:28",
          "DepartureTime": "15:28",
          "HaltMinutes": "&nbsp;",
          "Day": 2,
          "Latitude": 30.30342359,
          "Longitude": 75.36698251,
          "stopNumberDisplay": "21.3",
          "Distance": "1788.4"
        },
        {
          "StationName": "Jethuke",
          "StationCode": "JHK",
          "ArrivalTime": "15:32",
          "DepartureTime": "15:32",
          "HaltMinutes": "&nbsp;",
          "Day": 2,
          "Latitude": 30.2885277,
          "Longitude": 75.31874566,
          "stopNumberDisplay": "21.4",
          "Distance": "1793.3"
        }
      ],
      "TrainNo": 12439,
      "StationCode": "BNN",
      "RouteNo": 1,
      "StopNumber": 21,
      "TrainMappingKey": "991243921",
      "StationName": "BARNALA",
      "ArrivalTime": "15:10",
      "DepartureTime": "15:12",
      "HaltMinutes": "02:00",
      "Distance": "1774",
      "HasWifi": false,
      "Day": 2,
      "DataChanged": false,
      "ExpectedPlatformNo": null,
      "arrivalDelay": "01 Hr 11 Min",
      "departureDelay": "01 Hr 11 Min",
      "Latitude": 30.37098244,
      "Longitude": 75.54971604,
      "stopNumberDisplay": 21
    },
    {
      "intermediateStations": [
        {
          "StationName": "Lehra Muhabbat",
          "StationCode": "LHM",
          "ArrivalTime": "15:50",
          "DepartureTime": "15:50",
          "HaltMinutes": "&nbsp;",
          "Day": 2,
          "Latitude": 30.23774613,
          "Longitude": 75.16648202,
          "stopNumberDisplay": "22.1",
          "Distance": "1809.1"
        },
        {
          "StationName": "Laihra Khana",
          "StationCode": "LHK",
          "ArrivalTime": "15:54",
          "DepartureTime": "15:54",
          "HaltMinutes": "&nbsp;",
          "Day": 2,
          "Latitude": 30.22401763,
          "Longitude": 75.13491778,
          "stopNumberDisplay": "22.2",
          "Distance": "1812.5"
        },
        {
          "StationName": "Bhuchchu",
          "StationCode": "BCU",
          "ArrivalTime": "15:59",
          "DepartureTime": "15:59",
          "HaltMinutes": "&nbsp;",
          "Day": 2,
          "Latitude": 30.21008323,
          "Longitude": 75.09554296,
          "stopNumberDisplay": "22.3",
          "Distance": "1816.6"
        },
        {
          "StationName": "Bathinda Cantt Outer Cabin",
          "StationCode": "XX-BTICO",
          "ArrivalTime": "16:08",
          "DepartureTime": "16:08",
          "HaltMinutes": "&nbsp;",
          "Day": 2,
          "Latitude": null,
          "Longitude": null,
          "stopNumberDisplay": "22.4",
          "Distance": "1823.7"
        },
        {
          "StationName": "Bathinda Cantt",
          "StationCode": "BTIC",
          "ArrivalTime": "16:10",
          "DepartureTime": "16:10",
          "HaltMinutes": "&nbsp;",
          "Day": 2,
          "Latitude": 30.20056072,
          "Longitude": 75.02246885,
          "stopNumberDisplay": "22.5",
          "Distance": "1825.5"
        }
      ],
      "TrainNo": 12439,
      "StationCode": "PUL",
      "RouteNo": 1,
      "StopNumber": 22,
      "TrainMappingKey": "991243922",
      "StationName": "RAMPURA PHUL",
      "ArrivalTime": "15:39",
      "DepartureTime": "15:41",
      "HaltMinutes": "02:00",
      "Distance": "1807",
      "HasWifi": false,
      "Day": 2,
      "DataChanged": false,
      "ExpectedPlatformNo": null,
      "arrivalDelay": "22 Min",
      "departureDelay": "22 Min",
      "Latitude": 30.26884833,
      "Longitude": 75.23686318,
      "stopNumberDisplay": 22
    },
    {
      "intermediateStations": [
        {
          "StationName": "Bathinda Chord Cabin",
          "StationCode": "XX-BTIC",
          "ArrivalTime": "17:05",
          "DepartureTime": "17:05",
          "HaltMinutes": "&nbsp;",
          "Day": 2,
          "Latitude": 30.171053,
          "Longitude": 74.91161,
          "stopNumberDisplay": "23.1",
          "Distance": "1839.2"
        },