{
  "TrainName": "LEELAN EXP",
  "TrainNo": 12467,
  "TrainNumberString": null,
  "CoachPosition": "L SLR UR UR S6 S5 S4 S3 S2 S1 B3 B2 B1 UR UR SLR POK",
  "Classes": [
    "3A",
    "SL"
  ],
  "Schedule": [
    {
      "intermediateStations": [
        {
          "StationName": "Thaiyat Hamira Jn",
          "StationCode": "THM",
          "ArrivalTime": "00:43",
          "DepartureTime": "00:43",
          "HaltMinutes": "&nbsp;",
          "Day": 1,
          "Latitude": 26.99303,
          "Longitude": 71.07761,
          "stopNumberDisplay": "1.1",
          "Distance": "18.6"
        },
        {
          "StationName": "Jetha Chandan",
          "StationCode": "JCH",
          "ArrivalTime": "01:00",
          "DepartureTime": "01:00",
          "HaltMinutes": "&nbsp;",
          "Day": 1,
          "Latitude": 27.00055,
          "Longitude": 71.30799,
          "stopNumberDisplay": "1.2",
          "Distance": "41.9"
        },
        {
          "StationName": "Shri Bhadriya Lathi",
          "StationCode": "SBLT",
          "ArrivalTime": "01:15",
          "DepartureTime": "01:15",
          "HaltMinutes": "&nbsp;",
          "Day": 1,
          "Latitude": 27.03094,
          "Longitude": 71.51649,
          "stopNumberDisplay": "1.3",
          "Distance": "62.9"
        },
        {
          "StationName": "Odhaniya Chacha",
          "StationCode": "OCH",
          "ArrivalTime": "01:30",
          "DepartureTime": "01:30",
          "HaltMinutes": "&nbsp;",
          "Day": 1,
          "Latitude": 26.97105,
          "Longitude": 71.72358,
          "stopNumberDisplay": "1.4",
          "Distance": "84.5"
        },
        {
          "StationName": "Ashapura Gomat",
          "StationCode": "AQG",
          "ArrivalTime": "01:42",
          "DepartureTime": "01:42",
          "HaltMinutes": "&nbsp;",
          "Day": 1,
          "Latitude": 26.95072,
          "Longitude": 71.89315,
          "stopNumberDisplay": "1.5",
          "Distance": "101.8"
        },
        {
          "StationName": "Pokaran Cabin",
          "StationCode": "XX-POKC",
          "ArrivalTime": "01:43",
          "DepartureTime": "01:43",
          "HaltMinutes": "&nbsp;",
          "Day": 1,
          "Latitude": 26.949866,
          "Longitude": 71.900442,
          "stopNumberDisplay": "1.6",
          "Distance": "102.7"
        }
      ],
      "TrainNo": 12467,
      "StationCode": "JSM",
      "RouteNo": null,
      "StopNumber": 1,
      "TrainMappingKey": null,
      "StationName": "Jaisalmer",
      "ArrivalTime": "",
      "DepartureTime": "00:30",
      "HaltMinutes": "",
      "Distance": "0.0",
      "HasWifi": true,
      "Day": 1,
      "DataChanged": false,
      "ExpectedPlatformNo": "3",
      "arrivalDelay": "01 Min",
      "departureDelay": "01 Min",
      "Latitude": 26.91656,
      "Longitude": 70.92854,
      "stopNumberDisplay": 1
    },
    {
      "intermediateStations": [
        {
          "StationName": "Pokaran Cabin",
          "StationCode": "XX-POKC",
          "ArrivalTime": "02:02",
          "DepartureTime": "02:02",
          "HaltMinutes": "&nbsp;",
          "Day": 1,
          "Latitude": 26.949866,
          "Longitude": 71.900442,
          "stopNumberDisplay": "2.1",
          "Distance": "109.1"
        },
        {
          "StationName": "Pokaran Bypass Cabin",
          "StationCode": "YY-POKB",
          "ArrivalTime": "02:05",
          "DepartureTime": "02:05",
          "HaltMinutes": "&nbsp;",
          "Day": 1,
          "Latitude": 26.95643,
          "Longitude": 71.89964,
          "stopNumberDisplay": "2.2",
          "Distance": "109.8"
        }
      ],
      "TrainNo": 12467,
      "StationCode": "POK",
      "RouteNo": null,
      "StopNumber": 2,
      "TrainMappingKey": null,
      "StationName": "Pokaran",
      "ArrivalTime": "01:45",
      "DepartureTime": "01:50",
      "HaltMinutes": "5m",
      "Distance": "105.9",
      "HasWifi": false,
      "Day": 1,
      "DataChanged": false,
      "ExpectedPlatformNo": "1",
      "arrivalDelay": "14 Min",
      "departureDelay": "14 Min",
      "Latitude": 26.930944,
      "Longitude": 71.921689,
      "stopNumberDisplay": 2
    },
    {
      "intermediateStations": [
        {
          "StationName": "Marwar Khara",
          "StationCode": "MKHR",
          "ArrivalTime": "02:58",
          "DepartureTime": "02:58",
          "HaltMinutes": "&nbsp;",
          "Day": 1,
          "Latitude": 27.060264,
          "Longitude": 72.129698,
          "stopNumberDisplay": "3.1",
          "Distance": "137.0"
        },
        {
          "StationName": "Marwar Bithri",
          "StationCode": "MBT",
          "ArrivalTime": "03:17",
          "DepartureTime": "03:17",
          "HaltMinutes": "&nbsp;",
          "Day": 1,
          "Latitude": 27.097424,
          "Longitude": 72.280752,
          "stopNumberDisplay": "3.2",
          "Distance": "152.5"
        }
      ],
      "TrainNo": 12467,
      "StationCode": "RDRA",
      "RouteNo": null,
      "StopNumber": 3,
      "TrainMappingKey": null,
      "StationName": "Ramdevra",
      "ArrivalTime": "02:30",
      "DepartureTime": "02:33",
      "HaltMinutes": "3m",
      "Distance": "116.3",
      "HasWifi": false,
      "Day": 1,
      "DataChanged": false,
      "ExpectedPlatformNo": "1",
      "arrivalDelay": "23 Min",
      "departureDelay": "23 Min",
      "Latitude": 27.00677,
      "Longitude": 71.9302,
      "stopNumberDisplay": 3
    },
    {
      "intermediateStations": [
        {
          "StationName": "Phalodi Chord Cabin",
          "StationCode": "YY-PLCC",
          "ArrivalTime": "03:37",
          "DepartureTime": "03:37",
          "HaltMinutes": "&nbsp;",
          "Day": 1,
          "Latitude": 27.121805,
          "Longitude": 72.394954,
          "stopNumberDisplay": "4.1",
          "Distance": "166.3"
        },
        {
          "StationName": "Malar",
          "StationCode": "MAAR",
          "ArrivalTime": "03:44",
          "DepartureTime": "03:44",
          "HaltMinutes": "&nbsp;",
          "Day": 1,
          "Latitude": 27.20409,
          "Longitude": 72.3756,
          "stopNumberDisplay": "4.2",
          "Distance": "175.9"
        },
        {
          "StationName": "Bap",
          "StationCode": "BAF",
          "ArrivalTime": "03:59",
          "DepartureTime": "03:59",
          "HaltMinutes": "&nbsp;",
          "Day": 1,
          "Latitude": 27.3784,
          "Longitude": 72.3856,
          "stopNumberDisplay": "4.3",
          "Distance": "198.7"
        },
        {
          "StationName": "Sird",
          "StationCode": "SIRD",
          "ArrivalTime": "04:11",
          "DepartureTime": "04:11",
          "HaltMinutes": "&nbsp;",
          "Day": 1,
          "Latitude": 27.486466,
          "Longitude": 72.509322,
          "stopNumberDisplay": "4.4",
          "Distance": "216.2"
        },
        {
          "StationName": "Nokhra",
          "StationCode": "NKRA",
          "ArrivalTime": "04:25",
          "DepartureTime": "04:25",
          "HaltMinutes": "&nbsp;",
          "Day": 1,
          "Latitude": 27.60849,
          "Longitude": 72.665825,
          "stopNumberDisplay": "4.5",
          "Distance": "236.7"
        },
        {
          "StationName": "Diyatara Road",
          "StationCode": "DTRD",
          "ArrivalTime": "04:40",
          "DepartureTime": "04:40",
          "HaltMinutes": "&nbsp;",
          "Day": 1,
          "Latitude": 27.73334,
          "Longitude": 72.84012,
          "stopNumberDisplay": "4.6",
          "Distance": "258.9"
        }
      ],
      "TrainNo": 12467,
      "StationCode": "PLCJ",
      "RouteNo": null,
      "StopNumber": 4,
      "TrainMappingKey": null,
      "StationName": "Phalodi Jn",
      "ArrivalTime": "03:30",
      "DepartureTime": "03:35",
      "HaltMinutes": "5m",
      "Distance": "162.9",
      "HasWifi": false,
      "Day": 1,
      "DataChanged": false,
      "ExpectedPlatformNo": "1",
      "arrivalDelay": "25 Min",
      "departureDelay": "25 Min",
      "Latitude": 27.12558,
      "Longitude": 72.3666,
      "stopNumberDisplay": 4
    },
    {
      "intermediateStations": [
        {
          "StationName": "Channi Halt",
          "StationCode": "CHNH",
          "ArrivalTime": "04:59",
          "DepartureTime": "04:59",
          "HaltMinutes": "&nbsp;",
          "Day": 1,
          "Latitude": 27.87845,
          "Longitude": 73.00624,
          "stopNumberDisplay": "5.1",
          "Distance": "282.1"
        },
        {
          "StationName": "Gajner",
          "StationCode": "GJN",
          "ArrivalTime": "05:05",
          "DepartureTime": "05:05",
          "HaltMinutes": "&nbsp;",
          "Day": 1,
          "Latitude": 27.93566,
          "Longitude": 73.06153,
          "stopNumberDisplay": "5.2",
          "Distance": "290.5"
        },
        {
          "StationName": "Darbari",
          "StationCode": "DBK",
          "ArrivalTime": "05:10",
          "DepartureTime": "05:10",
          "HaltMinutes": "&nbsp;",
          "Day": 1,
          "Latitude": 27.96957,
          "Longitude": 73.10496,
          "stopNumberDisplay": "5.3",
          "Distance": "296.3"
        },
        {
          "StationName": "Nal Halt",
          "StationCode": "NAL",
          "ArrivalTime": "05:21",
          "DepartureTime": "05:21",
          "HaltMinutes": "&nbsp;",
          "Day": 1,
          "Latitude": 28.03803,
          "Longitude": 73.21653,
          "stopNumberDisplay": "5.4",
          "Distance": "310.3"
        },
        {
          "StationName": "Lalgarh Chord Cabin",
          "StationCode": "XX-LGHC",
          "ArrivalTime": "05:29",
          "DepartureTime": "05:29",
          "HaltMinutes": "&nbsp;",
          "Day": 1,
          "Latitude": 28.05298,
          "Longitude": 73.31448,
          "stopNumberDisplay": "5.5",
          "Distance": "320.1"
        }
      ],
      "TrainNo": 12467,
      "StationCode": "KLYT",
      "RouteNo": null,
      "StopNumber": 5,
      "TrainMappingKey": null,
      "StationName": "Kolayat",
      "ArrivalTime": "04:51",
      "DepartureTime": "04:53",
      "HaltMinutes": "2m",
      "Distance": "275.2",
      "HasWifi": false,
      "Day": 1,
      "DataChanged": false,
      "ExpectedPlatformNo": "3",
      "arrivalDelay": "26 Min",
      "departureDelay": "26 Min",
      "Latitude": 27.83549,
      "Longitude": 72.95498,
      "stopNumberDisplay": 5
    },
    {
      "intermediateStations": [],
      "TrainNo": 12467,
      "StationCode": "LGH",
      "RouteNo": null,
      "StopNumber": 6,
      "TrainMappingKey": null,
      "StationName": "Lalgarh Jn",
      "ArrivalTime": "05:30",
      "DepartureTime": "05:32",
      "HaltMinutes": "2m",
      "Distance": "321.3",
      "HasWifi": true,
      "Day": 1,
      "DataChanged": false,
      "ExpectedPlatformNo": "6",
      "arrivalDelay": "14 Min",
      "departureDelay": "14 Min",
      "Latitude": 28.0436,
      "Longitude": 73.31424,
      "stopNumberDisplay": 6
    },
    {
      "intermediateStations": [
        {
          "StationName": "Udramsar",
          "StationCode": "UMS",
          "ArrivalTime": "06:37",
          "DepartureTime": "06:37",
          "HaltMinutes": "&nbsp;",
          "Day": 1,
          "Latitude": 27.9059,
          "Longitude": 73.3271,
          "stopNumberDisplay": "7.1",
          "Distance": "336.5"
        },
        {
          "StationName": "Palana",
          "StationCode": "PAE",
          "ArrivalTime": "06:49",
          "DepartureTime": "06:49",
          "HaltMinutes": "&nbsp;",
          "Day": 1,
          "Latitude": 27.8473,
          "Longitude": 73.2731,
          "stopNumberDisplay": "7.2",
          "Distance": "347.3"
        }
      ],
      "TrainNo": 12467,
      "StationCode": "BKN",
      "RouteNo": null,
      "StopNumber": 7,
      "TrainMappingKey": null,
      "StationName": "Bikaner Jn",
      "ArrivalTime": "06:00",
      "DepartureTime": "06:25",
      "HaltMinutes": "25m",
      "Distance": "325.2",
      "HasWifi": true,
      "Day": 1,
      "DataChanged": false,
      "ExpectedPlatformNo": "1",
      "arrivalDelay": "18 Min",
      "departureDelay": "18 Min",
      "Latitude": 28.01443,
      "Longitude": 73.315963,
      "stopNumberDisplay": 7
    },
    {
      "intermediateStations": [
        {
          "StationName": "Surpura",
          "StationCode": "SPO",
          "ArrivalTime": "07:12",
          "DepartureTime": "07:12",
          "HaltMinutes": "&nbsp;",
          "Day": 1,
          "Latitude": 27.707441,
          "Longitude": 73.442714,
          "stopNumberDisplay": "8.1",
          "Distance": "372.0"
        }
      ],
      "TrainNo": 12467,
      "StationCode": "DSO",
      "RouteNo": null,
      "StopNumber": 8,
      "TrainMappingKey": null,
      "StationName": "Deshnoke",
      "ArrivalTime": "07:00",
      "DepartureTime": "07:02",
      "HaltMinutes": "2m",
      "Distance": "357.2",
      "HasWifi": false,
      "Day": 1,
      "DataChanged": false,
      "ExpectedPlatformNo": "1",
      "arrivalDelay": "16 Min",
      "departureDelay": "16 Min",
      "Latitude": 27.7909,
      "Longitude": 73.3383,
      "stopNumberDisplay": 8
    },
    {
      "intermediateStations": [
        {
          "StationName": "Chilo",
          "StationCode": "CLO",
          "ArrivalTime": "07:34",
          "DepartureTime": "07:34",
          "HaltMinutes": "&nbsp;",
          "Day": 1,
          "Latitude": 27.4445,
          "Longitude": 73.5253,
          "stopNumberDisplay": "9.1",
          "Distance": "403.0"
        },
        {
          "StationName": "Shri Balaji",
          "StationCode": "SBLJ",
          "ArrivalTime": "07:36",
          "DepartureTime": "07:36",
          "HaltMinutes": "&nbsp;",
          "Day": 1,
          "Latitude": 27.4169,
          "Longitude": 73.5377,
          "stopNumberDisplay": "9.2",
          "Distance": "406.6"
        },
        {
          "StationName": "Alai",
          "StationCode": "ALAI",
          "ArrivalTime": "07:42",
          "DepartureTime": "07:42",
          "HaltMinutes": "&nbsp;",
          "Day": 1,
          "Latitude": 27.3375,
          "Longitude": 73.5849,
          "stopNumberDisplay": "9.3",
          "Distance": "418.1"
        },
        {
          "StationName": "Badwasi",
          "StationCode": "BWS",
          "ArrivalTime": "07:47",
          "DepartureTime": "07:47",
          "HaltMinutes": "&nbsp;",
          "Day": 1,
          "Latitude": 27.3109,
          "Longitude": 73.6628,
          "stopNumberDisplay": "9.4",
          "Distance": "426.4"
        }
      ],
      "TrainNo": 12467,
      "StationCode": "NOK",
      "RouteNo": null,
      "StopNumber": 9,
      "TrainMappingKey": null,
      "StationName": "Nokha",
      "ArrivalTime": "07:24",
      "DepartureTime": "07:26",
      "HaltMinutes": "2m",
      "Distance": "389.3",
      "HasWifi": false,
      "Day": 1,
      "DataChanged": false,
      "ExpectedPlatformNo": "1",
      "arrivalDelay": "32 Min",
      "departureDelay": "32 Min",
      "Latitude": 27.5562,
      "Longitude": 73.4752,
      "stopNumberDisplay": 9
    },
    {
      "intermediateStations": [],
      "TrainNo": 12467,
      "StationCode": "NGO",
      "RouteNo": null,
      "StopNumber": 10,
      "TrainMappingKey": null,
      "StationName": "Nagaur",
      "ArrivalTime": "07:55",
      "DepartureTime": "08:00",
      "HaltMinutes": "5m",
      "Distance": "441.0",
      "HasWifi": false,
      "Day": 1,
      "DataChanged": false,
      "ExpectedPlatformNo": "1",
      "arrivalDelay": "29 Min",
      "departureDelay": "29 Min",
      "Latitude": 27.1995,
      "Longitude": 73.7236,
      "stopNumberDisplay": 10
    },
    {
      "intermediateStations": [
        {
          "StationName": "Khajwana",
          "StationCode": "KJW",
          "ArrivalTime": "08:46",
          "DepartureTime": "08:46",
          "HaltMinutes": "&nbsp;",
          "Day": 1,
          "Latitude": 26.9286,
          "Longitude": 73.86,
          "stopNumberDisplay": "11.1",
          "Distance": "475.0"
        },
        {
          "StationName": "Deswal",
          "StationCode": "DSL",
          "ArrivalTime": "08:56",
          "DepartureTime": "08:56",
          "HaltMinutes": "&nbsp;",
          "Day": 1,
          "Latitude": 26.8501,
          "Longitude": 73.8853,
          "stopNumberDisplay": "11.2",
          "Distance": "483.5"
        },
        {
          "StationName": "Marwar Chhapri",
          "StationCode": "MCPE",
          "ArrivalTime": "09:07",
          "DepartureTime": "09:07",
          "HaltMinutes": "&nbsp;",
          "Day": 1,
          "Latitude": 26.7835,
          "Longitude": 73.9074,
          "stopNumberDisplay": "11.3",
          "Distance": "491.6"
        },
        {
          "StationName": "Merta Road Bypass Cabin",
          "StationCode": "XX-MTDB",
          "ArrivalTime": "09:13",
          "DepartureTime": "09:13",
          "HaltMinutes": "&nbsp;",
          "Day": 1,
          "Latitude": 26.73763,
          "Longitude": 73.9227,
          "stopNumberDisplay": "11.4",
          "Distance": "496.5"
        }
      ],
      "TrainNo": 12467,
      "StationCode": "MDW",
      "RouteNo": null,
      "StopNumber": 11,
      "TrainMappingKey": null,
      "StationName": "Marwar Mundwa",
      "ArrivalTime": "08:23",
      "DepartureTime": "08:25",
      "HaltMinutes": "2m",
      "Distance": "458.7",
      "HasWifi": false,
      "Day": 1,
      "DataChanged": false,
      "ExpectedPlatformNo": "2",
      "arrivalDelay": "38 Min",
      "departureDelay": "38 Min",
      "Latitude": 27.0637,
      "Longitude": 73.8157,
      "stopNumberDisplay": 11
    },
    {
      "intermediateStations": [
        {
          "StationName": "Merta Road Chord Cabin",
          "StationCode": "XX-MTDC",
          "ArrivalTime": "09:21",
          "DepartureTime": "09:21",
          "HaltMinutes": "&nbsp;",
          "Day": 1,
          "Latitude": 26.730737,
          "Longitude": 73.928208,
          "stopNumberDisplay": "12.1",
          "Distance": "499.1"
        },
        {
          "StationName": "Kheduli",
          "StationCode": "KQW",
          "ArrivalTime": "09:29",
          "DepartureTime": "09:29",
          "HaltMinutes": "&nbsp;",
          "Day": 1,
          "Latitude": 26.758953,
          "Longitude": 74.014303,
          "stopNumberDisplay": "12.2",
          "Distance": "508.2"
        }
      ],
      "TrainNo": 12467,
      "StationCode": "MTD",
      "RouteNo": null,
      "StopNumber": 12,
      "TrainMappingKey": null,
      "StationName": "Merta Road Jn",
      "ArrivalTime": "09:15",
      "DepartureTime": "09:20",
      "HaltMinutes": "5m",
      "Distance": "498.0",
      "HasWifi": false,
      "Day": 1,
      "DataChanged": false,
      "ExpectedPlatformNo": "1",
      "arrivalDelay": "31 Min",
      "departureDelay": "31 Min",
      "Latitude": 26.7279,
      "Longitude": 73.9178,
      "stopNumberDisplay": 12
    },
    {
      "intermediateStations": [
        {
          "StationName": "Jalsu",
          "StationCode": "JAC",
          "ArrivalTime": "09:47",
          "DepartureTime": "09:47",
          "HaltMinutes": "&nbsp;",
          "Day": 1,
          "Latitude": 26.84659,
          "Longitude": 74.19913,
          "stopNumberDisplay": "13.1",
          "Distance": "529.1"
        },
        {
          "StationName": "Jalsu Nanak",
          "StationCode": "JACN",
          "ArrivalTime": "09:52",
          "DepartureTime": "09:52",
          "HaltMinutes": "&nbsp;",
          "Day": 1,
          "Latitude": 26.86835,
          "Longitude": 74.25021,
          "stopNumberDisplay": "13.2",
          "Distance": "534.7"
        }
      ],
      "TrainNo": 12467,
      "StationCode": "REN",
      "RouteNo": null,
      "StopNumber": 13,
      "TrainMappingKey": null,
      "StationName": "Ren",
      "ArrivalTime": "09:35",
      "DepartureTime": "09:37",
      "HaltMinutes": "2m",
      "Distance": "515.2",
      "HasWifi": false,
      "Day": 1,
      "DataChanged": false,
      "ExpectedPlatformNo": "3",
      "arrivalDelay": "-",
      "departureDelay": "-",
      "Latitude": 26.78914,
      "Longitude": 74.075161,
      "stopNumberDisplay": 13
    },
    {
      "intermediateStations": [],
      "TrainNo": 12467,
      "StationCode": "DNA",
      "RouteNo": null,
      "StopNumber": 14,
      "TrainMappingKey": null,
      "StationName": "Degana Jn",
      "ArrivalTime": "09:57",
      "DepartureTime": "10:00",
      "HaltMinutes": "3m",
      "Distance": "542.0",
      "HasWifi": false,
      "Day": 1,
      "DataChanged": false,
      "ExpectedPlatformNo": "1",
      "arrivalDelay": "29 Min",
      "departureDelay": "29 Min",
      "Latitude": 26.89697,
      "Longitude": 74.31631,
      "stopNumberDisplay": 14
    },
    {
      "intermediateStations": [
        {
          "StationName": "Besroli",
          "StationCode": "BSRL",
          "ArrivalTime": "10:21",
          "DepartureTime": "10:21",
          "HaltMinutes": "&nbsp;",
          "Day": 1,
          "Latitude": 26.991201,
          "Longitude": 74.56139,
          "stopNumberDisplay": "15.1",
          "Distance": "568.5"
        },
        {
          "StationName": "Borawar",
          "StationCode": "BOW",
          "ArrivalTime": "10:30",
          "DepartureTime": "10:30",
          "HaltMinutes": "&nbsp;",
          "Day": 1,
          "Latitude": 27.028597,
          "Longitude": 74.669875,
          "stopNumberDisplay": "15.2",
          "Distance": "580.0"
        }
      ],
      "TrainNo": 12467,
      "StationCode": "GCH",
      "RouteNo": null,
      "StopNumber": 15,
      "TrainMappingKey": null,
      "StationName": "Gachhipura",
      "ArrivalTime": "10:11",
      "DepartureTime": "10:13",
      "HaltMinutes": "2m",
      "Distance": "557.0",
      "HasWifi": false,
      "Day": 1,
      "DataChanged": false,
      "ExpectedPlatformNo": "1",
      "arrivalDelay": "32 Min",
      "departureDelay": "32 Min",
      "Latitude": 26.953476,
      "Longitude": 74.454214,
      "stopNumberDisplay": 15
    },
    {
      "intermediateStations": [],
      "TrainNo": 12467,
      "StationCode": "MKN",
      "RouteNo": null,
      "StopNumber": 16,
      "TrainMappingKey": null,
      "StationName": "Makrana Jn",
      "ArrivalTime": "10:34",
      "DepartureTime": "10:37",
      "HaltMinutes": "3m",
      "Distance": "585.7",
      "HasWifi": false,
      "Day": 1,
      "DataChanged": false,
      "ExpectedPlatformNo": "1",
      "arrivalDelay": "39 Min",
      "departureDelay": "39 Min",
      "Latitude": 27.03685,
      "Longitude": 74.72509,
      "stopNumberDisplay": 16
    },
    {
      "intermediateStations": [
        {
          "StationName": "Thathana Mithri",
          "StationCode": "THMR",
          "ArrivalTime": "11:03",
          "DepartureTime": "11:03",
          "HaltMinutes": "&nbsp;",
          "Day": 1,
          "Latitude": 27.054948,
          "Longitude": 74.898018,
          "stopNumberDisplay": "17.1",
          "Distance": "604.4"
        },
        {
          "StationName": "Naya Kharadia",
          "StationCode": "NYK",
          "ArrivalTime": "11:06",
          "DepartureTime": "11:06",
          "HaltMinutes": "&nbsp;",
          "Day": 1,
          "Latitude": 27.038318,
          "Longitude": 74.936908,
          "stopNumberDisplay": "17.2",
          "Distance": "608.8"
        },
        {
          "StationName": "Nawa City",
          "StationCode": "NAC",
          "ArrivalTime": "11:11",
          "DepartureTime": "11:11",
          "HaltMinutes": "&nbsp;",
          "Day": 1,
          "Latitude": 27.029342,
          "Longitude": 75.001022,
          "stopNumberDisplay": "17.3",
          "Distance": "615.3"
        },
        {
          "StationName": "Govindi Marwar",
          "StationCode": "GVMR",
          "ArrivalTime": "11:17",
          "DepartureTime": "11:17",
          "HaltMinutes": "&nbsp;",
          "Day": 1,
          "Latitude": 27.031306,
          "Longitude": 75.092969,
          "stopNumberDisplay": "17.4",
          "Distance": "624.5"
        },
        {
          "StationName": "Gudha",
          "StationCode": "GA",
          "ArrivalTime": "11:25",
          "DepartureTime": "11:25",
          "HaltMinutes": "&nbsp;",
          "Day": 1,
          "Latitude": 26.950327,
          "Longitude": 75.128623,
          "stopNumberDisplay": "17.5",
          "Distance": "635.1"
        }
      ],
      "TrainNo": 12467,
      "StationCode": "KMNC",
      "RouteNo": null,
      "StopNumber": 17,
      "TrainMappingKey": null,
      "StationName": "Kuchaman City",
      "ArrivalTime": "10:58",
      "DepartureTime": "11:00",
      "HaltMinutes": "2m",
      "Distance": "599.6",
      "HasWifi": false,
      "Day": 1,
      "DataChanged": false,
      "ExpectedPlatformNo": "1",
      "arrivalDelay": "18 Min",
      "departureDelay": "18 Min",
      "Latitude": 27.053291,
      "Longitude": 74.851552,
      "stopNumberDisplay": 17
    },
    {
      "intermediateStations": [],
      "TrainNo": 12467,
      "StationCode": "SBR",
      "RouteNo": null,
      "StopNumber": 18,
      "TrainMappingKey": null,
      "StationName": "Sambhar Lake",
      "ArrivalTime": "11:30",
      "DepartureTime": "11:32",
      "HaltMinutes": "2m",
      "Distance": "642.9",
      "HasWifi": false,
      "Day": 1,
      "DataChanged": false,
      "ExpectedPlatformNo": "1",
      "arrivalDelay": "07 Min",
      "departureDelay": "07 Min",
      "Latitude": 26.903875,
      "Longitude": 75.179754,
      "stopNumberDisplay": 18
    },
    {
      "intermediateStations": [
        {
          "StationName": "Hirnoda",
          "StationCode": "HDA",
          "ArrivalTime": "12:11",
          "DepartureTime": "12:11",
          "HaltMinutes": "&nbsp;",
          "Day": 1,
          "Latitude": 26.885932,
          "Longitude": 75.328363,
          "stopNumberDisplay": "19.1",
          "Distance": "658.8"
        },
        {
          "StationName": "Dhinda",
          "StationCode": "DHND",
          "ArrivalTime": "12:15",
          "DepartureTime": "12:15",
          "HaltMinutes": "&nbsp;",
          "Day": 1,
          "Latitude": 26.892288,
          "Longitude": 75.370359,
          "stopNumberDisplay": "19.2",
          "Distance": "663.0"
        },
        {
          "StationName": "Asalpur Jobner",
          "StationCode": "JOB",
          "ArrivalTime": "12:19",
          "DepartureTime": "12:19",
          "HaltMinutes": "&nbsp;",
          "Day": 1,
          "Latitude": 26.900363,
          "Longitude": 75.424313,
          "stopNumberDisplay": "19.3",
          "Distance": "668.4"
        },
        {
          "StationName": "Bobas",
          "StationCode": "BOBS",
          "ArrivalTime": "12:24",
          "DepartureTime": "12:24",
          "HaltMinutes": "&nbsp;",
          "Day": 1,
          "Latitude": 26.905813,
          "Longitude": 75.498634,
          "stopNumberDisplay": "19.4",
          "Distance": "675.9"
        },
        {
          "StationName": "Sheo Singh Pura",
          "StationCode": "SHNX",
          "ArrivalTime": "12:30",
          "DepartureTime": "12:30",
          "HaltMinutes": "&nbsp;",
          "Day": 1,
          "Latitude": 26.913813,
          "Longitude": 75.567797,
          "stopNumberDisplay": "19.5",
          "Distance": "682.8"
        },
        {
          "StationName": "Dhanakya",
          "StationCode": "DNK",
          "ArrivalTime": "12:33",
          "DepartureTime": "12:33",
          "HaltMinutes": "&nbsp;",
          "Day": 1,
          "Latitude": 26.918185,
          "Longitude": 75.605493,
          "stopNumberDisplay": "19.6",
          "Distance": "686.5"
        },
        {
          "StationName": "Bindayaka",
          "StationCode": "BDYK",
          "ArrivalTime": "12:36",
          "DepartureTime": "12:36",
          "HaltMinutes": "&nbsp;",
          "Day": 1,
          "Latitude": 26.923466,
          "Longitude": 75.651589,
          "stopNumberDisplay": "19.7",
          "Distance": "691.2"
        }
      ],
      "TrainNo": 12467,
      "StationCode": "FL",
      "RouteNo": null,
      "StopNumber": 19,
      "TrainMappingKey": null,
      "StationName": "Phulera Jn",
      "ArrivalTime": "12:03",
      "DepartureTime": "12:05",
      "HaltMinutes": "2m",
      "Distance": "650.5",
      "HasWifi": true,
      "Day": 1,
      "DataChanged": false,
      "ExpectedPlatformNo": "7",
      "arrivalDelay": "04 Min",
      "departureDelay": "04 Min",
      "Latitude": 26.87339,
      "Longitude": 75.24596,
      "stopNumberDisplay": 19
    },
    {
      "intermediateStations": [],
      "TrainNo": 12467,
      "StationCode": "KKU",
      "RouteNo": null,
      "StopNumber": 20,
      "TrainMappingKey": null,
      "StationName": "Kanakpura",
      "ArrivalTime": "12:40",
      "DepartureTime": "12:42",
      "HaltMinutes": "2m",
      "Distance": "696.3",
      "HasWifi": false,
      "Day": 1,
      "DataChanged": false,
      "ExpectedPlatformNo": null,
      "arrivalDelay": "-",
      "departureDelay": "-",
      "Latitude": 26.929406,
      "Longitude": 75.703172,
      "stopNumberDisplay": 20
    },
    {
      "intermediateStations": [],
      "TrainNo": 12467,
      "StationCode": "JP",
      "RouteNo": null,
      "StopNumber": 21,
      "TrainMappingKey": null,
      "StationName": "Jaipur Jn",
      "ArrivalTime": "13:15",
      "DepartureTime": "",
      "HaltMinutes": "",
      "Distance": "705.1",
      "HasWifi": true,
      "Day": 1,
      "DataChanged": false,
      "ExpectedPlatformNo": "7",
      "arrivalDelay": "-",
      "departureDelay": "-",
      "Latitude": 26.92028,
      "Longitude": 75.78683,
      "stopNumberDisplay": 21
    }
  ],
  "Source": "Jaisalmer",
  "Destination": "Jaipur Junction",
  "SourceCode": "JSM",
  "DestinationCode": "JP",
  "DaysOfRun": {
    "Sun": true,
    "Mon": true,
    "Tue": true,
    "Wed": true,
    "Thu": true,
    "Fri": true,
    "Sat": true
  },
  "FooterText": null,
  "TrainType": null,
  "IsUnreserved": false,
  "Rating": 4.3,
  "FoodRating": 3.9,
  "PunctualityRating": 4,
  "CleanlinessRating": 4,
  "RatingCount": 138,
  "TotalDuration": "12:45",
  "FromCity": "Jaisalmer",
  "ToCity": "Jaipur",
  "CacheTime": "2024-03-09T04:37:42.6605406+05:30",
  "HasPantry": false,
  "ErrorMsg": null
}