{
  "TrainName": "PUSHPAK EXPRESS",
  "TrainNo": 12534,
  "TrainNumberString": null,
  "CoachPosition": "L EOG H1 A2 A1 M9 M8 M7 M6 M5 M4 M3 M2 M1 PC S5 S4 S3 S2 S1 GS GS SLR",
  "Classes": [
    "1A",
    "2A",
    "3E",
    "SL"
  ],
  "Schedule": [
    {
      "intermediateStations": [
        {
          "StationName": "Mumbai CSM Trm",
          "StationCode": "CSTM",
          "ArrivalTime": "08:25",
          "DepartureTime": "08:25",
          "HaltMinutes": "&nbsp;",
          "Day": 1,
          "Latitude": null,
          "Longitude": null,
          "stopNumberDisplay": "1.1",
          "Distance": "0.0"
        },
        {
          "StationName": "Mumbai CSM Trm",
          "StationCode": "CSMT",
          "ArrivalTime": "08:25",
          "DepartureTime": "08:25",
          "HaltMinutes": "&nbsp;",
          "Day": 1,
          "Latitude": null,
          "Longitude": null,
          "stopNumberDisplay": "1.2",
          "Distance": "0.0"
        },
        {
          "StationName": "Masjid",
          "StationCode": "MSD",
          "ArrivalTime": "08:26",
          "DepartureTime": "08:26",
          "HaltMinutes": "&nbsp;",
          "Day": 1,
          "Latitude": 18.95195,
          "Longitude": 72.83834,
          "stopNumberDisplay": "1.3",
          "Distance": "1.3"
        },
        {
          "StationName": "Wadi Bunder Yard",
          "StationCode": "XX-WB",
          "ArrivalTime": "08:27",
          "DepartureTime": "08:27",
          "HaltMinutes": "&nbsp;",
          "Day": 1,
          "Latitude": null,
          "Longitude": null,
          "stopNumberDisplay": "1.4",
          "Distance": "2.2"
        },
        {
          "StationName": "Sandhurst Road",
          "StationCode": "SNRD",
          "ArrivalTime": "08:27",
          "DepartureTime": "08:27",
          "HaltMinutes": "&nbsp;",
          "Day": 1,
          "Latitude": 18.96182,
          "Longitude": 72.83949,
          "stopNumberDisplay": "1.5",
          "Distance": "2.4"
        },
        {
          "StationName": "Dockyard Road",
          "StationCode": "DKRD",
          "ArrivalTime": "08:28",
          "DepartureTime": "08:28",
          "HaltMinutes": "&nbsp;",
          "Day": 1,
          "Latitude": 18.9663,
          "Longitude": 72.84422,
          "stopNumberDisplay": "1.6",
          "Distance": "3.0"
        },
        {
          "StationName": "Reay Road",
          "StationCode": "RRD",
          "ArrivalTime": "08:29",
          "DepartureTime": "08:29",
          "HaltMinutes": "&nbsp;",
          "Day": 1,
          "Latitude": 18.97628,
          "Longitude": 72.84449,
          "stopNumberDisplay": "1.7",
          "Distance": "4.1"
        },
        {
          "StationName": "Cotton Green",
          "StationCode": "CTGN",
          "ArrivalTime": "08:30",
          "DepartureTime": "08:30",
          "HaltMinutes": "&nbsp;",
          "Day": 1,
          "Latitude": 18.98649,
          "Longitude": 72.84326,
          "stopNumberDisplay": "1.8",
          "Distance": "5.2"
        },
        {
          "StationName": "Sewri",
          "StationCode": "SVE",
          "ArrivalTime": "08:31",
          "DepartureTime": "08:31",
          "HaltMinutes": "&nbsp;",
          "Day": 1,
          "Latitude": 18.99762,
          "Longitude": 72.85399,
          "stopNumberDisplay": "1.9",
          "Distance": "6.9"
        },
        {
          "StationName": "Vadala Road",
          "StationCode": "VDLR",
          "ArrivalTime": "08:33",
          "DepartureTime": "08:33",
          "HaltMinutes": "&nbsp;",
          "Day": 1,
          "Latitude": 19.01599,
          "Longitude": 72.85889,
          "stopNumberDisplay": "1.10",
          "Distance": "9.1"
        },
        {
          "StationName": "Ravli Jn",
          "StationCode": "RVJ",
          "ArrivalTime": "08:34",
          "DepartureTime": "08:34",
          "HaltMinutes": "&nbsp;",
          "Day": 1,
          "Latitude": 19.02399,
          "Longitude": 72.86091,
          "stopNumberDisplay": "1.11",
          "Distance": "10.1"
        },
        {
          "StationName": "Guru Tegh Bahadur Nagar",
          "StationCode": "GTBN",
          "ArrivalTime": "08:36",
          "DepartureTime": "08:36",
          "HaltMinutes": "&nbsp;",
          "Day": 1,
          "Latitude": 19.037815,
          "Longitude": 72.864071,
          "stopNumberDisplay": "1.12",
          "Distance": "11.7"
        },
        {
          "StationName": "Chunabhatti",
          "StationCode": "CHF",
          "ArrivalTime": "08:37",
          "DepartureTime": "08:37",
          "HaltMinutes": "&nbsp;",
          "Day": 1,
          "Latitude": 19.051546,
          "Longitude": 72.868994,
          "stopNumberDisplay": "1.13",
          "Distance": "13.4"
        },
        {
          "StationName": "Kurla Jn",
          "StationCode": "CLA",
          "ArrivalTime": "08:39",
          "DepartureTime": "08:39",
          "HaltMinutes": "&nbsp;",
          "Day": 1,
          "Latitude": 19.06516,
          "Longitude": 72.8794,
          "stopNumberDisplay": "1.14",
          "Distance": "15.4"
        },
        {
          "StationName": "Kurla EMU Carshed",
          "StationCode": "CLAS",
          "ArrivalTime": "08:41",
          "DepartureTime": "08:41",
          "HaltMinutes": "&nbsp;",
          "Day": 1,
          "Latitude": null,
          "Longitude": null,
          "stopNumberDisplay": "1.15",
          "Distance": "17.0"
        },
        {
          "StationName": "Vidyavihar",
          "StationCode": "VVH",
          "ArrivalTime": "08:41",
          "DepartureTime": "08:41",
          "HaltMinutes": "&nbsp;",
          "Day": 1,
          "Latitude": 19.07964,
          "Longitude": 72.89761,
          "stopNumberDisplay": "1.16",
          "Distance": "17.9"
        },
        {
          "StationName": "Ghatkopar",
          "StationCode": "GC",
          "ArrivalTime": "08:43",
          "DepartureTime": "08:43",
          "HaltMinutes": "&nbsp;",
          "Day": 1,
          "Latitude": 19.0856,
          "Longitude": 72.90812,
          "stopNumberDisplay": "1.17",
          "Distance": "19.1"
        },
        {
          "StationName": "Vikhroli",
          "StationCode": "VK",
          "ArrivalTime": "08:46",
          "DepartureTime": "08:46",
          "HaltMinutes": "&nbsp;",
          "Day": 1,
          "Latitude": 19.11194,
          "Longitude": 72.92847,
          "stopNumberDisplay": "1.18",
          "Distance": "22.9"
        },
        {
          "StationName": "Kanjur Marg",
          "StationCode": "KJRD",
          "ArrivalTime": "08:48",
          "DepartureTime": "08:48",
          "HaltMinutes": "&nbsp;",
          "Day": 1,
          "Latitude": null,
          "Longitude": null,
          "stopNumberDisplay": "1.19",
          "Distance": "24.7"
        },
        {
          "StationName": "Bhandup",
          "StationCode": "BND",
          "ArrivalTime": "08:49",
          "DepartureTime": "08:49",
          "HaltMinutes": "&nbsp;",
          "Day": 1,
          "Latitude": 19.14228,
          "Longitude": 72.93779,
          "stopNumberDisplay": "1.20",
          "Distance": "26.6"
        },
        {
          "StationName": "Nahur",
          "StationCode": "NHU",
          "ArrivalTime": "08:51",
          "DepartureTime": "08:51",
          "HaltMinutes": "&nbsp;",
          "Day": 1,
          "Latitude": 19.15452,
          "Longitude": 72.94683,
          "stopNumberDisplay": "1.21",
          "Distance": "28.2"
        },
        {
          "StationName": "Mulund Depot",
          "StationCode": "CRNM",
          "ArrivalTime": "08:52",
          "DepartureTime": "08:52",
          "HaltMinutes": "&nbsp;",
          "Day": 1,
          "Latitude": 19.1638,
          "Longitude": 72.95099,
          "stopNumberDisplay": "1.22",
          "Distance": "29.3"
        },
        {
          "StationName": "Mulund",
          "StationCode": "MLND",
          "ArrivalTime": "08:53",
          "DepartureTime": "08:53",
          "HaltMinutes": "&nbsp;",
          "Day": 1,
          "Latitude": 19.17173,
          "Longitude": 72.95663,
          "stopNumberDisplay": "1.23",
          "Distance": "30.4"
        },
        {
          "StationName": "Thane",
          "StationCode": "TNA",
          "ArrivalTime": "08:55",
          "DepartureTime": "08:55",
          "HaltMinutes": "&nbsp;",
          "Day": 1,
          "Latitude": 19.18586,
          "Longitude": 72.97627,
          "stopNumberDisplay": "1.24",
          "Distance": "33.1"
        },
        {
          "StationName": "Thane B Cabin",
          "StationCode": "XX-TNAB",
          "ArrivalTime": "08:58",
          "DepartureTime": "08:58",
          "HaltMinutes": "&nbsp;",
          "Day": 1,
          "Latitude": 19.19128,
          "Longitude": 72.99957,
          "stopNumberDisplay": "1.25",
          "Distance": "35.7"
        },
        {
          "StationName": "Parsik Tunnel",
          "StationCode": "YY-PSKT",
          "ArrivalTime": "08:59",
          "DepartureTime": "08:59",
          "HaltMinutes": "&nbsp;",
          "Day": 1,
          "Latitude": null,
          "Longitude": null,
          "stopNumberDisplay": "1.26",
          "Distance": "36.6"
        },
        {
          "StationName": "Diva Jn",
          "StationCode": "DIVA",
          "ArrivalTime": "09:02",
          "DepartureTime": "09:02",
          "HaltMinutes": "&nbsp;",
          "Day": 1,
          "Latitude": 19.18884,
          "Longitude": 73.04291,
          "stopNumberDisplay": "1.27",
          "Distance": "40.3"
        },
        {
          "StationName": "Diva Jn Cabin",
          "StationCode": "DWJN",
          "ArrivalTime": "09:04",
          "DepartureTime": "09:04",
          "HaltMinutes": "&nbsp;",
          "Day": 1,
          "Latitude": 19.1959,
          "Longitude": 73.0577,
          "stopNumberDisplay": "1.28",
          "Distance": "42.1"
        },
        {
          "StationName": "Kopar",
          "StationCode": "KOPR",
          "ArrivalTime": "09:06",
          "DepartureTime": "09:06",
          "HaltMinutes": "&nbsp;",
          "Day": 1,
          "Latitude": 19.212961,
          "Longitude": 73.078853,
          "stopNumberDisplay": "1.29",
          "Distance": "44.8"
        },
        {
          "StationName": "Dombivli Control Cabin",
          "StationCode": "DDCL",
          "ArrivalTime": "09:06",
          "DepartureTime": "09:06",
          "HaltMinutes": "&nbsp;",
          "Day": 1,
          "Latitude": null,
          "Longitude": null,
          "stopNumberDisplay": "1.30",
          "Distance": "45.1"
        },
        {
          "StationName": "Dombivli",
          "StationCode": "DI",
          "ArrivalTime": "09:07",
          "DepartureTime": "09:07",
          "HaltMinutes": "&nbsp;",
          "Day": 1,
          "Latitude": 19.21812,
          "Longitude": 73.08689,
          "stopNumberDisplay": "1.31",
          "Distance": "46.1"
        },
        {
          "StationName": "Thakurli",
          "StationCode": "THK",
          "ArrivalTime": "09:09",
          "DepartureTime": "09:09",
          "HaltMinutes": "&nbsp;",
          "Day": 1,
          "Latitude": 19.22616,
          "Longitude": 73.0981,
          "stopNumberDisplay": "1.32",
          "Distance": "47.6"
        },
        {
          "StationName": "Kalyan Jn Yard",
          "StationCode": "KYNX",
          "ArrivalTime": "09:11",
          "DepartureTime": "09:11",
          "HaltMinutes": "&nbsp;",
          "Day": 1,
          "Latitude": 19.23293,
          "Longitude": 73.12379,
          "stopNumberDisplay": "1.33",
          "Distance": "50.4"
        }
      ],
      "TrainNo": 12534,
      "StationCode": "CSMT",
      "RouteNo": null,
      "StopNumber": 1,
      "TrainMappingKey": null,
      "StationName": "Mumbai CSM Trm",
      "ArrivalTime": "",
      "DepartureTime": "08:25",
      "HaltMinutes": "",
      "Distance": "0.0",
      "HasWifi": false,
      "Day": 1,
      "DataChanged": false,
      "ExpectedPlatformNo": "17",
      "arrivalDelay": "06 Min",
      "departureDelay": "06 Min",
      "Latitude": null,
      "Longitude": null,
      "stopNumberDisplay": 1
    },
    {
      "intermediateStations": [
        {
          "StationName": "Shahad",
          "StationCode": "SHAD",
          "ArrivalTime": "09:19",
          "DepartureTime": "09:19",
          "HaltMinutes": "&nbsp;",
          "Day": 1,
          "Latitude": 19.24421,
          "Longitude": 73.15855,
          "stopNumberDisplay": "2.1",
          "Distance": "54.3"
        },
        {
          "StationName": "Ambivli",
          "StationCode": "ABY",
          "ArrivalTime": "09:22",
          "DepartureTime": "09:22",
          "HaltMinutes": "&nbsp;",
          "Day": 1,
          "Latitude": 19.26763,
          "Longitude": 73.17203,
          "stopNumberDisplay": "2.2",
          "Distance": "57.3"
        },
        {
          "StationName": "Titvala",
          "StationCode": "TLA",
          "ArrivalTime": "09:28",
          "DepartureTime": "09:28",
          "HaltMinutes": "&nbsp;",
          "Day": 1,
          "Latitude": 19.29672,
          "Longitude": 73.20344,
          "stopNumberDisplay": "2.3",
          "Distance": "62.1"
        },
        {
          "StationName": "Khadavli",
          "StationCode": "KDV",
          "ArrivalTime": "09:37",
          "DepartureTime": "09:37",
          "HaltMinutes": "&nbsp;",
          "Day": 1,
          "Latitude": 19.35657,
          "Longitude": 73.21907,
          "stopNumberDisplay": "2.4",
          "Distance": "69.7"
        },
        {
          "StationName": "Vasind",
          "StationCode": "VSD",
          "ArrivalTime": "09:46",
          "DepartureTime": "09:46",
          "HaltMinutes": "&nbsp;",
          "Day": 1,
          "Latitude": 19.40637,
          "Longitude": 73.2673,
          "stopNumberDisplay": "2.5",
          "Distance": "77.3"
        },
        {
          "StationName": "Asangaon",
          "StationCode": "ASO",
          "ArrivalTime": "09:53",
          "DepartureTime": "09:53",
          "HaltMinutes": "&nbsp;",
          "Day": 1,
          "Latitude": 19.43921,
          "Longitude": 73.30781,
          "stopNumberDisplay": "2.6",
          "Distance": "83.2"
        },
        {
          "StationName": "Atgaon",
          "StationCode": "ATG",
          "ArrivalTime": "10:05",
          "DepartureTime": "10:05",
          "HaltMinutes": "&nbsp;",
          "Day": 1,
          "Latitude": 19.50446,
          "Longitude": 73.32816,
          "stopNumberDisplay": "2.7",
          "Distance": "93.1"
        },
        {
          "StationName": "Thansit",
          "StationCode": "THS",
          "ArrivalTime": "10:12",
          "DepartureTime": "10:12",
          "HaltMinutes": "&nbsp;",
          "Day": 1,
          "Latitude": 19.55008,
          "Longitude": 73.35176,
          "stopNumberDisplay": "2.8",
          "Distance": "98.9"
        },
        {
          "StationName": "Khardi",
          "StationCode": "KE",
          "ArrivalTime": "10:19",
          "DepartureTime": "10:19",
          "HaltMinutes": "&nbsp;",
          "Day": 1,
          "Latitude": 19.58017,
          "Longitude": 73.39407,
          "stopNumberDisplay": "2.9",
          "Distance": "105.1"
        },
        {
          "StationName": "Oombermali",
          "StationCode": "OMB",
          "ArrivalTime": "10:27",
          "DepartureTime": "10:27",
          "HaltMinutes": "&nbsp;",
          "Day": 1,
          "Latitude": 19.62835,
          "Longitude": 73.42296,
          "stopNumberDisplay": "2.10",
          "Distance": "111.7"
        },
        {
          "StationName": "Kasara",
          "StationCode": "KSRA",
          "ArrivalTime": "10:35",
          "DepartureTime": "10:35",
          "HaltMinutes": "&nbsp;",
          "Day": 1,
          "Latitude": 19.6483438,
          "Longitude": 73.4730793,
          "stopNumberDisplay": "2.11",
          "Distance": "118.6"
        },
        {
          "StationName": "Block Catch Siding Cabin 3",
          "StationCode": "TGR3",
          "ArrivalTime": "10:39",
          "DepartureTime": "10:39",
          "HaltMinutes": "&nbsp;",
          "Day": 1,
          "Latitude": 19.67489,
          "Longitude": 73.48647,
          "stopNumberDisplay": "2.12",
          "Distance": "122.2"
        },
        {
          "StationName": "Block Catch Siding Cabin 2",
          "StationCode": "TGR2",
          "ArrivalTime": "10:44",
          "DepartureTime": "10:44",
          "HaltMinutes": "&nbsp;",
          "Day": 1,
          "Latitude": 19.70149,
          "Longitude": 73.5001,
          "stopNumberDisplay": "2.13",
          "Distance": "125.8"
        },
        {
          "StationName": "Block Catch Siding Cabin 1",
          "StationCode": "TGR1",
          "ArrivalTime": "10:46",
          "DepartureTime": "10:46",
          "HaltMinutes": "&nbsp;",
          "Day": 1,
          "Latitude": 19.70036,
          "Longitude": 73.51931,
          "stopNumberDisplay": "2.14",
          "Distance": "128.0"
        }
      ],
      "TrainNo": 12534,
      "StationCode": "KYN",
      "RouteNo": null,
      "StopNumber": 2,
      "TrainMappingKey": null,
      "StationName": "Kalyan Jn",
      "ArrivalTime": "09:12",
      "DepartureTime": "09:15",
      "HaltMinutes": "3m",
      "Distance": "51.2",
      "HasWifi": false,
      "Day": 1,
      "DataChanged": false,
      "ExpectedPlatformNo": "3",
      "arrivalDelay": "16 Min",
      "departureDelay": "16 Min",
      "Latitude": 19.23506,
      "Longitude": 73.13023,
      "stopNumberDisplay": 2
    },
    {
      "intermediateStations": [
        {
          "StationName": "Igatpuri Yard",
          "StationCode": "IGPX",
          "ArrivalTime": "10:58",
          "DepartureTime": "10:58",
          "HaltMinutes": "&nbsp;",
          "Day": 1,
          "Latitude": 19.69236,
          "Longitude": 73.57575,
          "stopNumberDisplay": "3.1",
          "Distance": "134.3"
        },
        {
          "StationName": "Ghoti",
          "StationCode": "GO",
          "ArrivalTime": "11:03",
          "DepartureTime": "11:03",
          "HaltMinutes": "&nbsp;",
          "Day": 1,
          "Latitude": 19.71443,
          "Longitude": 73.63285,
          "stopNumberDisplay": "3.2",
          "Distance": "140.9"
        },
        {
          "StationName": "Padli",
          "StationCode": "PI",
          "ArrivalTime": "11:10",
          "DepartureTime": "11:10",
          "HaltMinutes": "&nbsp;",
          "Day": 1,
          "Latitude": 19.78128,
          "Longitude": 73.66216,
          "stopNumberDisplay": "3.3",
          "Distance": "149.2"
        },
        {
          "StationName": "Asvali",
          "StationCode": "AV",
          "ArrivalTime": "11:17",
          "DepartureTime": "11:17",
          "HaltMinutes": "&nbsp;",
          "Day": 1,
          "Latitude": 19.8228,
          "Longitude": 73.71316,
          "stopNumberDisplay": "3.4",
          "Distance": "157.7"
        },
        {
          "StationName": "Lahavit",
          "StationCode": "LT",
          "ArrivalTime": "11:24",
          "DepartureTime": "11:24",
          "HaltMinutes": "&nbsp;",
          "Day": 1,
          "Latitude": 19.84899,
          "Longitude": 73.79859,
          "stopNumberDisplay": "3.5",
          "Distance": "166.5"
        },
        {
          "StationName": "Devlali",
          "StationCode": "DVL",
          "ArrivalTime": "11:33",
          "DepartureTime": "11:33",
          "HaltMinutes": "&nbsp;",
          "Day": 1,
          "Latitude": 19.89685,
          "Longitude": 73.83696,
          "stopNumberDisplay": "3.6",
          "Distance": "177.7"
        }
      ],
      "TrainNo": 12534,
      "StationCode": "IGP",
      "RouteNo": null,
      "StopNumber": 3,
      "TrainMappingKey": null,
      "StationName": "Igatpuri",
      "ArrivalTime": "10:52",
      "DepartureTime": "10:57",
      "HaltMinutes": "5m",
      "Distance": "132.8",
      "HasWifi": false,
      "Day": 1,
      "DataChanged": false,
      "ExpectedPlatformNo": "1",
      "arrivalDelay": "07 Min",
      "departureDelay": "07 Min",
      "Latitude": 19.69372,
      "Longitude": 73.56316,
      "stopNumberDisplay": 3
    },
    {
      "intermediateStations": [
        {
          "StationName": "Odha",
          "StationCode": "ODHA",
          "ArrivalTime": "11:49",
          "DepartureTime": "11:49",
          "HaltMinutes": "&nbsp;",
          "Day": 1,
          "Latitude": 20.0177,
          "Longitude": 73.91355,
          "stopNumberDisplay": "4.1",
          "Distance": "195.1"
        },
        {
          "StationName": "Khervadi",
          "StationCode": "KW",
          "ArrivalTime": "11:55",
          "DepartureTime": "11:55",
          "HaltMinutes": "&nbsp;",
          "Day": 1,
          "Latitude": 20.04625,
          "Longitude": 73.97342,
          "stopNumberDisplay": "4.2",
          "Distance": "202.2"
        },
        {
          "StationName": "Kasbe Sukene",
          "StationCode": "KBSN",
          "ArrivalTime": "12:00",
          "DepartureTime": "12:00",
          "HaltMinutes": "&nbsp;",
          "Day": 1,
          "Latitude": 20.07407,
          "Longitude": 74.03115,
          "stopNumberDisplay": "4.3",
          "Distance": "208.8"
        },
        {
          "StationName": "Niphad",
          "StationCode": "NR",
          "ArrivalTime": "12:05",
          "DepartureTime": "12:05",
          "HaltMinutes": "&nbsp;",
          "Day": 1,
          "Latitude": 20.09672,
          "Longitude": 74.07969,
          "stopNumberDisplay": "4.4",
          "Distance": "214.9"
        },
        {
          "StationName": "Ugaon",
          "StationCode": "UGN",
          "ArrivalTime": "12:11",
          "DepartureTime": "12:11",
          "HaltMinutes": "&nbsp;",
          "Day": 1,
          "Latitude": 20.12323,
          "Longitude": 74.13925,
          "stopNumberDisplay": "4.5",
          "Distance": "221.8"
        },
        {
          "StationName": "Lasalgaon",
          "StationCode": "LS",
          "ArrivalTime": "12:18",
          "DepartureTime": "12:18",
          "HaltMinutes": "&nbsp;",
          "Day": 1,
          "Latitude": 20.1549,
          "Longitude": 74.22586,
          "stopNumberDisplay": "4.6",
          "Distance": "231.7"
        },
        {
          "StationName": "Summit",
          "StationCode": "SUM",
          "ArrivalTime": "12:29",
          "DepartureTime": "12:29",
          "HaltMinutes": "&nbsp;",
          "Day": 1,
          "Latitude": 20.20403,
          "Longitude": 74.32965,
          "stopNumberDisplay": "4.7",
          "Distance": "245.4"
        },
        {
          "StationName": "Manmad Goods Yard",
          "StationCode": "YY-MMRX",
          "ArrivalTime": "12:38",
          "DepartureTime": "12:38",
          "HaltMinutes": "&nbsp;",
          "Day": 1,
          "Latitude": null,
          "Longitude": null,
          "stopNumberDisplay": "4.8",
          "Distance": "256.0"
        }
      ],
      "TrainNo": 12534,
      "StationCode": "NK",
      "RouteNo": null,
      "StopNumber": 4,
      "TrainMappingKey": null,
      "StationName": "Nashik Road",
      "ArrivalTime": "11:37",
      "DepartureTime": "11:40",
      "HaltMinutes": "3m",
      "Distance": "183.3",
      "HasWifi": true,
      "Day": 1,
      "DataChanged": false,
      "ExpectedPlatformNo": "2",
      "arrivalDelay": "08 Min",
      "departureDelay": "08 Min",
      "Latitude": 19.94793,
      "Longitude": 73.84263,
      "stopNumberDisplay": 4
    },
    {
      "intermediateStations": [
        {
          "StationName": "Panevadi",
          "StationCode": "PNV",
          "ArrivalTime": "12:44",
          "DepartureTime": "12:44",
          "HaltMinutes": "&nbsp;",
          "Day": 1,
          "Latitude": 20.26298,
          "Longitude": 74.48538,
          "stopNumberDisplay": "5.1",
          "Distance": "261.5"
        },
        {
          "StationName": "Hisvahal",
          "StationCode": "HSL",
          "ArrivalTime": "12:50",
          "DepartureTime": "12:50",
          "HaltMinutes": "&nbsp;",
          "Day": 1,
          "Latitude": 20.28134,
          "Longitude": 74.56039,
          "stopNumberDisplay": "5.2",
          "Distance": "269.7"
        },
        {
          "StationName": "Panjhan",
          "StationCode": "PJN",
          "ArrivalTime": "12:54",
          "DepartureTime": "12:54",
          "HaltMinutes": "&nbsp;",
          "Day": 1,
          "Latitude": 20.27515,
          "Longitude": 74.61106,
          "stopNumberDisplay": "5.3",
          "Distance": "275.1"
        },
        {
          "StationName": "Nandgaon",
          "StationCode": "NGN",
          "ArrivalTime": "12:59",
          "DepartureTime": "12:59",
          "HaltMinutes": "&nbsp;",
          "Day": 1,
          "Latitude": 20.30934,
          "Longitude": 74.66037,
          "stopNumberDisplay": "5.4",
          "Distance": "281.7"
        },
        {
          "StationName": "Nandgaon Yard Cabin",
          "StationCode": "NGNX",
          "ArrivalTime": "13:00",
          "DepartureTime": "13:00",
          "HaltMinutes": "&nbsp;",
          "Day": 1,
          "Latitude": 20.314374,
          "Longitude": 74.666008,
          "stopNumberDisplay": "5.5",
          "Distance": "282.5"
        },
        {
          "StationName": "Pimpar Khed",
          "StationCode": "PKE",
          "ArrivalTime": "13:07",
          "DepartureTime": "13:07",
          "HaltMinutes": "&nbsp;",
          "Day": 1,
          "Latitude": 20.30763,
          "Longitude": 74.75621,
          "stopNumberDisplay": "5.6",
          "Distance": "292.4"
        },
        {
          "StationName": "Naydongri",
          "StationCode": "NI",
          "ArrivalTime": "13:15",
          "DepartureTime": "13:15",
          "HaltMinutes": "&nbsp;",
          "Day": 1,
          "Latitude": 20.34866,
          "Longitude": 74.8369,
          "stopNumberDisplay": "5.7",
          "Distance": "302.2"
        },
        {
          "StationName": "Rohini",
          "StationCode": "RHNE",
          "ArrivalTime": "13:18",
          "DepartureTime": "13:18",
          "HaltMinutes": "&nbsp;",
          "Day": 1,
          "Latitude": 20.3713,
          "Longitude": 74.87458,
          "stopNumberDisplay": "5.8",
          "Distance": "306.9"
        },
        {
          "StationName": "Hirapur",
          "StationCode": "HPR",
          "ArrivalTime": "13:25",
          "DepartureTime": "13:25",
          "HaltMinutes": "&nbsp;",
          "Day": 1,
          "Latitude": 20.42443,
          "Longitude": 74.93673,
          "stopNumberDisplay": "5.9",
          "Distance": "315.9"
        },
        {
          "StationName": "Chalisgaon Jn",
          "StationCode": "CSN",
          "ArrivalTime": "13:31",
          "DepartureTime": "13:31",
          "HaltMinutes": "&nbsp;",
          "Day": 1,
          "Latitude": 20.46376,
          "Longitude": 74.99902,
          "stopNumberDisplay": "5.10",
          "Distance": "323.7"
        },
        {
          "StationName": "Vaghli",
          "StationCode": "VGL",
          "ArrivalTime": "13:38",
          "DepartureTime": "13:38",
          "HaltMinutes": "&nbsp;",
          "Day": 1,
          "Latitude": 20.51784,
          "Longitude": 75.06819,
          "stopNumberDisplay": "5.11",
          "Distance": "333.1"
        },
        {
          "StationName": "Kajgaon",
          "StationCode": "KJ",
          "ArrivalTime": "13:46",
          "DepartureTime": "13:46",
          "HaltMinutes": "&nbsp;",
          "Day": 1,
          "Latitude": 20.57347,
          "Longitude": 75.14063,
          "stopNumberDisplay": "5.12",
          "Distance": "342.8"
        },
        {
          "StationName": "Nagardevla",
          "StationCode": "NGD",
          "ArrivalTime": "13:51",
          "DepartureTime": "13:51",
          "HaltMinutes": "&nbsp;",
          "Day": 1,
          "Latitude": 20.60325,
          "Longitude": 75.19853,
          "stopNumberDisplay": "5.13",
          "Distance": "349.7"
        },
        {
          "StationName": "Galan",
          "StationCode": "GAA",
          "ArrivalTime": "13:57",
          "DepartureTime": "13:57",
          "HaltMinutes": "&nbsp;",
          "Day": 1,
          "Latitude": 20.60962,
          "Longitude": 75.2775,
          "stopNumberDisplay": "5.14",
          "Distance": "358.0"
        },
        {
          "StationName": "Pachora Jn",
          "StationCode": "PC",
          "ArrivalTime": "14:05",
          "DepartureTime": "14:05",
          "HaltMinutes": "&nbsp;",
          "Day": 1,
          "Latitude": 20.66873,
          "Longitude": 75.34921,
          "stopNumberDisplay": "5.15",
          "Distance": "368.6"
        },
        {
          "StationName": "Pardhade",
          "StationCode": "PHQ",
          "ArrivalTime": "14:11",
          "DepartureTime": "14:11",
          "HaltMinutes": "&nbsp;",
          "Day": 1,
          "Latitude": 20.729884,
          "Longitude": 75.377346,
          "stopNumberDisplay": "5.16",
          "Distance": "376.0"
        },
        {
          "StationName": "Maheji",
          "StationCode": "MYJ",
          "ArrivalTime": "14:17",
          "DepartureTime": "14:17",
          "HaltMinutes": "&nbsp;",
          "Day": 1,
          "Latitude": 20.768825,
          "Longitude": 75.424614,
          "stopNumberDisplay": "5.17",
          "Distance": "383.4"
        },
        {
          "StationName": "Mhasavad",
          "StationCode": "MWD",
          "ArrivalTime": "14:26",
          "DepartureTime": "14:26",
          "HaltMinutes": "&nbsp;",
          "Day": 1,
          "Latitude": 20.870572,
          "Longitude": 75.458767,
          "stopNumberDisplay": "5.18",
          "Distance": "395.2"
        },
        {
          "StationName": "Shirsoli",
          "StationCode": "SS",
          "ArrivalTime": "14:33",
          "DepartureTime": "14:33",
          "HaltMinutes": "&nbsp;",
          "Day": 1,
          "Latitude": 20.934689,
          "Longitude": 75.508645,
          "stopNumberDisplay": "5.19",
          "Distance": "404.6"
        },
        {
          "StationName": "Jalgaon Jn",
          "StationCode": "JL",
          "ArrivalTime": "14:42",
          "DepartureTime": "14:42",
          "HaltMinutes": "&nbsp;",
          "Day": 1,
          "Latitude": 21.0182,
          "Longitude": 75.5631,
          "stopNumberDisplay": "5.20",
          "Distance": "416.4"
        },
        {
          "StationName": "Tarsod",
          "StationCode": "TRW",
          "ArrivalTime": "14:47",
          "DepartureTime": "14:47",
          "HaltMinutes": "&nbsp;",
          "Day": 1,
          "Latitude": 21.0252,
          "Longitude": 75.608,
          "stopNumberDisplay": "5.21",
          "Distance": "423.8"
        },
        {
          "StationName": "Bhadli",
          "StationCode": "BDI",
          "ArrivalTime": "14:51",
          "DepartureTime": "14:51",
          "HaltMinutes": "&nbsp;",
          "Day": 1,
          "Latitude": 21.0233,
          "Longitude": 75.6731,
          "stopNumberDisplay": "5.22",
          "Distance": "428.1"
        }
      ],
      "TrainNo": 12534,
      "StationCode": "MMR",
      "RouteNo": null,
      "StopNumber": 5,
      "TrainMappingKey": null,
      "StationName": "Manmad Jn",
      "ArrivalTime": "12:38",
      "DepartureTime": "12:40",
      "HaltMinutes": "2m",
      "Distance": "256.4",
      "HasWifi": true,
      "Day": 1,
      "DataChanged": false,
      "ExpectedPlatformNo": "2",
      "arrivalDelay": "10 Min",
      "departureDelay": "10 Min",
      "Latitude": 20.24984,
      "Longitude": 74.43809,
      "stopNumberDisplay": 5
    },
    {
      "intermediateStations": [
        {
          "StationName": "Bhusaval Jn Yard",
          "StationCode": "BSLX",
          "ArrivalTime": "15:06",
          "DepartureTime": "15:06",
          "HaltMinutes": "&nbsp;",
          "Day": 1,
          "Latitude": 21.0478,
          "Longitude": 75.7995,
          "stopNumberDisplay": "6.1",
          "Distance": "441.7"
        },
        {
          "StationName": "Bhusaval Goods Yard",
          "StationCode": "BSGS",
          "ArrivalTime": "15:08",
          "DepartureTime": "15:08",
          "HaltMinutes": "&nbsp;",
          "Day": 1,
          "Latitude": 21.04813,
          "Longitude": 75.81038,
          "stopNumberDisplay": "6.2",
          "Distance": "443.2"
        },
        {
          "StationName": "Bhusaval B Cabin",
          "StationCode": "BSBN",
          "ArrivalTime": "15:09",
          "DepartureTime": "15:09",
          "HaltMinutes": "&nbsp;",
          "Day": 1,
          "Latitude": 21.05443,
          "Longitude": 75.82838,
          "stopNumberDisplay": "6.3",
          "Distance": "444.9"
        },
        {
          "StationName": "Duskheda",
          "StationCode": "DSK",
          "ArrivalTime": "15:12",
          "DepartureTime": "15:12",
          "HaltMinutes": "&nbsp;",
          "Day": 1,
          "Latitude": 21.07345,
          "Longitude": 75.83928,
          "stopNumberDisplay": "6.4",
          "Distance": "447.3"
        },
        {
          "StationName": "Savda",
          "StationCode": "SAV",
          "ArrivalTime": "15:20",
          "DepartureTime": "15:20",
          "HaltMinutes": "&nbsp;",
          "Day": 1,
          "Latitude": 21.11062,
          "Longitude": 75.91042,
          "stopNumberDisplay": "6.5",
          "Distance": "455.9"
        },
        {
          "StationName": "Nimbhora",
          "StationCode": "NB",
          "ArrivalTime": "15:29",
          "DepartureTime": "15:29",
          "HaltMinutes": "&nbsp;",
          "Day": 1,
          "Latitude": 21.16043,
          "Longitude": 75.97479,
          "stopNumberDisplay": "6.6",
          "Distance": "464.6"
        },
        {
          "StationName": "Raver",
          "StationCode": "RV",
          "ArrivalTime": "15:39",
          "DepartureTime": "15:39",
          "HaltMinutes": "&nbsp;",
          "Day": 1,
          "Latitude": 21.22213,
          "Longitude": 76.04454,
          "stopNumberDisplay": "6.7",
          "Distance": "474.7"
        },
        {
          "StationName": "Waghoda",
          "StationCode": "WGA",
          "ArrivalTime": "15:49",
          "DepartureTime": "15:49",
          "HaltMinutes": "&nbsp;",
          "Day": 1,
          "Latitude": 21.27948,
          "Longitude": 76.12049,
          "stopNumberDisplay": "6.8",
          "Distance": "484.8"
        },
        {
          "StationName": "Burhanpur",
          "StationCode": "BAU",
          "ArrivalTime": "15:59",
          "DepartureTime": "15:59",
          "HaltMinutes": "&nbsp;",
          "Day": 1,
          "Latitude": 21.33481,
          "Longitude": 76.19926,
          "stopNumberDisplay": "6.9",
          "Distance": "495.0"
        },
        {
          "StationName": "Asirgarh Road",
          "StationCode": "AGQ",
          "ArrivalTime": "16:08",
          "DepartureTime": "16:08",
          "HaltMinutes": "&nbsp;",
          "Day": 1,
          "Latitude": 21.37813,
          "Longitude": 76.26782,
          "stopNumberDisplay": "6.10",
          "Distance": "504.0"
        },
        {
          "StationName": "Chandni",
          "StationCode": "CDI",
          "ArrivalTime": "16:18",
          "DepartureTime": "16:18",
          "HaltMinutes": "&nbsp;",
          "Day": 1,
          "Latitude": 21.42595,
          "Longitude": 76.34877,
          "stopNumberDisplay": "6.11",
          "Distance": "514.2"
        },
        {
          "StationName": "Nepanagar",
          "StationCode": "NPNR",
          "ArrivalTime": "16:25",
          "DepartureTime": "16:25",
          "HaltMinutes": "&nbsp;",
          "Day": 1,
          "Latitude": 21.46399,
          "Longitude": 76.39708,
          "stopNumberDisplay": "6.12",
          "Distance": "521.3"
        },
        {
          "StationName": "Mandwa",
          "StationCode": "MWA",
          "ArrivalTime": "16:31",
          "DepartureTime": "16:31",
          "HaltMinutes": "&nbsp;",
          "Day": 1,
          "Latitude": 21.51575,
          "Longitude": 76.39162,
          "stopNumberDisplay": "6.13",
          "Distance": "527.2"
        },
        {
          "StationName": "Sagphata",
          "StationCode": "SXA",
          "ArrivalTime": "16:36",
          "DepartureTime": "16:36",
          "HaltMinutes": "&nbsp;",
          "Day": 1,
          "Latitude": 21.55669,
          "Longitude": 76.39251,
          "stopNumberDisplay": "6.14",
          "Distance": "533.1"
        },
        {
          "StationName": "Dongargaon",
          "StationCode": "DGN",
          "ArrivalTime": "16:44",
          "DepartureTime": "16:44",
          "HaltMinutes": "&nbsp;",
          "Day": 1,
          "Latitude": 21.62018,
          "Longitude": 76.37094,
          "stopNumberDisplay": "6.15",
          "Distance": "540.8"
        },
        {
          "StationName": "Kohdad",
          "StationCode": "KDK",
          "ArrivalTime": "16:52",
          "DepartureTime": "16:52",
          "HaltMinutes": "&nbsp;",
          "Day": 1,
          "Latitude": 21.68463,
          "Longitude": 76.36461,
          "stopNumberDisplay": "6.16",
          "Distance": "548.4"
        },
        {
          "StationName": "Bagmar",
          "StationCode": "BMA",
          "ArrivalTime": "16:56",
          "DepartureTime": "16:56",
          "HaltMinutes": "&nbsp;",
          "Day": 1,
          "Latitude": 21.72526,
          "Longitude": 76.36345,
          "stopNumberDisplay": "6.17",
          "Distance": "553.0"
        },
        {
          "StationName": "Bargaon Gujar",
          "StationCode": "BRGJ",
          "ArrivalTime": "17:02",
          "DepartureTime": "17:02",
          "HaltMinutes": "&nbsp;",
          "Day": 1,
          "Latitude": 21.77699,
          "Longitude": 76.35558,
          "stopNumberDisplay": "6.18",
          "Distance": "558.8"
        },
        {
          "StationName": "Khandwa Jn Yard",
          "StationCode": "KNWX",
          "ArrivalTime": "17:06",
          "DepartureTime": "17:06",
          "HaltMinutes": "&nbsp;",
          "Day": 1,
          "Latitude": 21.81706,
          "Longitude": 76.35442,
          "stopNumberDisplay": "6.19",
          "Distance": "563.3"
        }
      ],
      "TrainNo": 12534,
      "StationCode": "BSL",
      "RouteNo": null,
      "StopNumber": 6,
      "TrainMappingKey": null,
      "StationName": "Bhusaval Jn",
      "ArrivalTime": "15:00",
      "DepartureTime": "15:05",
      "HaltMinutes": "5m",
      "Distance": "440.5",
      "HasWifi": true,
      "Day": 1,
      "DataChanged": false,
      "ExpectedPlatformNo": "5",
      "arrivalDelay": "05 Min",
      "departureDelay": "05 Min",
      "Latitude": 21.04747,
      "Longitude": 75.78834,
      "stopNumberDisplay": 6
    },
    {
      "intermediateStations": [
        {
          "StationName": "Mathela",
          "StationCode": "MTA",
          "ArrivalTime": "17:15",
          "DepartureTime": "17:15",
          "HaltMinutes": "&nbsp;",
          "Day": 1,
          "Latitude": 21.878681,
          "Longitude": 76.38903,
          "stopNumberDisplay": "7.1",
          "Distance": "571.3"
        },
        {
          "StationName": "Talvadiya Jn",
          "StationCode": "TLV",
          "ArrivalTime": "17:22",
          "DepartureTime": "17:22",
          "HaltMinutes": "&nbsp;",
          "Day": 1,
          "Latitude": 21.927835,
          "Longitude": 76.444704,
          "stopNumberDisplay": "7.2",
          "Distance": "579.7"
        },
        {
          "StationName": "Surgaon Banjari",
          "StationCode": "SGBJ",
          "ArrivalTime": "17:30",
          "DepartureTime": "17:30",
          "HaltMinutes": "&nbsp;",
          "Day": 1,
          "Latitude": 21.94667,
          "Longitude": 76.544283,
          "stopNumberDisplay": "7.3",
          "Distance": "591.5"
        },
        {
          "StationName": "Charkheda Khurd",
          "StationCode": "CKKD",
          "ArrivalTime": "17:38",
          "DepartureTime": "17:38",
          "HaltMinutes": "&nbsp;",
          "Day": 1,
          "Latitude": 21.938491,
          "Longitude": 76.641545,
          "stopNumberDisplay": "7.4",
          "Distance": "601.9"
        },
        {
          "StationName": "Chhanera",
          "StationCode": "CAER",
          "ArrivalTime": "17:43",
          "DepartureTime": "17:43",
          "HaltMinutes": "&nbsp;",
          "Day": 1,
          "Latitude": 21.9635,
          "Longitude": 76.70761,
          "stopNumberDisplay": "7.5",
          "Distance": "609.4"
        },
        {
          "StationName": "Barud",
          "StationCode": "BRUD",
          "ArrivalTime": "17:51",
          "DepartureTime": "17:51",
          "HaltMinutes": "&nbsp;",
          "Day": 1,
          "Latitude": 22.02794,
          "Longitude": 76.76351,
          "stopNumberDisplay": "7.6",
          "Distance": "619.6"
        },
        {
          "StationName": "Dagarhkeri",
          "StationCode": "DRHI",
          "ArrivalTime": "17:58",
          "DepartureTime": "17:58",
          "HaltMinutes": "&nbsp;",
          "Day": 1,
          "Latitude": 22.08162,
          "Longitude": 76.82679,
          "stopNumberDisplay": "7.7",
          "Distance": "629.1"
        },
        {
          "StationName": "Khirkiya",
          "StationCode": "KKN",
          "ArrivalTime": "18:06",
          "DepartureTime": "18:06",
          "HaltMinutes": "&nbsp;",
          "Day": 1,
          "Latitude": 22.1661,
          "Longitude": 76.8593,
          "stopNumberDisplay": "7.8",
          "Distance": "640.0"
        },
        {
          "StationName": "Kurawan",
          "StationCode": "KRO",
          "ArrivalTime": "18:11",
          "DepartureTime": "18:11",
          "HaltMinutes": "&nbsp;",
          "Day": 1,
          "Latitude": 22.2051,
          "Longitude": 76.90461,
          "stopNumberDisplay": "7.9",
          "Distance": "646.5"
        },
        {
          "StationName": "Bhiringi",
          "StationCode": "BRI",
          "ArrivalTime": "18:17",
          "DepartureTime": "18:17",
          "HaltMinutes": "&nbsp;",
          "Day": 1,
          "Latitude": 22.23873,
          "Longitude": 76.95677,
          "stopNumberDisplay": "7.10",
          "Distance": "655.4"
        },
        {
          "StationName": "Masangaon",
          "StationCode": "MUO",
          "ArrivalTime": "18:19",
          "DepartureTime": "18:19",
          "HaltMinutes": "&nbsp;",
          "Day": 1,
          "Latitude": 22.26697,
          "Longitude": 76.9969,
          "stopNumberDisplay": "7.11",
          "Distance": "658.4"
        },
        {
          "StationName": "Palasner",
          "StationCode": "PAL",
          "ArrivalTime": "18:24",
          "DepartureTime": "18:24",
          "HaltMinutes": "&nbsp;",
          "Day": 1,
          "Latitude": 22.2991,
          "Longitude": 77.04291,
          "stopNumberDisplay": "7.12",
          "Distance": "664.2"
        },
        {
          "StationName": "Harda",
          "StationCode": "HD",
          "ArrivalTime": "18:29",
          "DepartureTime": "18:29",
          "HaltMinutes": "&nbsp;",
          "Day": 1,
          "Latitude": 22.33781,
          "Longitude": 77.09984,
          "stopNumberDisplay": "7.13",
          "Distance": "671.8"
        },
        {
          "StationName": "Charkhera",
          "StationCode": "CRK",
          "ArrivalTime": "18:34",
          "DepartureTime": "18:34",
          "HaltMinutes": "&nbsp;",
          "Day": 1,
          "Latitude": 22.36622,
          "Longitude": 77.16034,
          "stopNumberDisplay": "7.14",
          "Distance": "678.7"
        },
        {
          "StationName": "Timarni",
          "StationCode": "TBN",
          "ArrivalTime": "18:40",
          "DepartureTime": "18:40",
          "HaltMinutes": "&nbsp;",
          "Day": 1,
          "Latitude": 22.37589,
          "Longitude": 77.22856,
          "stopNumberDisplay": "7.15",
          "Distance": "685.9"
        },
        {
          "StationName": "Chhidgaon",
          "StationCode": "CGO",
          "ArrivalTime": "18:47",
          "DepartureTime": "18:47",
          "HaltMinutes": "&nbsp;",
          "Day": 1,
          "Latitude": 22.40685,
          "Longitude": 77.31417,
          "stopNumberDisplay": "7.16",
          "Distance": "695.2"
        },
        {
          "StationName": "Pagdhal",
          "StationCode": "PGL",
          "ArrivalTime": "18:50",
          "DepartureTime": "18:50",
          "HaltMinutes": "&nbsp;",
          "Day": 1,
          "Latitude": 22.42053,
          "Longitude": 77.35136,
          "stopNumberDisplay": "7.17",
          "Distance": "699.4"
        },
        {
          "StationName": "Bhaironpur",
          "StationCode": "BIF",
          "ArrivalTime": "18:55",
          "DepartureTime": "18:55",
          "HaltMinutes": "&nbsp;",
          "Day": 1,
          "Latitude": 22.44061,
          "Longitude": 77.41903,
          "stopNumberDisplay": "7.18",
          "Distance": "706.7"
        },
        {
          "StationName": "Banapura",
          "StationCode": "BPF",
          "ArrivalTime": "19:00",
          "DepartureTime": "19:00",
          "HaltMinutes": "&nbsp;",
          "Day": 1,
          "Latitude": 22.47048,
          "Longitude": 77.48152,
          "stopNumberDisplay": "7.19",
          "Distance": "714.0"
        },
        {
          "StationName": "Dharamkundi",
          "StationCode": "DKI",
          "ArrivalTime": "19:06",
          "DepartureTime": "19:06",
          "HaltMinutes": "&nbsp;",
          "Day": 1,
          "Latitude": 22.51061,
          "Longitude": 77.54858,
          "stopNumberDisplay": "7.20",
          "Distance": "722.2"
        },
        {
          "StationName": "Khutwansa",
          "StationCode": "KTZ",
          "ArrivalTime": "19:12",
          "DepartureTime": "19:12",
          "HaltMinutes": "&nbsp;",
          "Day": 1,
          "Latitude": 22.54841,
          "Longitude": 77.60744,
          "stopNumberDisplay": "7.21",
          "Distance": "729.6"
        },
        {
          "StationName": "Dularia",
          "StationCode": "DRA",
          "ArrivalTime": "19:16",
          "DepartureTime": "19:16",
          "HaltMinutes": "&nbsp;",
          "Day": 1,
          "Latitude": 22.575317,
          "Longitude": 77.65379,
          "stopNumberDisplay": "7.22",
          "Distance": "735.2"
        },
        {
          "StationName": "Itarsi B Cabin",
          "StationCode": "ETBC",
          "ArrivalTime": "19:24",
          "DepartureTime": "19:24",
          "HaltMinutes": "&nbsp;",
          "Day": 1,
          "Latitude": null,
          "Longitude": null,
          "stopNumberDisplay": "7.23",
          "Distance": "745.5"
        },
        {
          "StationName": "Jujharpur Cabin",
          "StationCode": "JUH",
          "ArrivalTime": "19:24",
          "DepartureTime": "19:24",
          "HaltMinutes": "&nbsp;",
          "Day": 1,
          "Latitude": 22.605241,
          "Longitude": 77.757205,
          "stopNumberDisplay": "7.24",
          "Distance": "746.4"
        }
      ],
      "TrainNo": 12534,
      "StationCode": "KNW",
      "RouteNo": null,
      "StopNumber": 7,
      "TrainMappingKey": null,
      "StationName": "Khandwa Jn",
      "ArrivalTime": "17:07",
      "DepartureTime": "17:10",
      "HaltMinutes": "3m",
      "Distance": "564.0",
      "HasWifi": true,
      "Day": 1,
      "DataChanged": false,
      "ExpectedPlatformNo": "2",
      "arrivalDelay": "17 Min",
      "departureDelay": "17 Min",
      "Latitude": 21.82382,
      "Longitude": 76.35321,
      "stopNumberDisplay": 7
    },
    {
      "intermediateStations": [
        {
          "StationName": "Itarsi F Cabin",
          "StationCode": "ETF",
          "ArrivalTime": "19:31",
          "DepartureTime": "19:31",
          "HaltMinutes": "&nbsp;",
          "Day": 1,
          "Latitude": 22.61562,
          "Longitude": 77.77484,
          "stopNumberDisplay": "8.1",
          "Distance": "748.7"
        },
        {
          "StationName": "Itarsi Bypass Cabin A",
          "StationCode": "XX-ETAC",
          "ArrivalTime": "19:34",
          "DepartureTime": "19:34",
          "HaltMinutes": "&nbsp;",
          "Day": 1,
          "Latitude": null,
          "Longitude": null,
          "stopNumberDisplay": "8.2",
          "Distance": "751.9"
        },
        {
          "StationName": "Powarkheda",
          "StationCode": "PRKD",
          "ArrivalTime": "19:38",
          "DepartureTime": "19:38",
          "HaltMinutes": "&nbsp;",
          "Day": 1,
          "Latitude": 22.67377,
          "Longitude": 77.74777,
          "stopNumberDisplay": "8.3",
          "Distance": "755.8"
        },
        {
          "StationName": "Narmadapuram",
          "StationCode": "NDPM",
          "ArrivalTime": "19:48",
          "DepartureTime": "19:48",
          "HaltMinutes": "&nbsp;",
          "Day": 1,
          "Latitude": 22.75291,
          "Longitude": 77.7168,
          "stopNumberDisplay": "8.4",
          "Distance": "765.4"
        },
        {
          "StationName": "Budni",
          "StationCode": "BNI",
          "ArrivalTime": "19:54",
          "DepartureTime": "19:54",
          "HaltMinutes": "&nbsp;",
          "Day": 1,
          "Latitude": 22.78697,
          "Longitude": 77.68124,
          "stopNumberDisplay": "8.5",
          "Distance": "772.5"
        },
        {
          "StationName": "Midghat",
          "StationCode": "MIG",
          "ArrivalTime": "20:01",
          "DepartureTime": "20:01",
          "HaltMinutes": "&nbsp;",
          "Day": 1,
          "Latitude": 22.82512,
          "Longitude": 77.65034,
          "stopNumberDisplay": "8.6",
          "Distance": "779.3"
        },
        {
          "StationName": "Choka",
          "StationCode": "CHQ",
          "ArrivalTime": "20:07",
          "DepartureTime": "20:07",
          "HaltMinutes": "&nbsp;",
          "Day": 1,
          "Latitude": 22.8638,
          "Longitude": 77.63807,
          "stopNumberDisplay": "8.7",
          "Distance": "785.3"
        },
        {
          "StationName": "Barkhera",
          "StationCode": "BKA",
          "ArrivalTime": "20:13",
          "DepartureTime": "20:13",
          "HaltMinutes": "&nbsp;",
          "Day": 1,
          "Latitude": 22.91768,
          "Longitude": 77.64979,
          "stopNumberDisplay": "8.8",
          "Distance": "791.9"
        },
        {
          "StationName": "Obaidulla Ganj",
          "StationCode": "ODG",
          "ArrivalTime": "20:24",
          "DepartureTime": "20:24",
          "HaltMinutes": "&nbsp;",
          "Day": 1,
          "Latitude": 22.99501,
          "Longitude": 77.58727,
          "stopNumberDisplay": "8.9",
          "Distance": "803.4"
        },
        {
          "StationName": "Itaya Kalan",
          "StationCode": "ITKL",
          "ArrivalTime": "20:32",
          "DepartureTime": "20:32",
          "HaltMinutes": "&nbsp;",
          "Day": 1,
          "Latitude": 23.05521,
          "Longitude": 77.54087,
          "stopNumberDisplay": "8.10",
          "Distance": "811.6"
        },
        {
          "StationName": "Mandideep",
          "StationCode": "MDDP",
          "ArrivalTime": "20:37",
          "DepartureTime": "20:37",
          "HaltMinutes": "&nbsp;",
          "Day": 1,
          "Latitude": 23.0938,
          "Longitude": 77.51125,
          "stopNumberDisplay": "8.11",
          "Distance": "816.8"
        },
        {
          "StationName": "Misrod",
          "StationCode": "MSO",
          "ArrivalTime": "20:47",
          "DepartureTime": "20:47",
          "HaltMinutes": "&nbsp;",
          "Day": 1,
          "Latitude": 23.169,
          "Longitude": 77.45795,
          "stopNumberDisplay": "8.12",
          "Distance": "826.8"
        }
      ],
      "TrainNo": 12534,
      "StationCode": "ET",
      "RouteNo": null,
      "StopNumber": 8,
      "TrainMappingKey": null,
      "StationName": "Itarsi Jn",
      "ArrivalTime": "19:25",
      "DepartureTime": "19:30",
      "HaltMinutes": "5m",
      "Distance": "747.4",
      "HasWifi": true,
      "Day": 1,
      "DataChanged": false,
      "ExpectedPlatformNo": "1",
      "arrivalDelay": "-",
      "departureDelay": "-",
      "Latitude": 22.6083,
      "Longitude": 77.7673,
      "stopNumberDisplay": 8
    },
    {
      "intermediateStations": [],
      "TrainNo": 12534,
      "StationCode": "RKMP",
      "RouteNo": null,
      "StopNumber": 9,
      "TrainMappingKey": null,
      "StationName": "Rani Kamalapati",
      "ArrivalTime": "20:53",
      "DepartureTime": "20:55",
      "HaltMinutes": "2m",
      "Distance": "833.0",
      "HasWifi": false,
      "Day": 1,
      "DataChanged": false,
      "ExpectedPlatformNo": "3",
      "arrivalDelay": "28 Min",
      "departureDelay": "28 Min",
      "Latitude": null,
      "Longitude": null,
      "stopNumberDisplay": 9
    },
    {
      "intermediateStations": [
        {
          "StationName": "Nishatpura",
          "StationCode": "NSZ",
          "ArrivalTime": "21:21",
          "DepartureTime": "21:21",
          "HaltMinutes": "&nbsp;",
          "Day": 1,
          "Latitude": 23.28381,
          "Longitude": 77.42265,
          "stopNumberDisplay": "10.1",
          "Distance": "841.0"
        },
        {
          "StationName": "Sukhisewaniyan",
          "StationCode": "SUW",
          "ArrivalTime": "21:28",
          "DepartureTime": "21:28",
          "HaltMinutes": "&nbsp;",
          "Day": 1,
          "Latitude": 23.34023,
          "Longitude": 77.48556,
          "stopNumberDisplay": "10.2",
          "Distance": "850.3"
        },
        {
          "StationName": "Bhadbhadaghat",
          "StationCode": "BVB",
          "ArrivalTime": "21:34",
          "DepartureTime": "21:34",
          "HaltMinutes": "&nbsp;",
          "Day": 1,
          "Latitude": 23.37473,
          "Longitude": 77.53554,
          "stopNumberDisplay": "10.3",
          "Distance": "857.9"
        },
        {
          "StationName": "DewanGanj",
          "StationCode": "DWG",
          "ArrivalTime": "21:40",
          "DepartureTime": "21:40",
          "HaltMinutes": "&nbsp;",
          "Day": 1,
          "Latitude": 23.42884,
          "Longitude": 77.59265,
          "stopNumberDisplay": "10.4",
          "Distance": "866.7"
        },
        {
          "StationName": "Salamatpur",
          "StationCode": "SMT",
          "ArrivalTime": "21:47",
          "DepartureTime": "21:47",
          "HaltMinutes": "&nbsp;",
          "Day": 1,
          "Latitude": 23.46128,
          "Longitude": 77.67303,
          "stopNumberDisplay": "10.5",
          "Distance": "876.1"
        },
        {
          "StationName": "Sanchi",
          "StationCode": "SCI",
          "ArrivalTime": "21:52",
          "DepartureTime": "21:52",
          "HaltMinutes": "&nbsp;",
          "Day": 1,
          "Latitude": 23.48781,
          "Longitude": 77.73578,
          "stopNumberDisplay": "10.6",
          "Distance": "883.2"
        },
        {
          "StationName": "Betwa Cabin",
          "StationCode": "BTWN",
          "ArrivalTime": "21:56",
          "DepartureTime": "21:56",
          "HaltMinutes": "&nbsp;",
          "Day": 1,
          "Latitude": 23.51058,
          "Longitude": 77.78328,
          "stopNumberDisplay": "10.7",
          "Distance": "888.8"
        },
        {
          "StationName": "Vidisha",
          "StationCode": "BHS",
          "ArrivalTime": "21:59",
          "DepartureTime": "21:59",
          "HaltMinutes": "&nbsp;",
          "Day": 1,
          "Latitude": 23.5224,
          "Longitude": 77.81491,
          "stopNumberDisplay": "10.8",
          "Distance": "892.6"
        },
        {
          "StationName": "Sorai",
          "StationCode": "SORI",
          "ArrivalTime": "22:03",
          "DepartureTime": "22:03",
          "HaltMinutes": "&nbsp;",
          "Day": 1,
          "Latitude": 23.556544,
          "Longitude": 77.850362,
          "stopNumberDisplay": "10.9",
          "Distance": "898.0"
        },
        {
          "StationName": "Sumer",
          "StationCode": "SUMR",
          "ArrivalTime": "22:09",
          "DepartureTime": "22:09",
          "HaltMinutes": "&nbsp;",
          "Day": 1,
          "Latitude": 23.625255,
          "Longitude": 77.880013,
          "stopNumberDisplay": "10.10",
          "Distance": "906.2"
        },
        {
          "StationName": "GulabGanj",
          "StationCode": "GLG",
          "ArrivalTime": "22:14",
          "DepartureTime": "22:14",
          "HaltMinutes": "&nbsp;",
          "Day": 1,
          "Latitude": 23.683694,
          "Longitude": 77.91203,
          "stopNumberDisplay": "10.11",
          "Distance": "913.8"
        },
        {
          "StationName": "Pabai",
          "StationCode": "PAI",
          "ArrivalTime": "22:21",
          "DepartureTime": "22:21",
          "HaltMinutes": "&nbsp;",
          "Day": 1,
          "Latitude": 23.767866,
          "Longitude": 77.931845,
          "stopNumberDisplay": "10.12",
          "Distance": "923.3"
        },
        {
          "StationName": "Ganj Basoda",
          "StationCode": "BAQ",
          "ArrivalTime": "22:27",
          "DepartureTime": "22:27",
          "HaltMinutes": "&nbsp;",
          "Day": 1,
          "Latitude": 23.84542,
          "Longitude": 77.94462,
          "stopNumberDisplay": "10.13",
          "Distance": "932.1"
        },
        {
          "StationName": "Raukheri",
          "StationCode": "RKDI",
          "ArrivalTime": "22:30",
          "DepartureTime": "22:30",
          "HaltMinutes": "&nbsp;",
          "Day": 1,
          "Latitude": null,
          "Longitude": null,
          "stopNumberDisplay": "10.14",
          "Distance": "935.2"
        },
        {
          "StationName": "Bareth",
          "StationCode": "BET",
          "ArrivalTime": "22:34",
          "DepartureTime": "22:34",
          "HaltMinutes": "&nbsp;",
          "Day": 1,
          "Latitude": 23.91639,
          "Longitude": 78.00042,
          "stopNumberDisplay": "10.15",
          "Distance": "941.9"
        },
        {
          "StationName": "Chulheta",
          "StationCode": "CLHT",
          "ArrivalTime": "22:38",
          "DepartureTime": "22:38",
          "HaltMinutes": "&nbsp;",
          "Day": 1,
          "Latitude": 23.94978,
          "Longitude": 78.02075,
          "stopNumberDisplay": "10.16",
          "Distance": "946.3"
        },
        {
          "StationName": "Kalhar",
          "StationCode": "KAH",
          "ArrivalTime": "22:41",
          "DepartureTime": "22:41",
          "HaltMinutes": "&nbsp;",
          "Day": 1,
          "Latitude": 23.97703,
          "Longitude": 78.05727,
          "stopNumberDisplay": "10.17",
          "Distance": "951.7"
        },
        {
          "StationName": "Mandi Bamora",
          "StationCode": "MABA",
          "ArrivalTime": "22:48",
          "DepartureTime": "22:48",
          "HaltMinutes": "&nbsp;",
          "Day": 1,
          "Latitude": 24.0535,
          "Longitude": 78.08244,
          "stopNumberDisplay": "10.18",
          "Distance": "960.5"
        },
        {
          "StationName": "Kurwai Kethora",
          "StationCode": "KIKA",
          "ArrivalTime": "22:54",
          "DepartureTime": "22:54",
          "HaltMinutes": "&nbsp;",
          "Day": 1,
          "Latitude": 24.11819,
          "Longitude": 78.11575,
          "stopNumberDisplay": "10.19",
          "Distance": "968.5"
        },
        {
          "StationName": "Bina Jn",
          "StationCode": "BINA",
          "ArrivalTime": "23:00",
          "DepartureTime": "23:00",
          "HaltMinutes": "&nbsp;",
          "Day": 1,
          "Latitude": 24.171836,
          "Longitude": 78.185054,
          "stopNumberDisplay": "10.20",
          "Distance": "977.9"
        },
        {
          "StationName": "Agasod Jn",
          "StationCode": "AGD",
          "ArrivalTime": "23:06",
          "DepartureTime": "23:06",
          "HaltMinutes": "&nbsp;",
          "Day": 1,
          "Latitude": 24.23414,
          "Longitude": 78.217339,
          "stopNumberDisplay": "10.21",
          "Distance": "985.8"
        },
        {
          "StationName": "Karonda",
          "StationCode": "KOA",
          "ArrivalTime": "23:15",
          "DepartureTime": "23:15",
          "HaltMinutes": "&nbsp;",
          "Day": 1,
          "Latitude": 24.32983,
          "Longitude": 78.2651,
          "stopNumberDisplay": "10.22",
          "Distance": "997.6"
        },
        {
          "StationName": "Mohasa",
          "StationCode": "MXS",
          "ArrivalTime": "23:19",
          "DepartureTime": "23:19",
          "HaltMinutes": "&nbsp;",
          "Day": 1,
          "Latitude": 24.37556,
          "Longitude": 78.28808,
          "stopNumberDisplay": "10.23",
          "Distance": "1003.2"
        },
        {
          "StationName": "Dhaura",
          "StationCode": "DUA",
          "ArrivalTime": "23:26",
          "DepartureTime": "23:26",
          "HaltMinutes": "&nbsp;",
          "Day": 1,
          "Latitude": 24.45054,
          "Longitude": 78.32162,
          "stopNumberDisplay": "10.24",
          "Distance": "1012.5"
        },
        {
          "StationName": "Jakhalaun",
          "StationCode": "JLN",
          "ArrivalTime": "23:34",
          "DepartureTime": "23:34",
          "HaltMinutes": "&nbsp;",
          "Day": 1,
          "Latitude": 24.54737,
          "Longitude": 78.34213,
          "stopNumberDisplay": "10.25",
          "Distance": "1024.1"
        },
        {
          "StationName": "Jiron",
          "StationCode": "JRO",
          "ArrivalTime": "23:39",
          "DepartureTime": "23:39",
          "HaltMinutes": "&nbsp;",
          "Day": 1,
          "Latitude": 24.60775,
          "Longitude": 78.36128,
          "stopNumberDisplay": "10.26",
          "Distance": "1031.1"
        }
      ],
      "TrainNo": 12534,
      "StationCode": "BPL",
      "RouteNo": null,
      "StopNumber": 10,
      "TrainMappingKey": null,
      "StationName": "Bhopal Jn",
      "ArrivalTime": "21:10",
      "DepartureTime": "21:20",
      "HaltMinutes": "10m",
      "Distance": "839.2",
      "HasWifi": true,
      "Day": 1,
      "DataChanged": false,
      "ExpectedPlatformNo": "2",
      "arrivalDelay": "36 Min",
      "departureDelay": "36 Min",
      "Latitude": 23.267924,
      "Longitude": 77.41345,
      "stopNumberDisplay": 10
    },
    {
      "intermediateStations": [
        {
          "StationName": "Dailwara",
          "StationCode": "DWA",
          "ArrivalTime": "23:56",
          "DepartureTime": "23:56",
          "HaltMinutes": "&nbsp;",
          "Day": 1,
          "Latitude": 24.78085,
          "Longitude": 78.3931,
          "stopNumberDisplay": "11.1",
          "Distance": "1051.0"
        },
        {
          "StationName": "Jakhaura",
          "StationCode": "JHA",
          "ArrivalTime": "00:03",
          "DepartureTime": "00:03",
          "HaltMinutes": "&nbsp;",
          "Day": 2,
          "Latitude": 24.87084,
          "Longitude": 78.40024,
          "stopNumberDisplay": "11.2",
          "Distance": "1061.1"
        },
        {
          "StationName": "Bijrotha",
          "StationCode": "BJA",
          "ArrivalTime": "00:10",
          "DepartureTime": "00:10",
          "HaltMinutes": "&nbsp;",
          "Day": 2,
          "Latitude": 24.94681,
          "Longitude": 78.42084,
          "stopNumberDisplay": "11.3",
          "Distance": "1069.9"
        },
        {
          "StationName": "Doulta",
          "StationCode": "DLA",
          "ArrivalTime": "00:14",
          "DepartureTime": "00:14",
          "HaltMinutes": "&nbsp;",
          "Day": 2,
          "Latitude": 24.99496,
          "Longitude": 78.42897,
          "stopNumberDisplay": "11.4",
          "Distance": "1075.4"
        },
        {
          "StationName": "Talbahat",
          "StationCode": "TBT",
          "ArrivalTime": "00:18",
          "DepartureTime": "00:18",
          "HaltMinutes": "&nbsp;",
          "Day": 2,
          "Latitude": 25.03912,
          "Longitude": 78.41421,
          "stopNumberDisplay": "11.5",
          "Distance": "1080.6"
        },
        {
          "StationName": "Matatila",
          "StationCode": "MZX",
          "ArrivalTime": "00:21",
          "DepartureTime": "00:21",
          "HaltMinutes": "&nbsp;",
          "Day": 2,
          "Latitude": 25.08346,
          "Longitude": 78.4027,
          "stopNumberDisplay": "11.6",
          "Distance": "1085.7"
        },
        {
          "StationName": "Basai",
          "StationCode": "BZY",
          "ArrivalTime": "00:27",
          "DepartureTime": "00:27",
          "HaltMinutes": "&nbsp;",
          "Day": 2,
          "Latitude": 25.14286,
          "Longitude": 78.39404,
          "stopNumberDisplay": "11.7",
          "Distance": "1093.3"
        },
        {
          "StationName": "Burhpura",
          "StationCode": "BPW",
          "ArrivalTime": "00:32",
          "DepartureTime": "00:32",
          "HaltMinutes": "&nbsp;",
          "Day": 2,
          "Latitude": 25.19948,
          "Longitude": 78.42353,
          "stopNumberDisplay": "11.8",
          "Distance": "1100.3"
        },
        {
          "StationName": "Babina",
          "StationCode": "BAB",
          "ArrivalTime": "00:36",
          "DepartureTime": "00:36",
          "HaltMinutes": "&nbsp;",
          "Day": 2,
          "Latitude": 25.24001,
          "Longitude": 78.45428,
          "stopNumberDisplay": "11.9",
          "Distance": "1105.8"
        },
        {
          "StationName": "Khajraha",
          "StationCode": "KHJ",
          "ArrivalTime": "00:42",
          "DepartureTime": "00:42",
          "HaltMinutes": "&nbsp;",
          "Day": 2,
          "Latitude": 25.30408,
          "Longitude": 78.47815,
          "stopNumberDisplay": "11.10",
          "Distance": "1113.6"
        },
        {
          "StationName": "Bijauli",
          "StationCode": "BJI",
          "ArrivalTime": "00:49",
          "DepartureTime": "00:49",
          "HaltMinutes": "&nbsp;",
          "Day": 2,
          "Latitude": 25.37636,
          "Longitude": 78.51732,
          "stopNumberDisplay": "11.11",
          "Distance": "1122.5"
        },
        {
          "StationName": "Jhansi A Cabin",
          "StationCode": "JHSA",
          "ArrivalTime": "00:53",
          "DepartureTime": "00:53",
          "HaltMinutes": "&nbsp;",
          "Day": 2,
          "Latitude": 25.41872,
          "Longitude": 78.54519,
          "stopNumberDisplay": "11.12",
          "Distance": "1128.3"
        }
      ],
      "TrainNo": 12534,
      "StationCode": "LAR",
      "RouteNo": null,
      "StopNumber": 11,
      "TrainMappingKey": null,
      "StationName": "Lalitpur Jn",
      "ArrivalTime": "23:46",
      "DepartureTime": "23:48",
      "HaltMinutes": "2m",
      "Distance": "1040.7",
      "HasWifi": true,
      "Day": 1,
      "DataChanged": false,
      "ExpectedPlatformNo": "4",
      "arrivalDelay": "-",
      "departureDelay": "-",
      "Latitude": 24.68855,
      "Longitude": 78.39574,
      "stopNumberDisplay": 11
    },
    {
      "intermediateStations": [
        {
          "StationName": "Mustara",
          "StationCode": "MSV",
          "ArrivalTime": "01:08",
          "DepartureTime": "01:08",
          "HaltMinutes": "&nbsp;",
          "Day": 2,
          "Latitude": 25.491127,
          "Longitude": 78.60314,
          "stopNumberDisplay": "12.1",
          "Distance": "1139.4"
        },
        {
          "StationName": "Garhmau",
          "StationCode": "GRM",
          "ArrivalTime": "01:12",
          "DepartureTime": "01:12",
          "HaltMinutes": "&nbsp;",
          "Day": 2,
          "Latitude": 25.501545,
          "Longitude": 78.661276,
          "stopNumberDisplay": "12.2",
          "Distance": "1145.3"
        },
        {
          "StationName": "Paricha",
          "StationCode": "PIC",
          "ArrivalTime": "01:18",
          "DepartureTime": "01:18",
          "HaltMinutes": "&nbsp;",
          "Day": 2,
          "Latitude": 25.5188,
          "Longitude": 78.739,
          "stopNumberDisplay": "12.3",
          "Distance": "1153.4"
        },
        {
          "StationName": "Parichaa Thermal",
          "StationCode": "PTSC",
          "ArrivalTime": "01:19",
          "DepartureTime": "01:19",
          "HaltMinutes": "&nbsp;",
          "Day": 2,
          "Latitude": 25.5266,
          "Longitude": 78.7574,
          "stopNumberDisplay": "12.4",
          "Distance": "1155.4"
        },
        {
          "StationName": "Chirgaon",
          "StationCode": "CGN",
          "ArrivalTime": "01:24",
          "DepartureTime": "01:24",
          "HaltMinutes": "&nbsp;",
          "Day": 2,
          "Latitude": 25.5744,
          "Longitude": 78.8058,
          "stopNumberDisplay": "12.5",
          "Distance": "1162.8"
        },
        {
          "StationName": "Nandkhas",
          "StationCode": "NDK",
          "ArrivalTime": "01:32",
          "DepartureTime": "01:32",
          "HaltMinutes": "&nbsp;",
          "Day": 2,
          "Latitude": 25.6623,
          "Longitude": 78.8739,
          "stopNumberDisplay": "12.6",
          "Distance": "1174.7"
        },
        {
          "StationName": "Moth",
          "StationCode": "MOTH",
          "ArrivalTime": "01:39",
          "DepartureTime": "01:39",
          "HaltMinutes": "&nbsp;",
          "Day": 2,
          "Latitude": 25.7413,
          "Longitude": 78.949,
          "stopNumberDisplay": "12.7",
          "Distance": "1186.3"
        },
        {
          "StationName": "Erach Road",
          "StationCode": "ERC",
          "ArrivalTime": "01:47",
          "DepartureTime": "01:47",
          "HaltMinutes": "&nbsp;",
          "Day": 2,
          "Latitude": 25.82,
          "Longitude": 79.0347,
          "stopNumberDisplay": "12.8",
          "Distance": "1198.7"
        },
        {
          "StationName": "Parauna",
          "StationCode": "PRN",
          "ArrivalTime": "01:54",
          "DepartureTime": "01:54",
          "HaltMinutes": "&nbsp;",
          "Day": 2,
          "Latitude": 25.866993,
          "Longitude": 79.12575,
          "stopNumberDisplay": "12.9",
          "Distance": "1209.2"
        },
        {
          "StationName": "Ait Jn",
          "StationCode": "AIT",
          "ArrivalTime": "02:02",
          "DepartureTime": "02:02",
          "HaltMinutes": "&nbsp;",
          "Day": 2,
          "Latitude": 25.903019,
          "Longitude": 79.229499,
          "stopNumberDisplay": "12.10",
          "Distance": "1220.3"
        },
        {
          "StationName": "Bhua",
          "StationCode": "BHUA",
          "ArrivalTime": "02:10",
          "DepartureTime": "02:10",
          "HaltMinutes": "&nbsp;",
          "Day": 2,
          "Latitude": 25.94484682,
          "Longitude": 79.35043185,
          "stopNumberDisplay": "12.11",
          "Distance": "1233.3"
        }
      ],
      "TrainNo": 12534,
      "StationCode": "VGLJ",
      "RouteNo": null,
      "StopNumber": 12,
      "TrainMappingKey": null,
      "StationName": "VGL Jhansi Jn",
      "ArrivalTime": "00:55",
      "DepartureTime": "01:03",
      "HaltMinutes": "8m",
      "Distance": "1131.1",
      "HasWifi": false,
      "Day": 2,
      "DataChanged": false,
      "ExpectedPlatformNo": "4",
      "arrivalDelay": "26 Min",
      "departureDelay": "26 Min",
      "Latitude": 25.443954,
      "Longitude": 78.553211,
      "stopNumberDisplay": 12
    },
    {
      "intermediateStations": [
        {
          "StationName": "Sarsoki",
          "StationCode": "SSKI",
          "ArrivalTime": "02:30",
          "DepartureTime": "02:30",
          "HaltMinutes": "&nbsp;",
          "Day": 2,
          "Latitude": null,
          "Longitude": null,
          "stopNumberDisplay": "13.1",
          "Distance": "1252.8"
        },
        {
          "StationName": "Ata",
          "StationCode": "ATA",
          "ArrivalTime": "02:40",
          "DepartureTime": "02:40",
          "HaltMinutes": "&nbsp;",
          "Day": 2,
          "Latitude": 26.04405882,
          "Longitude": 79.59831088,
          "stopNumberDisplay": "13.2",
          "Distance": "1260.5"
        },
        {
          "StationName": "Usargaon",
          "StationCode": "URG",
          "ArrivalTime": "02:51",
          "DepartureTime": "02:51",
          "HaltMinutes": "&nbsp;",
          "Day": 2,
          "Latitude": 26.07295416,
          "Longitude": 79.66294139,
          "stopNumberDisplay": "13.3",
          "Distance": "1268.9"
        },
        {
          "StationName": "Kalpi",
          "StationCode": "KPI",
          "ArrivalTime": "03:04",
          "DepartureTime": "03:04",
          "HaltMinutes": "&nbsp;",
          "Day": 2,
          "Latitude": 26.12,
          "Longitude": 79.7562,
          "stopNumberDisplay": "13.4",
          "Distance": "1278.4"
        },
        {
          "StationName": "Chaunrah",
          "StationCode": "CNH",
          "ArrivalTime": "03:12",
          "DepartureTime": "03:12",
          "HaltMinutes": "&nbsp;",
          "Day": 2,
          "Latitude": 26.1652211,
          "Longitude": 79.78233187,
          "stopNumberDisplay": "13.5",
          "Distance": "1284.2"
        },
        {
          "StationName": "Pokhrayan",
          "StationCode": "PHN",
          "ArrivalTime": "03:23",
          "DepartureTime": "03:23",
          "HaltMinutes": "&nbsp;",
          "Day": 2,
          "Latitude": 26.223522,
          "Longitude": 79.841079,
          "stopNumberDisplay": "13.6",
          "Distance": "1292.9"
        },
        {
          "StationName": "Malasa",
          "StationCode": "MLS",
          "ArrivalTime": "03:36",
          "DepartureTime": "03:36",
          "HaltMinutes": "&nbsp;",
          "Day": 2,
          "Latitude": 26.288336,
          "Longitude": 79.907512,
          "stopNumberDisplay": "13.7",
          "Distance": "1302.7"
        },
        {
          "StationName": "Lalpur",
          "StationCode": "LLR",
          "ArrivalTime": "03:43",
          "DepartureTime": "03:43",
          "HaltMinutes": "&nbsp;",
          "Day": 2,
          "Latitude": 26.318344,
          "Longitude": 79.948539,
          "stopNumberDisplay": "13.8",
          "Distance": "1308.0"
        },
        {
          "StationName": "Tilaunchi",
          "StationCode": "TLNH",
          "ArrivalTime": "03:51",
          "DepartureTime": "03:51",
          "HaltMinutes": "&nbsp;",
          "Day": 2,
          "Latitude": 26.3327,
          "Longitude": 80.0071,
          "stopNumberDisplay": "13.9",
          "Distance": "1314.1"
        },
        {
          "StationName": "Paman",
          "StationCode": "PMN",
          "ArrivalTime": "04:01",
          "DepartureTime": "04:01",
          "HaltMinutes": "&nbsp;",
          "Day": 2,
          "Latitude": 26.35988034,
          "Longitude": 80.08050769,
          "stopNumberDisplay": "13.10",
          "Distance": "1322.0"
        },
        {
          "StationName": "Rasulpur Gogumau",
          "StationCode": "RPGU",
          "ArrivalTime": "04:07",
          "DepartureTime": "04:07",
          "HaltMinutes": "&nbsp;",
          "Day": 2,
          "Latitude": 26.3757,
          "Longitude": 80.1175,
          "stopNumberDisplay": "13.11",
          "Distance": "1326.1"
        },
        {
          "StationName": "Binaur",
          "StationCode": "BNAR",
          "ArrivalTime": "04:13",
          "DepartureTime": "04:13",
          "HaltMinutes": "&nbsp;",
          "Day": 2,
          "Latitude": 26.3951,
          "Longitude": 80.1619,
          "stopNumberDisplay": "13.12",
          "Distance": "1331.1"
        },
        {
          "StationName": "Bhimsen Jn",
          "StationCode": "BZM",
          "ArrivalTime": "04:22",
          "DepartureTime": "04:22",
          "HaltMinutes": "&nbsp;",
          "Day": 2,
          "Latitude": 26.420132,
          "Longitude": 80.219352,
          "stopNumberDisplay": "13.13",
          "Distance": "1337.4"
        },
        {
          "StationName": "Holding Line",
          "StationCode": "CNJW",
          "ArrivalTime": "04:27",
          "DepartureTime": "04:27",
          "HaltMinutes": "&nbsp;",
          "Day": 2,
          "Latitude": null,
          "Longitude": null,
          "stopNumberDisplay": "13.14",
          "Distance": "1341.9"
        },
        {
          "StationName": "Govindpuri",
          "StationCode": "GOY",
          "ArrivalTime": "04:35",
          "DepartureTime": "04:35",
          "HaltMinutes": "&nbsp;",
          "Day": 2,
          "Latitude": 26.4537,
          "Longitude": 80.3134,
          "stopNumberDisplay": "13.15",
          "Distance": "1347.5"
        },
        {
          "StationName": "Juhi Outer Cabin",
          "StationCode": "CNJO",
          "ArrivalTime": "04:37",
          "DepartureTime": "04:37",
          "HaltMinutes": "&nbsp;",
          "Day": 2,
          "Latitude": 26.4532,
          "Longitude": 80.3235,
          "stopNumberDisplay": "13.16",
          "Distance": "1349.4"
        },
        {
          "StationName": "Kanpur Goods Marshalling Yard",
          "StationCode": "GMC",
          "ArrivalTime": "04:38",
          "DepartureTime": "04:38",
          "HaltMinutes": "&nbsp;",
          "Day": 2,
          "Latitude": 26.4521,
          "Longitude": 80.3395,
          "stopNumberDisplay": "13.17",
          "Distance": "1350.2"
        }
      ],
      "TrainNo": 12534,
      "StationCode": "ORAI",
      "RouteNo": null,
      "StopNumber": 13,
      "TrainMappingKey": null,
      "StationName": "Orai",
      "ArrivalTime": "02:18",
      "DepartureTime": "02:20",
      "HaltMinutes": "2m",
      "Distance": "1245.0",
      "HasWifi": true,
      "Day": 2,
      "DataChanged": false,
      "ExpectedPlatformNo": "1",
      "arrivalDelay": "16 Min",
      "departureDelay": "16 Min",
      "Latitude": 25.981878,
      "Longitude": 79.457722,
      "stopNumberDisplay": 13
    },
    {
      "intermediateStations": [
        {
          "StationName": "Kanpur Bridge Left Bank",
          "StationCode": "CPB",
          "ArrivalTime": "04:56",
          "DepartureTime": "04:56",
          "HaltMinutes": "&nbsp;",
          "Day": 2,
          "Latitude": 26.47585,
          "Longitude": 80.37857,
          "stopNumberDisplay": "14.1",
          "Distance": "1355.3"
        },
        {
          "StationName": "Magarwara",
          "StationCode": "MGW",
          "ArrivalTime": "05:07",
          "DepartureTime": "05:07",
          "HaltMinutes": "&nbsp;",
          "Day": 2,
          "Latitude": 26.52443,
          "Longitude": 80.43084,
          "stopNumberDisplay": "14.2",
          "Distance": "1362.7"
        }
      ],
      "TrainNo": 12534,
      "StationCode": "CNB",
      "RouteNo": null,
      "StopNumber": 14,
      "TrainMappingKey": null,
      "StationName": "Kanpur Ctrl",
      "ArrivalTime": "04:40",
      "DepartureTime": "04:50",
      "HaltMinutes": "10m",
      "Distance": "1351.4",
      "HasWifi": false,
      "Day": 2,
      "DataChanged": false,
      "ExpectedPlatformNo": "6",
      "arrivalDelay": "11 Min",
      "departureDelay": "11 Min",
      "Latitude": null,
      "Longitude": null,
      "stopNumberDisplay": 14
    },
    {
      "intermediateStations": [
        {
          "StationName": "Sonik",
          "StationCode": "SIC",
          "ArrivalTime": "05:35",
          "DepartureTime": "05:35",
          "HaltMinutes": "&nbsp;",
          "Day": 2,
          "Latitude": 26.58617,
          "Longitude": 80.55982,
          "stopNumberDisplay": "15.1",
          "Distance": "1377.3"
        },
        {
          "StationName": "Ajgain",
          "StationCode": "AJ",
          "ArrivalTime": "05:50",
          "DepartureTime": "05:50",
          "HaltMinutes": "&nbsp;",
          "Day": 2,
          "Latitude": 26.61727,
          "Longitude": 80.62092,
          "stopNumberDisplay": "15.2",
          "Distance": "1384.4"
        },
        {
          "StationName": "Kusumbhi",
          "StationCode": "KVX",
          "ArrivalTime": "05:58",
          "DepartureTime": "05:58",
          "HaltMinutes": "&nbsp;",
          "Day": 2,
          "Latitude": 26.63962,
          "Longitude": 80.65428,
          "stopNumberDisplay": "15.3",
          "Distance": "1388.4"
        },
        {
          "StationName": "Jaitipur",
          "StationCode": "JTU",
          "ArrivalTime": "06:07",
          "DepartureTime": "06:07",
          "HaltMinutes": "&nbsp;",
          "Day": 2,
          "Latitude": 26.6631,
          "Longitude": 80.68862,
          "stopNumberDisplay": "15.4",
          "Distance": "1392.8"
        },
        {
          "StationName": "Harauni",
          "StationCode": "HRN",
          "ArrivalTime": "06:23",
          "DepartureTime": "06:23",
          "HaltMinutes": "&nbsp;",
          "Day": 2,
          "Latitude": 26.70651,
          "Longitude": 80.74796,
          "stopNumberDisplay": "15.5",
          "Distance": "1400.4"
        },
        {
          "StationName": "Piparsand",
          "StationCode": "POF",
          "ArrivalTime": "06:36",
          "DepartureTime": "06:36",
          "HaltMinutes": "&nbsp;",
          "Day": 2,
          "Latitude": 26.7419,
          "Longitude": 80.79673,
          "stopNumberDisplay": "15.6",
          "Distance": "1406.7"
        },
        {
          "StationName": "Amausi",
          "StationCode": "AMS",
          "ArrivalTime": "06:47",
          "DepartureTime": "06:47",
          "HaltMinutes": "&nbsp;",
          "Day": 2,
          "Latitude": null,
          "Longitude": null,
          "stopNumberDisplay": "15.7",
          "Distance": "1412.4"
        },
        {
          "StationName": "Manak Nagar",
          "StationCode": "MKG",
          "ArrivalTime": "07:00",
          "DepartureTime": "07:00",
          "HaltMinutes": "&nbsp;",
          "Day": 2,
          "Latitude": 26.81071,
          "Longitude": 80.89104,
          "stopNumberDisplay": "15.8",
          "Distance": "1418.7"
        },
        {
          "StationName": "Block Hut A",
          "StationCode": "BKHA",
          "ArrivalTime": "07:06",
          "DepartureTime": "07:06",
          "HaltMinutes": "&nbsp;",
          "Day": 2,
          "Latitude": null,
          "Longitude": null,
          "stopNumberDisplay": "15.9",
          "Distance": "1421.5"
        }
      ],
      "TrainNo": 12534,
      "StationCode": "ON",
      "RouteNo": null,
      "StopNumber": 15,
      "TrainMappingKey": null,
      "StationName": "Unnao Jn",
      "ArrivalTime": "05:16",
      "DepartureTime": "05:18",
      "HaltMinutes": "2m",
      "Distance": "1368.9",
      "HasWifi": false,
      "Day": 2,
      "DataChanged": false,
      "ExpectedPlatformNo": "4",
      "arrivalDelay": "26 Min",
      "departureDelay": "26 Min",
      "Latitude": 26.5488,
      "Longitude": 80.4865,
      "stopNumberDisplay": 15
    },
    {
      "intermediateStations": [],
      "TrainNo": 12534,
      "StationCode": "LJN",
      "RouteNo": null,
      "StopNumber": 16,
      "TrainMappingKey": null,
      "StationName": "Lucknow Jn NER",
      "ArrivalTime": "07:10",
      "DepartureTime": "",
      "HaltMinutes": "",
      "Distance": "1423.3",
      "HasWifi": false,
      "Day": 2,
      "DataChanged": false,
      "ExpectedPlatformNo": "1",
      "arrivalDelay": "-",
      "departureDelay": "-",
      "Latitude": null,
      "Longitude": null,
      "stopNumberDisplay": 16
    }
  ],
  "Source": "Mumbai CSMT",
  "Destination": "Lucknow Junction",
  "SourceCode": "CSMT",
  "DestinationCode": "LJN",
  "DaysOfRun": {
    "Sun": true,
    "Mon": true,
    "Tue": true,
    "Wed": true,
    "Thu": true,
    "Fri": true,
    "Sat": true
  },
  "FooterText": null,
  "TrainType": null,
  "IsUnreserved": false,
  "Rating": 3.9,
  "FoodRating": 3.6,
  "PunctualityRating": 4.1,
  "CleanlinessRating": 4.1,
  "RatingCount": 2309,
  "TotalDuration": "22:45",
  "FromCity": "MUMBAI",
  "ToCity": "LUCKNOW",
  "CacheTime": "2024-03-09T10:51:40.3317022+05:30",
  "HasPantry": true,
  "ErrorMsg": null
}