{
  "TrainName": "MAS-CBE SF EXPRESS",
  "TrainNo": 12681,
  "TrainNumberString": null,
  "CoachPosition": "L EOG UR UR A2 A1 B7 B6 B5 B4 B3 B2 B1 S6 S5 S4 S3 S2 S1 UR UR EOG",
  "Classes": [
    "2A",
    "3A",
    "SL"
  ],
  "Schedule": [
    {
      "intermediateStations": [
        {
          "StationName": "Basin Bridge Jn",
          "StationCode": "BBQ",
          "ArrivalTime": "22:32",
          "DepartureTime": "22:32",
          "HaltMinutes": "&nbsp;",
          "Day": 1,
          "Latitude": 13.10229,
          "Longitude": 80.27152,
          "stopNumberDisplay": "1.1",
          "Distance": "2.1"
        },
        {
          "StationName": "Vyasarpadi",
          "StationCode": "VPY",
          "ArrivalTime": "22:33",
          "DepartureTime": "22:33",
          "HaltMinutes": "&nbsp;",
          "Day": 1,
          "Latitude": 13.10986,
          "Longitude": 80.263379,
          "stopNumberDisplay": "1.2",
          "Distance": "3.4"
        },
        {
          "StationName": "Vyasarpadi Jeeva",
          "StationCode": "VJM",
          "ArrivalTime": "22:33",
          "DepartureTime": "22:33",
          "HaltMinutes": "&nbsp;",
          "Day": 1,
          "Latitude": 13.109159,
          "Longitude": 80.257413,
          "stopNumberDisplay": "1.3",
          "Distance": "4.1"
        },
        {
          "StationName": "Perambur",
          "StationCode": "PER",
          "ArrivalTime": "22:34",
          "DepartureTime": "22:34",
          "HaltMinutes": "&nbsp;",
          "Day": 1,
          "Latitude": 13.1076988,
          "Longitude": 80.2448521,
          "stopNumberDisplay": "1.4",
          "Distance": "5.5"
        },
        {
          "StationName": "Perambur Carriage Works",
          "StationCode": "PCW",
          "ArrivalTime": "22:35",
          "DepartureTime": "22:35",
          "HaltMinutes": "&nbsp;",
          "Day": 1,
          "Latitude": 13.1074,
          "Longitude": 80.2389,
          "stopNumberDisplay": "1.5",
          "Distance": "6.1"
        },
        {
          "StationName": "Perambur Locomotive Works",
          "StationCode": "PEW",
          "ArrivalTime": "22:36",
          "DepartureTime": "22:36",
          "HaltMinutes": "&nbsp;",
          "Day": 1,
          "Latitude": 13.1084,
          "Longitude": 80.2257,
          "stopNumberDisplay": "1.6",
          "Distance": "7.5"
        },
        {
          "StationName": "Integral Coach Factory",
          "StationCode": "XX-ICF",
          "ArrivalTime": "22:36",
          "DepartureTime": "22:36",
          "HaltMinutes": "&nbsp;",
          "Day": 1,
          "Latitude": null,
          "Longitude": null,
          "stopNumberDisplay": "1.7",
          "Distance": "8.3"
        },
        {
          "StationName": "Villivakkam",
          "StationCode": "VLK",
          "ArrivalTime": "22:37",
          "DepartureTime": "22:37",
          "HaltMinutes": "&nbsp;",
          "Day": 1,
          "Latitude": 13.1101,
          "Longitude": 80.2097,
          "stopNumberDisplay": "1.8",
          "Distance": "9.3"
        },
        {
          "StationName": "Korattur",
          "StationCode": "KOTR",
          "ArrivalTime": "22:39",
          "DepartureTime": "22:39",
          "HaltMinutes": "&nbsp;",
          "Day": 1,
          "Latitude": 13.1131,
          "Longitude": 80.1838,
          "stopNumberDisplay": "1.9",
          "Distance": "12.1"
        },
        {
          "StationName": "Pattaravakkam",
          "StationCode": "PVM",
          "ArrivalTime": "22:41",
          "DepartureTime": "22:41",
          "HaltMinutes": "&nbsp;",
          "Day": 1,
          "Latitude": 13.1144,
          "Longitude": 80.1661,
          "stopNumberDisplay": "1.10",
          "Distance": "14.0"
        },
        {
          "StationName": "Ambattur",
          "StationCode": "ABU",
          "ArrivalTime": "22:42",
          "DepartureTime": "22:42",
          "HaltMinutes": "&nbsp;",
          "Day": 1,
          "Latitude": 13.114,
          "Longitude": 80.1526,
          "stopNumberDisplay": "1.11",
          "Distance": "15.5"
        },
        {
          "StationName": "Tirumullaivayil",
          "StationCode": "TMVL",
          "ArrivalTime": "22:43",
          "DepartureTime": "22:43",
          "HaltMinutes": "&nbsp;",
          "Day": 1,
          "Latitude": 13.1153,
          "Longitude": 80.1367,
          "stopNumberDisplay": "1.12",
          "Distance": "17.2"
        },
        {
          "StationName": "Annanur",
          "StationCode": "ANNR",
          "ArrivalTime": "22:44",
          "DepartureTime": "22:44",
          "HaltMinutes": "&nbsp;",
          "Day": 1,
          "Latitude": 13.1164,
          "Longitude": 80.1268,
          "stopNumberDisplay": "1.13",
          "Distance": "18.3"
        },
        {
          "StationName": "Avadi",
          "StationCode": "AVD",
          "ArrivalTime": "22:46",
          "DepartureTime": "22:46",
          "HaltMinutes": "&nbsp;",
          "Day": 1,
          "Latitude": 13.1181,
          "Longitude": 80.1016,
          "stopNumberDisplay": "1.14",
          "Distance": "21.0"
        },
        {
          "StationName": "Hindu College",
          "StationCode": "HC",
          "ArrivalTime": "22:48",
          "DepartureTime": "22:48",
          "HaltMinutes": "&nbsp;",
          "Day": 1,
          "Latitude": 13.11852,
          "Longitude": 80.074876,
          "stopNumberDisplay": "1.15",
          "Distance": "23.9"
        },
        {
          "StationName": "Pattabiram",
          "StationCode": "PAB",
          "ArrivalTime": "22:49",
          "DepartureTime": "22:49",
          "HaltMinutes": "&nbsp;",
          "Day": 1,
          "Latitude": 13.119,
          "Longitude": 80.065,
          "stopNumberDisplay": "1.16",
          "Distance": "24.9"
        },
        {
          "StationName": "Nemilichery",
          "StationCode": "NEC",
          "ArrivalTime": "22:51",
          "DepartureTime": "22:51",
          "HaltMinutes": "&nbsp;",
          "Day": 1,
          "Latitude": 13.1213,
          "Longitude": 80.0451,
          "stopNumberDisplay": "1.17",
          "Distance": "27.1"
        },
        {
          "StationName": "Tiruninravur",
          "StationCode": "TI",
          "ArrivalTime": "22:52",
          "DepartureTime": "22:52",
          "HaltMinutes": "&nbsp;",
          "Day": 1,
          "Latitude": 13.124,
          "Longitude": 80.0267,
          "stopNumberDisplay": "1.18",
          "Distance": "29.0"
        },
        {
          "StationName": "Veppampattu",
          "StationCode": "VEU",
          "ArrivalTime": "22:55",
          "DepartureTime": "22:55",
          "HaltMinutes": "&nbsp;",
          "Day": 1,
          "Latitude": 13.1237,
          "Longitude": 79.9985,
          "stopNumberDisplay": "1.19",
          "Distance": "32.3"
        },
        {
          "StationName": "Sevvapet Road",
          "StationCode": "SVR",
          "ArrivalTime": "22:58",
          "DepartureTime": "22:58",
          "HaltMinutes": "&nbsp;",
          "Day": 1,
          "Latitude": 13.1247,
          "Longitude": 79.9666,
          "stopNumberDisplay": "1.20",
          "Distance": "35.7"
        },
        {
          "StationName": "Putlur Halt",
          "StationCode": "PTLR",
          "ArrivalTime": "23:00",
          "DepartureTime": "23:00",
          "HaltMinutes": "&nbsp;",
          "Day": 1,
          "Latitude": 13.123,
          "Longitude": 79.9371,
          "stopNumberDisplay": "1.21",
          "Distance": "38.9"
        },
        {
          "StationName": "Tiruvallur",
          "StationCode": "TRL",
          "ArrivalTime": "23:02",
          "DepartureTime": "23:02",
          "HaltMinutes": "&nbsp;",
          "Day": 1,
          "Latitude": 13.1155,
          "Longitude": 79.9127,
          "stopNumberDisplay": "1.22",
          "Distance": "41.6"
        },
        {
          "StationName": "Egattur Halt",
          "StationCode": "EGT",
          "ArrivalTime": "23:05",
          "DepartureTime": "23:05",
          "HaltMinutes": "&nbsp;",
          "Day": 1,
          "Latitude": 13.1067,
          "Longitude": 79.8848,
          "stopNumberDisplay": "1.23",
          "Distance": "44.9"
        },
        {
          "StationName": "Kadambattur",
          "StationCode": "KBT",
          "ArrivalTime": "23:07",
          "DepartureTime": "23:07",
          "HaltMinutes": "&nbsp;",
          "Day": 1,
          "Latitude": 13.0998,
          "Longitude": 79.8626,
          "stopNumberDisplay": "1.24",
          "Distance": "47.3"
        },
        {
          "StationName": "Senji Panambakkam",
          "StationCode": "SPAM",
          "ArrivalTime": "23:09",
          "DepartureTime": "23:09",
          "HaltMinutes": "&nbsp;",
          "Day": 1,
          "Latitude": 13.0946,
          "Longitude": 79.8351,
          "stopNumberDisplay": "1.25",
          "Distance": "50.3"
        },
        {
          "StationName": "Manavur",
          "StationCode": "MAF",
          "ArrivalTime": "23:12",
          "DepartureTime": "23:12",
          "HaltMinutes": "&nbsp;",
          "Day": 1,
          "Latitude": 13.0963,
          "Longitude": 79.8015,
          "stopNumberDisplay": "1.26",
          "Distance": "54.1"
        },
        {
          "StationName": "Tiruvalangadu",
          "StationCode": "TO",
          "ArrivalTime": "23:15",
          "DepartureTime": "23:15",
          "HaltMinutes": "&nbsp;",
          "Day": 1,
          "Latitude": 13.0902,
          "Longitude": 79.7636,
          "stopNumberDisplay": "1.27",
          "Distance": "58.2"
        },
        {
          "StationName": "Mosur",
          "StationCode": "MSU",
          "ArrivalTime": "23:19",
          "DepartureTime": "23:19",
          "HaltMinutes": "&nbsp;",
          "Day": 1,
          "Latitude": 13.0848,
          "Longitude": 79.712,
          "stopNumberDisplay": "1.28",
          "Distance": "63.8"
        },
        {
          "StationName": "Puliyamangalam",
          "StationCode": "PLMG",
          "ArrivalTime": "23:22",
          "DepartureTime": "23:22",
          "HaltMinutes": "&nbsp;",
          "Day": 1,
          "Latitude": 13.0831,
          "Longitude": 79.685,
          "stopNumberDisplay": "1.29",
          "Distance": "66.8"
        },
        {
          "StationName": "Arakkonam Electric Loco Shed",
          "StationCode": "AJLS",
          "ArrivalTime": "23:22",
          "DepartureTime": "23:22",
          "HaltMinutes": "&nbsp;",
          "Day": 1,
          "Latitude": 13.082509,
          "Longitude": 79.67969,
          "stopNumberDisplay": "1.30",
          "Distance": "67.3"
        }
      ],
      "TrainNo": 12681,
      "StationCode": "MAS",
      "RouteNo": null,
      "StopNumber": 1,
      "TrainMappingKey": null,
      "StationName": "MGR Chennai Ctrl",
      "ArrivalTime": "",
      "DepartureTime": "22:30",
      "HaltMinutes": "",
      "Distance": "0.0",
      "HasWifi": false,
      "Day": 1,
      "DataChanged": false,
      "ExpectedPlatformNo": "9",
      "arrivalDelay": "02 Min",
      "departureDelay": "02 Min",
      "Latitude": null,
      "Longitude": null,
      "stopNumberDisplay": 1
    },
    {
      "intermediateStations": [
        {
          "StationName": "Melpakkam Cabin",
          "StationCode": "MLPM",
          "ArrivalTime": "23:27",
          "DepartureTime": "23:27",
          "HaltMinutes": "&nbsp;",
          "Day": 1,
          "Latitude": 13.0791,
          "Longitude": 79.6429,
          "stopNumberDisplay": "2.1",
          "Distance": "71.3"
        },
        {
          "StationName": "Chitteri",
          "StationCode": "CTRE",
          "ArrivalTime": "23:31",
          "DepartureTime": "23:31",
          "HaltMinutes": "&nbsp;",
          "Day": 1,
          "Latitude": 13.0682,
          "Longitude": 79.5982,
          "stopNumberDisplay": "2.2",
          "Distance": "76.4"
        },
        {
          "StationName": "Anavardikhanpettai",
          "StationCode": "AVN",
          "ArrivalTime": "23:34",
          "DepartureTime": "23:34",
          "HaltMinutes": "&nbsp;",
          "Day": 1,
          "Latitude": 13.0508,
          "Longitude": 79.5677,
          "stopNumberDisplay": "2.3",
          "Distance": "80.3"
        },
        {
          "StationName": "Mahendra Vadi",
          "StationCode": "MDVE",
          "ArrivalTime": "23:39",
          "DepartureTime": "23:39",
          "HaltMinutes": "&nbsp;",
          "Day": 1,
          "Latitude": 13.0225,
          "Longitude": 79.518,
          "stopNumberDisplay": "2.4",
          "Distance": "86.6"
        },
        {
          "StationName": "Sholinghur",
          "StationCode": "SHU",
          "ArrivalTime": "23:42",
          "DepartureTime": "23:42",
          "HaltMinutes": "&nbsp;",
          "Day": 1,
          "Latitude": 13.0144,
          "Longitude": 79.4862,
          "stopNumberDisplay": "2.5",
          "Distance": "90.0"
        },
        {
          "StationName": "Thalangai",
          "StationCode": "TUG",
          "ArrivalTime": "23:47",
          "DepartureTime": "23:47",
          "HaltMinutes": "&nbsp;",
          "Day": 1,
          "Latitude": 13.003,
          "Longitude": 79.4223,
          "stopNumberDisplay": "2.6",
          "Distance": "97.1"
        },
        {
          "StationName": "Marudalam",
          "StationCode": "MRLM",
          "ArrivalTime": "23:49",
          "DepartureTime": "23:49",
          "HaltMinutes": "&nbsp;",
          "Day": 1,
          "Latitude": 12.9981,
          "Longitude": 79.4,
          "stopNumberDisplay": "2.7",
          "Distance": "99.6"
        },
        {
          "StationName": "Walajah Road Jn",
          "StationCode": "WJR",
          "ArrivalTime": "23:54",
          "DepartureTime": "23:54",
          "HaltMinutes": "&nbsp;",
          "Day": 1,
          "Latitude": 12.970949,
          "Longitude": 79.360737,
          "stopNumberDisplay": "2.8",
          "Distance": "105.0"
        },
        {
          "StationName": "Mukundarayapuram",
          "StationCode": "MCN",
          "ArrivalTime": "00:00",
          "DepartureTime": "00:00",
          "HaltMinutes": "&nbsp;",
          "Day": 2,
          "Latitude": 12.977747,
          "Longitude": 79.290001,
          "stopNumberDisplay": "2.9",
          "Distance": "112.8"
        },
        {
          "StationName": "Tiruvalam",
          "StationCode": "THL",
          "ArrivalTime": "00:04",
          "DepartureTime": "00:04",
          "HaltMinutes": "&nbsp;",
          "Day": 2,
          "Latitude": 12.974722,
          "Longitude": 79.245622,
          "stopNumberDisplay": "2.10",
          "Distance": "117.7"
        },
        {
          "StationName": "Sevur",
          "StationCode": "SVUR",
          "ArrivalTime": "00:08",
          "DepartureTime": "00:08",
          "HaltMinutes": "&nbsp;",
          "Day": 2,
          "Latitude": 12.97201,
          "Longitude": 79.190076,
          "stopNumberDisplay": "2.11",
          "Distance": "123.8"
        }
      ],
      "TrainNo": 12681,
      "StationCode": "AJJ",
      "RouteNo": null,
      "StopNumber": 2,
      "TrainMappingKey": null,
      "StationName": "Arakkonam Jn",
      "ArrivalTime": "23:23",
      "DepartureTime": "23:25",
      "HaltMinutes": "2m",
      "Distance": "68.6",
      "HasWifi": true,
      "Day": 1,
      "DataChanged": false,
      "ExpectedPlatformNo": "1",
      "arrivalDelay": "09 Min",
      "departureDelay": "09 Min",
      "Latitude": 13.0815,
      "Longitude": 79.6679,
      "stopNumberDisplay": 2
    },
    {
      "intermediateStations": [
        {
          "StationName": "Latteri",
          "StationCode": "LTI",
          "ArrivalTime": "00:22",
          "DepartureTime": "00:22",
          "HaltMinutes": "&nbsp;",
          "Day": 2,
          "Latitude": 12.96719,
          "Longitude": 79.06633,
          "stopNumberDisplay": "3.1",
          "Distance": "137.4"
        },
        {
          "StationName": "Virinchipuram",
          "StationCode": "VJ",
          "ArrivalTime": "00:26",
          "DepartureTime": "00:26",
          "HaltMinutes": "&nbsp;",
          "Day": 2,
          "Latitude": 12.9618,
          "Longitude": 79.02875,
          "stopNumberDisplay": "3.2",
          "Distance": "141.5"
        },
        {
          "StationName": "Kavanur",
          "StationCode": "KVN",
          "ArrivalTime": "00:31",
          "DepartureTime": "00:31",
          "HaltMinutes": "&nbsp;",
          "Day": 2,
          "Latitude": 12.9491,
          "Longitude": 78.96951,
          "stopNumberDisplay": "3.3",
          "Distance": "148.1"
        },
        {
          "StationName": "Gudiyattam",
          "StationCode": "GYM",
          "ArrivalTime": "00:37",
          "DepartureTime": "00:37",
          "HaltMinutes": "&nbsp;",
          "Day": 2,
          "Latitude": 12.9372,
          "Longitude": 78.91477,
          "stopNumberDisplay": "3.4",
          "Distance": "154.1"
        },
        {
          "StationName": "Melalathur",
          "StationCode": "MEH",
          "ArrivalTime": "00:41",
          "DepartureTime": "00:41",
          "HaltMinutes": "&nbsp;",
          "Day": 2,
          "Latitude": 12.91786,
          "Longitude": 78.87548,
          "stopNumberDisplay": "3.5",
          "Distance": "159.0"
        },
        {
          "StationName": "Valathoor",
          "StationCode": "VLT",
          "ArrivalTime": "00:46",
          "DepartureTime": "00:46",
          "HaltMinutes": "&nbsp;",
          "Day": 2,
          "Latitude": 12.88976,
          "Longitude": 78.83956,
          "stopNumberDisplay": "3.6",
          "Distance": "164.0"
        },
        {
          "StationName": "Melpatti",
          "StationCode": "MPI",
          "ArrivalTime": "00:51",
          "DepartureTime": "00:51",
          "HaltMinutes": "&nbsp;",
          "Day": 2,
          "Latitude": 12.85814,
          "Longitude": 78.79537,
          "stopNumberDisplay": "3.7",
          "Distance": "170.0"
        },
        {
          "StationName": "Pachchakuppam",
          "StationCode": "PCKM",
          "ArrivalTime": "00:56",
          "DepartureTime": "00:56",
          "HaltMinutes": "&nbsp;",
          "Day": 2,
          "Latitude": 12.82334,
          "Longitude": 78.75839,
          "stopNumberDisplay": "3.8",
          "Distance": "175.7"
        },
        {
          "StationName": "Ambur",
          "StationCode": "AB",
          "ArrivalTime": "01:01",
          "DepartureTime": "01:01",
          "HaltMinutes": "&nbsp;",
          "Day": 2,
          "Latitude": 12.7841,
          "Longitude": 78.7221,
          "stopNumberDisplay": "3.9",
          "Distance": "181.7"
        },
        {
          "StationName": "Vinnamangalam",
          "StationCode": "VGM",
          "ArrivalTime": "01:08",
          "DepartureTime": "01:08",
          "HaltMinutes": "&nbsp;",
          "Day": 2,
          "Latitude": 12.72866,
          "Longitude": 78.67876,
          "stopNumberDisplay": "3.10",
          "Distance": "189.6"
        },
        {
          "StationName": "Vaniyambadi",
          "StationCode": "VN",
          "ArrivalTime": "01:16",
          "DepartureTime": "01:16",
          "HaltMinutes": "&nbsp;",
          "Day": 2,
          "Latitude": 12.67931,
          "Longitude": 78.62288,
          "stopNumberDisplay": "3.11",
          "Distance": "197.8"
        },
        {
          "StationName": "Kettandapatti",
          "StationCode": "KDY",
          "ArrivalTime": "01:24",
          "DepartureTime": "01:24",
          "HaltMinutes": "&nbsp;",
          "Day": 2,
          "Latitude": 12.62526,
          "Longitude": 78.57118,
          "stopNumberDisplay": "3.12",
          "Distance": "206.8"
        },
        {
          "StationName": "Jolarpettai Jn",
          "StationCode": "JTJ",
          "ArrivalTime": "01:30",
          "DepartureTime": "01:30",
          "HaltMinutes": "&nbsp;",
          "Day": 2,
          "Latitude": 12.563063,
          "Longitude": 78.577611,
          "stopNumberDisplay": "3.13",
          "Distance": "214.1"
        },
        {
          "StationName": "Jolarpettai Chord Cabin",
          "StationCode": "XX-JTJC",
          "ArrivalTime": "01:34",
          "DepartureTime": "01:34",
          "HaltMinutes": "&nbsp;",
          "Day": 2,
          "Latitude": 12.52485,
          "Longitude": 78.56825,
          "stopNumberDisplay": "3.14",
          "Distance": "218.5"
        },
        {
          "StationName": "Tirupattur",
          "StationCode": "TPT",
          "ArrivalTime": "01:37",
          "DepartureTime": "01:37",
          "HaltMinutes": "&nbsp;",
          "Day": 2,
          "Latitude": 12.4979,
          "Longitude": 78.5616,
          "stopNumberDisplay": "3.15",
          "Distance": "221.5"
        },
        {
          "StationName": "Molakarampatti",
          "StationCode": "MOLK",
          "ArrivalTime": "01:41",
          "DepartureTime": "01:41",
          "HaltMinutes": "&nbsp;",
          "Day": 2,
          "Latitude": 12.4639,
          "Longitude": 78.5398,
          "stopNumberDisplay": "3.16",
          "Distance": "226.4"
        },
        {
          "StationName": "Kagankarai",
          "StationCode": "KEY",
          "ArrivalTime": "01:47",
          "DepartureTime": "01:47",
          "HaltMinutes": "&nbsp;",
          "Day": 2,
          "Latitude": 12.4126,
          "Longitude": 78.5098,
          "stopNumberDisplay": "3.17",
          "Distance": "232.9"
        },
        {
          "StationName": "Kunnathur",
          "StationCode": "KNNT",
          "ArrivalTime": "01:52",
          "DepartureTime": "01:52",
          "HaltMinutes": "&nbsp;",
          "Day": 2,
          "Latitude": 12.3605,
          "Longitude": 78.4974,
          "stopNumberDisplay": "3.18",
          "Distance": "238.6"
        },
        {
          "StationName": "Samalpatti",
          "StationCode": "SLY",
          "ArrivalTime": "01:57",
          "DepartureTime": "01:57",
          "HaltMinutes": "&nbsp;",
          "Day": 2,
          "Latitude": 12.3118,
          "Longitude": 78.4839,
          "stopNumberDisplay": "3.19",
          "Distance": "244.8"
        },
        {
          "StationName": "Dasampatti",
          "StationCode": "DST",
          "ArrivalTime": "02:05",
          "DepartureTime": "02:05",
          "HaltMinutes": "&nbsp;",
          "Day": 2,
          "Latitude": 12.2512,
          "Longitude": 78.4388,
          "stopNumberDisplay": "3.20",
          "Distance": "253.3"
        },
        {
          "StationName": "Doddampatti",
          "StationCode": "DPI",
          "ArrivalTime": "02:12",
          "DepartureTime": "02:12",
          "HaltMinutes": "&nbsp;",
          "Day": 2,
          "Latitude": 12.1815,
          "Longitude": 78.4224,
          "stopNumberDisplay": "3.21",
          "Distance": "261.6"
        },
        {
          "StationName": "Morappur",
          "StationCode": "MAP",
          "ArrivalTime": "02:19",
          "DepartureTime": "02:19",
          "HaltMinutes": "&nbsp;",
          "Day": 2,
          "Latitude": 12.124,
          "Longitude": 78.3938,
          "stopNumberDisplay": "3.22",
          "Distance": "268.7"
        },
        {
          "StationName": "Thonganur",
          "StationCode": "TNGR",
          "ArrivalTime": "02:24",
          "DepartureTime": "02:24",
          "HaltMinutes": "&nbsp;",
          "Day": 2,
          "Latitude": 12.082164,
          "Longitude": 78.358536,
          "stopNumberDisplay": "3.23",
          "Distance": "274.9"
        },
        {
          "StationName": "Buddireddipatti",
          "StationCode": "BDY",
          "ArrivalTime": "02:30",
          "DepartureTime": "02:30",
          "HaltMinutes": "&nbsp;",
          "Day": 2,
          "Latitude": 12.0451,
          "Longitude": 78.3126,
          "stopNumberDisplay": "3.24",
          "Distance": "281.3"
        },
        {
          "StationName": "Bommidi",
          "StationCode": "BQI",
          "ArrivalTime": "02:39",
          "DepartureTime": "02:39",
          "HaltMinutes": "&nbsp;",
          "Day": 2,
          "Latitude": 11.9841,
          "Longitude": 78.2457,
          "stopNumberDisplay": "3.25",
          "Distance": "291.3"
        },
        {
          "StationName": "Lokur",
          "StationCode": "LCR",
          "ArrivalTime": "02:48",
          "DepartureTime": "02:48",
          "HaltMinutes": "&nbsp;",
          "Day": 2,
          "Latitude": 11.9281,
          "Longitude": 78.1744,
          "stopNumberDisplay": "3.26",
          "Distance": "301.5"
        },
        {
          "StationName": "Danishpet",
          "StationCode": "DSPT",
          "ArrivalTime": "02:56",
          "DepartureTime": "02:56",
          "HaltMinutes": "&nbsp;",
          "Day": 2,
          "Latitude": 11.859,
          "Longitude": 78.1382,
          "stopNumberDisplay": "3.27",
          "Distance": "310.8"
        },
        {
          "StationName": "Tinnappatti",
          "StationCode": "TNT",
          "ArrivalTime": "03:02",
          "DepartureTime": "03:02",
          "HaltMinutes": "&nbsp;",
          "Day": 2,
          "Latitude": 11.812,
          "Longitude": 78.0982,
          "stopNumberDisplay": "3.28",
          "Distance": "317.9"
        },
        {
          "StationName": "Karuppur",
          "StationCode": "KPPR",
          "ArrivalTime": "03:11",
          "DepartureTime": "03:11",
          "HaltMinutes": "&nbsp;",
          "Day": 2,
          "Latitude": 11.724,
          "Longitude": 78.0903,
          "stopNumberDisplay": "3.29",
          "Distance": "328.0"
        },
        {
          "StationName": "Magnesite Bypass Cabin",
          "StationCode": "XX-MGSJB",
          "ArrivalTime": "03:13",
          "DepartureTime": "03:13",
          "HaltMinutes": "&nbsp;",
          "Day": 2,
          "Latitude": 11.70332,
          "Longitude": 78.09336,
          "stopNumberDisplay": "3.30",
          "Distance": "330.3"
        },
        {
          "StationName": "Magnesite Jn",
          "StationCode": "MGSJ",
          "ArrivalTime": "03:14",
          "DepartureTime": "03:14",
          "HaltMinutes": "&nbsp;",
          "Day": 2,
          "Latitude": 11.696,
          "Longitude": 78.0963,
          "stopNumberDisplay": "3.31",
          "Distance": "331.2"
        },
        {
          "StationName": "Salem Outer Cabin A",
          "StationCode": "XX-SAOC",
          "ArrivalTime": "03:17",
          "DepartureTime": "03:17",
          "HaltMinutes": "&nbsp;",
          "Day": 2,
          "Latitude": null,
          "Longitude": null,
          "stopNumberDisplay": "3.32",
          "Distance": "334.0"
        }
      ],
      "TrainNo": 12681,
      "StationCode": "KPD",
      "RouteNo": null,
      "StopNumber": 3,
      "TrainMappingKey": null,
      "StationName": "Katpadi Jn",
      "ArrivalTime": "00:13",
      "DepartureTime": "00:15",
      "HaltMinutes": "2m",
      "Distance": "129.6",
      "HasWifi": true,
      "Day": 2,
      "DataChanged": false,
      "ExpectedPlatformNo": "1",
      "arrivalDelay": "05 Min",
      "departureDelay": "05 Min",
      "Latitude": 12.97195,
      "Longitude": 79.13812,
      "stopNumberDisplay": 3
    },
    {
      "intermediateStations": [
        {
          "StationName": "Neykkarapatti",
          "StationCode": "NEA",
          "ArrivalTime": "03:26",
          "DepartureTime": "03:26",
          "HaltMinutes": "&nbsp;",
          "Day": 2,
          "Latitude": 11.6128,
          "Longitude": 78.0967,
          "stopNumberDisplay": "4.1",
          "Distance": "341.7"
        },
        {
          "StationName": "Virapandy Road",
          "StationCode": "VRPD",
          "ArrivalTime": "03:29",
          "DepartureTime": "03:29",
          "HaltMinutes": "&nbsp;",
          "Day": 2,
          "Latitude": 11.5968,
          "Longitude": 78.0744,
          "stopNumberDisplay": "4.2",
          "Distance": "344.7"
        },
        {
          "StationName": "Makudan Virapandi Block Hut",
          "StationCode": "DVBH",
          "ArrivalTime": "03:32",
          "DepartureTime": "03:32",
          "HaltMinutes": "&nbsp;",
          "Day": 2,
          "Latitude": 11.5804,
          "Longitude": 78.0376,
          "stopNumberDisplay": "4.3",
          "Distance": "349.1"
        },
        {
          "StationName": "Magudanchavadi",
          "StationCode": "DC",
          "ArrivalTime": "03:38",
          "DepartureTime": "03:38",
          "HaltMinutes": "&nbsp;",
          "Day": 2,
          "Latitude": 11.551,
          "Longitude": 77.9876,
          "stopNumberDisplay": "4.4",
          "Distance": "355.5"
        },
        {
          "StationName": "Mavelipalaiyam",
          "StationCode": "MVPM",
          "ArrivalTime": "03:48",
          "DepartureTime": "03:48",
          "HaltMinutes": "&nbsp;",
          "Day": 2,
          "Latitude": 11.4809,
          "Longitude": 77.8995,
          "stopNumberDisplay": "4.5",
          "Distance": "368.1"
        },
        {
          "StationName": "Sankaridurg",
          "StationCode": "SGE",
          "ArrivalTime": "03:52",
          "DepartureTime": "03:52",
          "HaltMinutes": "&nbsp;",
          "Day": 2,
          "Latitude": 11.4462,
          "Longitude": 77.8704,
          "stopNumberDisplay": "4.6",
          "Distance": "373.2"
        },
        {
          "StationName": "Anangur",
          "StationCode": "ANU",
          "ArrivalTime": "03:59",
          "DepartureTime": "03:59",
          "HaltMinutes": "&nbsp;",
          "Day": 2,
          "Latitude": 11.3986,
          "Longitude": 77.8212,
          "stopNumberDisplay": "4.7",
          "Distance": "380.8"
        },
        {
          "StationName": "Cauvery",
          "StationCode": "CV",
          "ArrivalTime": "04:06",
          "DepartureTime": "04:06",
          "HaltMinutes": "&nbsp;",
          "Day": 2,
          "Latitude": 11.3507,
          "Longitude": 77.7607,
          "stopNumberDisplay": "4.8",
          "Distance": "389.3"
        }
      ],
      "TrainNo": 12681,
      "StationCode": "SA",
      "RouteNo": null,
      "StopNumber": 4,
      "TrainMappingKey": null,
      "StationName": "Salem Jn",
      "ArrivalTime": "03:17",
      "DepartureTime": "03:20",
      "HaltMinutes": "3m",
      "Distance": "334.5",
      "HasWifi": true,
      "Day": 2,
      "DataChanged": false,
      "ExpectedPlatformNo": null,
      "arrivalDelay": "01 Min",
      "departureDelay": "01 Min",
      "Latitude": 11.6705,
      "Longitude": 78.1132,
      "stopNumberDisplay": 4
    },
    {
      "intermediateStations": [
        {
          "StationName": "Erode Diesel Loco Shed",
          "StationCode": "ED-DLS",
          "ArrivalTime": "04:16",
          "DepartureTime": "04:16",
          "HaltMinutes": "&nbsp;",
          "Day": 2,
          "Latitude": 11.3239,
          "Longitude": 77.71841,
          "stopNumberDisplay": "5.1",
          "Distance": "395.2"
        },
        {
          "StationName": "Totiyapalayam",
          "StationCode": "TPM",
          "ArrivalTime": "04:21",
          "DepartureTime": "04:21",
          "HaltMinutes": "&nbsp;",
          "Day": 2,
          "Latitude": 11.2918,
          "Longitude": 77.681,
          "stopNumberDisplay": "5.2",
          "Distance": "400.7"
        },
        {
          "StationName": "Perundurai",
          "StationCode": "PY",
          "ArrivalTime": "04:27",
          "DepartureTime": "04:27",
          "HaltMinutes": "&nbsp;",
          "Day": 2,
          "Latitude": 11.2535,
          "Longitude": 77.6288,
          "stopNumberDisplay": "5.3",
          "Distance": "407.8"
        },
        {
          "StationName": "Ingur",
          "StationCode": "IGR",
          "ArrivalTime": "04:31",
          "DepartureTime": "04:31",
          "HaltMinutes": "&nbsp;",
          "Day": 2,
          "Latitude": 11.2253,
          "Longitude": 77.5873,
          "stopNumberDisplay": "5.4",
          "Distance": "413.3"
        },
        {
          "StationName": "Vijayamangalam",
          "StationCode": "VZ",
          "ArrivalTime": "04:38",
          "DepartureTime": "04:38",
          "HaltMinutes": "&nbsp;",
          "Day": 2,
          "Latitude": 11.1962,
          "Longitude": 77.5223,
          "stopNumberDisplay": "5.5",
          "Distance": "421.2"
        },
        {
          "StationName": "Uttukuli",
          "StationCode": "UKL",
          "ArrivalTime": "04:46",
          "DepartureTime": "04:46",
          "HaltMinutes": "&nbsp;",
          "Day": 2,
          "Latitude": 11.1564,
          "Longitude": 77.4477,
          "stopNumberDisplay": "5.6",
          "Distance": "430.6"
        },
        {
          "StationName": "Tiruppur Kulipalayam",
          "StationCode": "KUY",
          "ArrivalTime": "04:52",
          "DepartureTime": "04:52",
          "HaltMinutes": "&nbsp;",
          "Day": 2,
          "Latitude": 11.1445,
          "Longitude": 77.3901,
          "stopNumberDisplay": "5.7",
          "Distance": "437.3"
        }
      ],
      "TrainNo": 12681,
      "StationCode": "ED",
      "RouteNo": null,
      "StopNumber": 5,
      "TrainMappingKey": null,
      "StationName": "Erode Jn",
      "ArrivalTime": "04:10",
      "DepartureTime": "04:15",
      "HaltMinutes": "5m",
      "Distance": "394.2",
      "HasWifi": true,
      "Day": 2,
      "DataChanged": false,
      "ExpectedPlatformNo": "2",
      "arrivalDelay": "12 Min",
      "departureDelay": "12 Min",
      "Latitude": 11.3278,
      "Longitude": 77.726,
      "stopNumberDisplay": 5
    },
    {
      "intermediateStations": [
        {
          "StationName": "Vanjipalaiyam",
          "StationCode": "VNJ",
          "ArrivalTime": "05:08",
          "DepartureTime": "05:08",
          "HaltMinutes": "&nbsp;",
          "Day": 2,
          "Latitude": 11.118,
          "Longitude": 77.266,
          "stopNumberDisplay": "6.1",
          "Distance": "452.6"
        },
        {
          "StationName": "Somanur",
          "StationCode": "SNO",
          "ArrivalTime": "05:18",
          "DepartureTime": "05:18",
          "HaltMinutes": "&nbsp;",
          "Day": 2,
          "Latitude": 11.087,
          "Longitude": 77.1859,
          "stopNumberDisplay": "6.2",
          "Distance": "462.1"
        },
        {
          "StationName": "Sulur Road",
          "StationCode": "SUU",
          "ArrivalTime": "05:27",
          "DepartureTime": "05:27",
          "HaltMinutes": "&nbsp;",
          "Day": 2,
          "Latitude": 11.0495,
          "Longitude": 77.1172,
          "stopNumberDisplay": "6.3",
          "Distance": "470.7"
        },
        {
          "StationName": "Irugur Jn",
          "StationCode": "IGU",
          "ArrivalTime": "05:33",
          "DepartureTime": "05:33",
          "HaltMinutes": "&nbsp;",
          "Day": 2,
          "Latitude": 11.0169,
          "Longitude": 77.0689,
          "stopNumberDisplay": "6.4",
          "Distance": "477.1"
        },
        {
          "StationName": "Singanallur",
          "StationCode": "SHI",
          "ArrivalTime": "05:37",
          "DepartureTime": "05:37",
          "HaltMinutes": "&nbsp;",
          "Day": 2,
          "Latitude": 11.0128,
          "Longitude": 77.0391,
          "stopNumberDisplay": "6.5",
          "Distance": "480.7"
        },
        {
          "StationName": "Pilamedu",
          "StationCode": "PLMD",
          "ArrivalTime": "05:42",
          "DepartureTime": "05:42",
          "HaltMinutes": "&nbsp;",
          "Day": 2,
          "Latitude": 11.0329,
          "Longitude": 77.0006,
          "stopNumberDisplay": "6.6",
          "Distance": "485.6"
        }
      ],
      "TrainNo": 12681,
      "StationCode": "TUP",
      "RouteNo": null,
      "StopNumber": 6,
      "TrainMappingKey": null,
      "StationName": "Tiruppur",
      "ArrivalTime": "04:58",
      "DepartureTime": "05:00",
      "HaltMinutes": "2m",
      "Distance": "444.5",
      "HasWifi": true,
      "Day": 2,
      "DataChanged": false,
      "ExpectedPlatformNo": "1",
      "arrivalDelay": "07 Min",
      "departureDelay": "07 Min",
      "Latitude": 11.1087,
      "Longitude": 77.3398,
      "stopNumberDisplay": 6
    },
    {
      "intermediateStations": [],
      "TrainNo": 12681,
      "StationCode": "CBF",
      "RouteNo": null,
      "StopNumber": 7,
      "TrainMappingKey": null,
      "StationName": "Coimbatore North",
      "ArrivalTime": "05:48",
      "DepartureTime": "05:50",
      "HaltMinutes": "2m",
      "Distance": "492.0",
      "HasWifi": false,
      "Day": 2,
      "DataChanged": false,
      "ExpectedPlatformNo": null,
      "arrivalDelay": "13 Min",
      "departureDelay": "13 Min",
      "Latitude": null,
      "Longitude": null,
      "stopNumberDisplay": 7
    },
    {
      "intermediateStations": [],
      "TrainNo": 12681,
      "StationCode": "CBE",
      "RouteNo": null,
      "StopNumber": 8,
      "TrainMappingKey": null,
      "StationName": "Coimbatore Jn",
      "ArrivalTime": "06:30",
      "DepartureTime": "",
      "HaltMinutes": "",
      "Distance": "495.0",
      "HasWifi": false,
      "Day": 2,
      "DataChanged": false,
      "ExpectedPlatformNo": null,
      "arrivalDelay": "01 Min",
      "departureDelay": "01 Min",
      "Latitude": null,
      "Longitude": null,
      "stopNumberDisplay": 8
    }
  ],
  "Source": "Chennai Central",
  "Destination": "Coimbatore Main Junction",
  "SourceCode": "MAS",
  "DestinationCode": "CBE",
  "DaysOfRun": {
    "Sun": false,
    "Mon": false,
    "Tue": false,
    "Wed": false,
    "Thu": false,
    "Fri": false,
    "Sat": true
  },
  "FooterText": null,
  "TrainType": null,
  "IsUnreserved": false,
  "Rating": 4.2,
  "FoodRating": 3.7,
  "PunctualityRating": 4,
  "CleanlinessRating": 4.4,
  "RatingCount": 265,
  "TotalDuration": "8:0",
  "FromCity": "CHENNAI",
  "ToCity": "COIMBATORE",
  "CacheTime": "2024-03-08T19:35:43.2370564+05:30",
  "HasPantry": false,
  "ErrorMsg": null
}