{
  "TrainName": "GOUR EXPRESS",
  "TrainNo": 13153,
  "TrainNumberString": null,
  "CoachPosition": "L SLR GEN S1 S2 S3 A1 B1 B2 A2 A3 H1 S4 S5 S6 S7 S8 S9 S10 S11 S12 SE1 GEN SLR",
  "Classes": [
    "1A",
    "2A",
    "3A",
    "SL"
  ],
  "Schedule": [
    {
      "intermediateStations": [
        {
          "StationName": "Narkeldanga Coaching Yard",
          "StationCode": "NKG",
          "ArrivalTime": "22:18",
          "DepartureTime": "22:18",
          "HaltMinutes": "&nbsp;",
          "Day": 1,
          "Latitude": 22.57194,
          "Longitude": 88.38014,
          "stopNumberDisplay": "1.1",
          "Distance": "1.2"
        },
        {
          "StationName": "Kankurgachhi Road Cabin",
          "StationCode": "KGK",
          "ArrivalTime": "22:20",
          "DepartureTime": "22:20",
          "HaltMinutes": "&nbsp;",
          "Day": 1,
          "Latitude": 22.5791,
          "Longitude": 88.3863,
          "stopNumberDisplay": "1.2",
          "Distance": "2.0"
        }
      ],
      "TrainNo": 13153,
      "StationCode": "SDAH",
      "RouteNo": null,
      "StopNumber": 1,
      "TrainMappingKey": null,
      "StationName": "Sealdah",
      "ArrivalTime": "",
      "DepartureTime": "22:15",
      "HaltMinutes": "",
      "Distance": "0.0",
      "HasWifi": false,
      "Day": 1,
      "DataChanged": false,
      "ExpectedPlatformNo": "8",
      "arrivalDelay": "01 Min",
      "departureDelay": "01 Min",
      "Latitude": null,
      "Longitude": null,
      "stopNumberDisplay": 1
    },
    {
      "intermediateStations": [
        {
          "StationName": "Dum Dum Jn",
          "StationCode": "DDJ",
          "ArrivalTime": "22:28",
          "DepartureTime": "22:28",
          "HaltMinutes": "&nbsp;",
          "Day": 1,
          "Latitude": 22.62066,
          "Longitude": 88.39323,
          "stopNumberDisplay": "2.1",
          "Distance": "6.8"
        },
        {
          "StationName": "Belgharia",
          "StationCode": "BLH",
          "ArrivalTime": "22:33",
          "DepartureTime": "22:33",
          "HaltMinutes": "&nbsp;",
          "Day": 1,
          "Latitude": 22.6612,
          "Longitude": 88.3893,
          "stopNumberDisplay": "2.2",
          "Distance": "11.4"
        },
        {
          "StationName": "Agarpara",
          "StationCode": "AGP",
          "ArrivalTime": "22:35",
          "DepartureTime": "22:35",
          "HaltMinutes": "&nbsp;",
          "Day": 1,
          "Latitude": 22.6828,
          "Longitude": 88.3853,
          "stopNumberDisplay": "2.3",
          "Distance": "13.8"
        },
        {
          "StationName": "Sodpur",
          "StationCode": "SEP",
          "ArrivalTime": "22:37",
          "DepartureTime": "22:37",
          "HaltMinutes": "&nbsp;",
          "Day": 1,
          "Latitude": 22.6991,
          "Longitude": 88.3824,
          "stopNumberDisplay": "2.4",
          "Distance": "15.6"
        },
        {
          "StationName": "Khardaha",
          "StationCode": "KDH",
          "ArrivalTime": "22:40",
          "DepartureTime": "22:40",
          "HaltMinutes": "&nbsp;",
          "Day": 1,
          "Latitude": 22.7254,
          "Longitude": 88.3776,
          "stopNumberDisplay": "2.5",
          "Distance": "18.5"
        },
        {
          "StationName": "Titagarh",
          "StationCode": "TGH",
          "ArrivalTime": "22:42",
          "DepartureTime": "22:42",
          "HaltMinutes": "&nbsp;",
          "Day": 1,
          "Latitude": 22.7419,
          "Longitude": 88.3746,
          "stopNumberDisplay": "2.6",
          "Distance": "20.4"
        },
        {
          "StationName": "Barrackpore",
          "StationCode": "BP",
          "ArrivalTime": "22:44",
          "DepartureTime": "22:44",
          "HaltMinutes": "&nbsp;",
          "Day": 1,
          "Latitude": 22.7607,
          "Longitude": 88.3711,
          "stopNumberDisplay": "2.7",
          "Distance": "22.5"
        },
        {
          "StationName": "Palta",
          "StationCode": "PTF",
          "ArrivalTime": "22:47",
          "DepartureTime": "22:47",
          "HaltMinutes": "&nbsp;",
          "Day": 1,
          "Latitude": 22.7829,
          "Longitude": 88.3703,
          "stopNumberDisplay": "2.8",
          "Distance": "25.0"
        },
        {
          "StationName": "Ichhapur",
          "StationCode": "IP",
          "ArrivalTime": "22:49",
          "DepartureTime": "22:49",
          "HaltMinutes": "&nbsp;",
          "Day": 1,
          "Latitude": 22.8,
          "Longitude": 88.3739,
          "stopNumberDisplay": "2.9",
          "Distance": "27.0"
        },
        {
          "StationName": "Shyamnagar",
          "StationCode": "SNR",
          "ArrivalTime": "22:52",
          "DepartureTime": "22:52",
          "HaltMinutes": "&nbsp;",
          "Day": 1,
          "Latitude": 22.8287,
          "Longitude": 88.3805,
          "stopNumberDisplay": "2.10",
          "Distance": "30.2"
        },
        {
          "StationName": "Jagaddal",
          "StationCode": "JGDL",
          "ArrivalTime": "22:55",
          "DepartureTime": "22:55",
          "HaltMinutes": "&nbsp;",
          "Day": 1,
          "Latitude": 22.8514,
          "Longitude": 88.3954,
          "stopNumberDisplay": "2.11",
          "Distance": "33.2"
        },
        {
          "StationName": "Kankinara",
          "StationCode": "KNR",
          "ArrivalTime": "22:57",
          "DepartureTime": "22:57",
          "HaltMinutes": "&nbsp;",
          "Day": 1,
          "Latitude": 22.8654,
          "Longitude": 88.405,
          "stopNumberDisplay": "2.12",
          "Distance": "35.1"
        },
        {
          "StationName": "ER Store Depot Naihati",
          "StationCode": "ESDS",
          "ArrivalTime": "22:58",
          "DepartureTime": "22:58",
          "HaltMinutes": "&nbsp;",
          "Day": 1,
          "Latitude": 22.87541,
          "Longitude": 88.41096,
          "stopNumberDisplay": "2.13",
          "Distance": "36.3"
        },
        {
          "StationName": "Naihati Yard",
          "StationCode": "NHYD",
          "ArrivalTime": "22:59",
          "DepartureTime": "22:59",
          "HaltMinutes": "&nbsp;",
          "Day": 1,
          "Latitude": null,
          "Longitude": null,
          "stopNumberDisplay": "2.14",
          "Distance": "36.6"
        },
        {
          "StationName": "Naihati South Cabin",
          "StationCode": "NHS",
          "ArrivalTime": "23:00",
          "DepartureTime": "23:00",
          "HaltMinutes": "&nbsp;",
          "Day": 1,
          "Latitude": null,
          "Longitude": null,
          "stopNumberDisplay": "2.15",
          "Distance": "37.5"
        }
      ],
      "TrainNo": 13153,
      "StationCode": "BNXR",
      "RouteNo": null,
      "StopNumber": 2,
      "TrainMappingKey": null,
      "StationName": "Bidhan Nagar Road",
      "ArrivalTime": "22:24",
      "DepartureTime": "22:25",
      "HaltMinutes": "1m",
      "Distance": "3.6",
      "HasWifi": false,
      "Day": 1,
      "DataChanged": false,
      "ExpectedPlatformNo": "2",
      "arrivalDelay": "03 Min",
      "departureDelay": "03 Min",
      "Latitude": 22.5923,
      "Longitude": 88.391,
      "stopNumberDisplay": 2
    },
    {
      "intermediateStations": [
        {
          "StationName": "Naihati Link Cabin",
          "StationCode": "NHLC",
          "ArrivalTime": "23:13",
          "DepartureTime": "23:13",
          "HaltMinutes": "&nbsp;",
          "Day": 1,
          "Latitude": null,
          "Longitude": null,
          "stopNumberDisplay": "3.1",
          "Distance": "40.1"
        },
        {
          "StationName": "Garifa",
          "StationCode": "GFAE",
          "ArrivalTime": "23:16",
          "DepartureTime": "23:16",
          "HaltMinutes": "&nbsp;",
          "Day": 1,
          "Latitude": 22.90837,
          "Longitude": 88.41261,
          "stopNumberDisplay": "3.2",
          "Distance": "40.7"
        },
        {
          "StationName": "Hooghly Ghat",
          "StationCode": "HYG",
          "ArrivalTime": "23:24",
          "DepartureTime": "23:24",
          "HaltMinutes": "&nbsp;",
          "Day": 1,
          "Latitude": 22.90521,
          "Longitude": 88.39752,
          "stopNumberDisplay": "3.3",
          "Distance": "42.4"
        }
      ],
      "TrainNo": 13153,
      "StationCode": "NH",
      "RouteNo": null,
      "StopNumber": 3,
      "TrainMappingKey": null,
      "StationName": "Naihati Jn",
      "ArrivalTime": "23:00",
      "DepartureTime": "23:03",
      "HaltMinutes": "3m",
      "Distance": "37.8",
      "HasWifi": true,
      "Day": 1,
      "DataChanged": false,
      "ExpectedPlatformNo": "5",
      "arrivalDelay": "04 Min",
      "departureDelay": "04 Min",
      "Latitude": 22.888,
      "Longitude": 88.4183,
      "stopNumberDisplay": 3
    },
    {
      "intermediateStations": [
        {
          "StationName": "Adi Saptagram",
          "StationCode": "ADST",
          "ArrivalTime": "23:49",
          "DepartureTime": "23:49",
          "HaltMinutes": "&nbsp;",
          "Day": 1,
          "Latitude": 22.9548,
          "Longitude": 88.3791,
          "stopNumberDisplay": "4.1",
          "Distance": "49.7"
        },
        {
          "StationName": "Magra",
          "StationCode": "MUG",
          "ArrivalTime": "23:53",
          "DepartureTime": "23:53",
          "HaltMinutes": "&nbsp;",
          "Day": 1,
          "Latitude": 22.98488,
          "Longitude": 88.36755,
          "stopNumberDisplay": "4.2",
          "Distance": "53.1"
        },
        {
          "StationName": "Talandu",
          "StationCode": "TLO",
          "ArrivalTime": "23:57",
          "DepartureTime": "23:57",
          "HaltMinutes": "&nbsp;",
          "Day": 1,
          "Latitude": 23.0102,
          "Longitude": 88.3457,
          "stopNumberDisplay": "4.3",
          "Distance": "56.9"
        },
        {
          "StationName": "Khanyan",
          "StationCode": "KHN",
          "ArrivalTime": "00:03",
          "DepartureTime": "00:03",
          "HaltMinutes": "&nbsp;",
          "Day": 2,
          "Latitude": 23.0468,
          "Longitude": 88.3151,
          "stopNumberDisplay": "4.4",
          "Distance": "62.0"
        },
        {
          "StationName": "Pundooah",
          "StationCode": "PDA",
          "ArrivalTime": "00:09",
          "DepartureTime": "00:09",
          "HaltMinutes": "&nbsp;",
          "Day": 2,
          "Latitude": 23.0707,
          "Longitude": 88.2695,
          "stopNumberDisplay": "4.5",
          "Distance": "67.5"
        },
        {
          "StationName": "Simlagarh",
          "StationCode": "SLG",
          "ArrivalTime": "00:14",
          "DepartureTime": "00:14",
          "HaltMinutes": "&nbsp;",
          "Day": 2,
          "Latitude": 23.0959,
          "Longitude": 88.2313,
          "stopNumberDisplay": "4.6",
          "Distance": "72.3"
        },
        {
          "StationName": "Bainchigram",
          "StationCode": "BCGM",
          "ArrivalTime": "00:16",
          "DepartureTime": "00:16",
          "HaltMinutes": "&nbsp;",
          "Day": 2,
          "Latitude": 23.1062,
          "Longitude": 88.2166,
          "stopNumberDisplay": "4.7",
          "Distance": "74.2"
        },
        {
          "StationName": "Bainchi",
          "StationCode": "BOI",
          "ArrivalTime": "00:19",
          "DepartureTime": "00:19",
          "HaltMinutes": "&nbsp;",
          "Day": 2,
          "Latitude": 23.1194,
          "Longitude": 88.1968,
          "stopNumberDisplay": "4.8",
          "Distance": "76.7"
        },
        {
          "StationName": "Debipur",
          "StationCode": "DBP",
          "ArrivalTime": "00:24",
          "DepartureTime": "00:24",
          "HaltMinutes": "&nbsp;",
          "Day": 2,
          "Latitude": 23.1432,
          "Longitude": 88.1581,
          "stopNumberDisplay": "4.9",
          "Distance": "81.4"
        },
        {
          "StationName": "Bagila",
          "StationCode": "BGF",
          "ArrivalTime": "00:29",
          "DepartureTime": "00:29",
          "HaltMinutes": "&nbsp;",
          "Day": 2,
          "Latitude": 23.1603,
          "Longitude": 88.1222,
          "stopNumberDisplay": "4.10",
          "Distance": "85.6"
        },
        {
          "StationName": "Memari",
          "StationCode": "MYM",
          "ArrivalTime": "00:32",
          "DepartureTime": "00:32",
          "HaltMinutes": "&nbsp;",
          "Day": 2,
          "Latitude": 23.1724,
          "Longitude": 88.0961,
          "stopNumberDisplay": "4.11",
          "Distance": "88.5"
        },
        {
          "StationName": "Nimo",
          "StationCode": "NMF",
          "ArrivalTime": "00:35",
          "DepartureTime": "00:35",
          "HaltMinutes": "&nbsp;",
          "Day": 2,
          "Latitude": 23.1806,
          "Longitude": 88.0697,
          "stopNumberDisplay": "4.12",
          "Distance": "91.4"
        },
        {
          "StationName": "Rasulpur",
          "StationCode": "RSLR",
          "ArrivalTime": "00:39",
          "DepartureTime": "00:39",
          "HaltMinutes": "&nbsp;",
          "Day": 2,
          "Latitude": 23.1876,
          "Longitude": 88.0406,
          "stopNumberDisplay": "4.13",
          "Distance": "94.5"
        },
        {
          "StationName": "Palsit",
          "StationCode": "PLAE",
          "ArrivalTime": "00:43",
          "DepartureTime": "00:43",
          "HaltMinutes": "&nbsp;",
          "Day": 2,
          "Latitude": 23.1966,
          "Longitude": 88.0032,
          "stopNumberDisplay": "4.14",
          "Distance": "98.4"
        },
        {
          "StationName": "Saktigarh",
          "StationCode": "SKG",
          "ArrivalTime": "00:47",
          "DepartureTime": "00:47",
          "HaltMinutes": "&nbsp;",
          "Day": 2,
          "Latitude": 23.207,
          "Longitude": 87.9691,
          "stopNumberDisplay": "4.15",
          "Distance": "102.1"
        },
        {
          "StationName": "Gangpur",
          "StationCode": "GRP",
          "ArrivalTime": "00:52",
          "DepartureTime": "00:52",
          "HaltMinutes": "&nbsp;",
          "Day": 2,
          "Latitude": 23.2232,
          "Longitude": 87.9279,
          "stopNumberDisplay": "4.16",
          "Distance": "106.7"
        },
        {
          "StationName": "Barddhaman UP Yard",
          "StationCode": "BWNU",
          "ArrivalTime": "00:58",
          "DepartureTime": "00:58",
          "HaltMinutes": "&nbsp;",
          "Day": 2,
          "Latitude": null,
          "Longitude": null,
          "stopNumberDisplay": "4.17",
          "Distance": "112.0"
        }
      ],
      "TrainNo": 13153,
      "StationCode": "BDC",
      "RouteNo": null,
      "StopNumber": 4,
      "TrainMappingKey": null,
      "StationName": "Bandel Jn",
      "ArrivalTime": "23:40",
      "DepartureTime": "23:45",
      "HaltMinutes": "5m",
      "Distance": "46.1",
      "HasWifi": true,
      "Day": 1,
      "DataChanged": false,
      "ExpectedPlatformNo": "1",
      "arrivalDelay": "02 Min",
      "departureDelay": "02 Min",
      "Latitude": 22.9226,
      "Longitude": 88.3782,
      "stopNumberDisplay": 4
    },
    {
      "intermediateStations": [
        {
          "StationName": "Talit",
          "StationCode": "TIT",
          "ArrivalTime": "01:12",
          "DepartureTime": "01:12",
          "HaltMinutes": "&nbsp;",
          "Day": 2,
          "Latitude": 23.2933,
          "Longitude": 87.8191,
          "stopNumberDisplay": "5.1",
          "Distance": "120.8"
        },
        {
          "StationName": "Khana Jn",
          "StationCode": "KAN",
          "ArrivalTime": "01:17",
          "DepartureTime": "01:17",
          "HaltMinutes": "&nbsp;",
          "Day": 2,
          "Latitude": 23.321,
          "Longitude": 87.7702,
          "stopNumberDisplay": "5.2",
          "Distance": "126.7"
        },
        {
          "StationName": "Jhapater Dhal",
          "StationCode": "JTL",
          "ArrivalTime": "01:21",
          "DepartureTime": "01:21",
          "HaltMinutes": "&nbsp;",
          "Day": 2,
          "Latitude": 23.35324,
          "Longitude": 87.75077,
          "stopNumberDisplay": "5.3",
          "Distance": "131.1"
        },
        {
          "StationName": "Banpas",
          "StationCode": "BPS",
          "ArrivalTime": "01:26",
          "DepartureTime": "01:26",
          "HaltMinutes": "&nbsp;",
          "Day": 2,
          "Latitude": 23.40121,
          "Longitude": 87.74742,
          "stopNumberDisplay": "5.4",
          "Distance": "136.4"
        },
        {
          "StationName": "Noadar Dhal",
          "StationCode": "NRX",
          "ArrivalTime": "01:30",
          "DepartureTime": "01:30",
          "HaltMinutes": "&nbsp;",
          "Day": 2,
          "Latitude": 23.446,
          "Longitude": 87.74314,
          "stopNumberDisplay": "5.5",
          "Distance": "141.4"
        },
        {
          "StationName": "Guskara",
          "StationCode": "GKH",
          "ArrivalTime": "01:35",
          "DepartureTime": "01:35",
          "HaltMinutes": "&nbsp;",
          "Day": 2,
          "Latitude": 23.49055,
          "Longitude": 87.73362,
          "stopNumberDisplay": "5.6",
          "Distance": "146.5"
        },
        {
          "StationName": "Pichkurirdhal",
          "StationCode": "PCQ",
          "ArrivalTime": "01:40",
          "DepartureTime": "01:40",
          "HaltMinutes": "&nbsp;",
          "Day": 2,
          "Latitude": 23.54544,
          "Longitude": 87.72072,
          "stopNumberDisplay": "5.7",
          "Distance": "152.7"
        },
        {
          "StationName": "Bhedia",
          "StationCode": "BDH",
          "ArrivalTime": "01:45",
          "DepartureTime": "01:45",
          "HaltMinutes": "&nbsp;",
          "Day": 2,
          "Latitude": 23.59025,
          "Longitude": 87.71113,
          "stopNumberDisplay": "5.8",
          "Distance": "157.8"
        }
      ],
      "TrainNo": 13153,
      "StationCode": "BWN",
      "RouteNo": null,
      "StopNumber": 5,
      "TrainMappingKey": null,
      "StationName": "Barddhaman Jn",
      "ArrivalTime": "01:00",
      "DepartureTime": "01:05",
      "HaltMinutes": "5m",
      "Distance": "113.6",
      "HasWifi": true,
      "Day": 2,
      "DataChanged": false,
      "ExpectedPlatformNo": "1",
      "arrivalDelay": "13 Min",
      "departureDelay": "13 Min",
      "Latitude": 23.25,
      "Longitude": 87.8697,
      "stopNumberDisplay": 5
    },
    {
      "intermediateStations": [
        {
          "StationName": "Prantik",
          "StationCode": "PNE",
          "ArrivalTime": "01:59",
          "DepartureTime": "01:59",
          "HaltMinutes": "&nbsp;",
          "Day": 2,
          "Latitude": 23.69521,
          "Longitude": 87.69408,
          "stopNumberDisplay": "6.1",
          "Distance": "169.6"
        },
        {
          "StationName": "Kopai",
          "StationCode": "KPLE",
          "ArrivalTime": "02:07",
          "DepartureTime": "02:07",
          "HaltMinutes": "&nbsp;",
          "Day": 2,
          "Latitude": 23.75302,
          "Longitude": 87.68969,
          "stopNumberDisplay": "6.2",
          "Distance": "176.0"
        },
        {
          "StationName": "Ahmadpur Jn",
          "StationCode": "AMP",
          "ArrivalTime": "02:17",
          "DepartureTime": "02:17",
          "HaltMinutes": "&nbsp;",
          "Day": 2,
          "Latitude": 23.83259,
          "Longitude": 87.69308,
          "stopNumberDisplay": "6.3",
          "Distance": "184.9"
        },
        {
          "StationName": "Bataspur",
          "StationCode": "BSLE",
          "ArrivalTime": "02:24",
          "DepartureTime": "02:24",
          "HaltMinutes": "&nbsp;",
          "Day": 2,
          "Latitude": 23.8807,
          "Longitude": 87.6808,
          "stopNumberDisplay": "6.4",
          "Distance": "190.4"
        },
        {
          "StationName": "Sainthia Jn",
          "StationCode": "SNT",
          "ArrivalTime": "02:33",
          "DepartureTime": "02:33",
          "HaltMinutes": "&nbsp;",
          "Day": 2,
          "Latitude": 23.95015,
          "Longitude": 87.68118,
          "stopNumberDisplay": "6.5",
          "Distance": "198.2"
        },
        {
          "StationName": "Gadadharpur",
          "StationCode": "GHLE",
          "ArrivalTime": "02:42",
          "DepartureTime": "02:42",
          "HaltMinutes": "&nbsp;",
          "Day": 2,
          "Latitude": 24.0132,
          "Longitude": 87.69182,
          "stopNumberDisplay": "6.6",
          "Distance": "205.4"
        },
        {
          "StationName": "Mallarpur",
          "StationCode": "MLV",
          "ArrivalTime": "02:52",
          "DepartureTime": "02:52",
          "HaltMinutes": "&nbsp;",
          "Day": 2,
          "Latitude": 24.07911,
          "Longitude": 87.72612,
          "stopNumberDisplay": "6.7",
          "Distance": "213.5"
        },
        {
          "StationName": "Tarapith Road",
          "StationCode": "TPF",
          "ArrivalTime": "02:58",
          "DepartureTime": "02:58",
          "HaltMinutes": "&nbsp;",
          "Day": 2,
          "Latitude": 24.12255,
          "Longitude": 87.75033,
          "stopNumberDisplay": "6.8",
          "Distance": "218.9"
        }
      ],
      "TrainNo": 13153,
      "StationCode": "BHP",
      "RouteNo": null,
      "StopNumber": 6,
      "TrainMappingKey": null,
      "StationName": "Bolpur Shantiniketan",
      "ArrivalTime": "01:52",
      "DepartureTime": "01:54",
      "HaltMinutes": "2m",
      "Distance": "165.5",
      "HasWifi": false,
      "Day": 2,
      "DataChanged": false,
      "ExpectedPlatformNo": "1",
      "arrivalDelay": "22 Min",
      "departureDelay": "22 Min",
      "Latitude": 23.65879,
      "Longitude": 87.69858,
      "stopNumberDisplay": 6
    },
    {
      "intermediateStations": [
        {
          "StationName": "Rampurhat Marshalling Yard",
          "StationCode": "RPMY",
          "ArrivalTime": "03:13",
          "DepartureTime": "03:13",
          "HaltMinutes": "&nbsp;",
          "Day": 2,
          "Latitude": 24.18896,
          "Longitude": 87.78746,
          "stopNumberDisplay": "7.1",
          "Distance": "227.2"
        },
        {
          "StationName": "Swadinpur",
          "StationCode": "SDLE",
          "ArrivalTime": "03:19",
          "DepartureTime": "03:19",
          "HaltMinutes": "&nbsp;",
          "Day": 2,
          "Latitude": 24.23377,
          "Longitude": 87.81233,
          "stopNumberDisplay": "7.2",
          "Distance": "232.8"
        },
        {
          "StationName": "Nalhati Jn",
          "StationCode": "NHT",
          "ArrivalTime": "03:26",
          "DepartureTime": "03:26",
          "HaltMinutes": "&nbsp;",
          "Day": 2,
          "Latitude": 24.29451,
          "Longitude": 87.838442,
          "stopNumberDisplay": "7.3",
          "Distance": "240.1"
        },
        {
          "StationName": "Chatra",
          "StationCode": "CTR",
          "ArrivalTime": "03:34",
          "DepartureTime": "03:34",
          "HaltMinutes": "&nbsp;",
          "Day": 2,
          "Latitude": 24.37254,
          "Longitude": 87.84902,
          "stopNumberDisplay": "7.4",
          "Distance": "248.8"
        }
      ],
      "TrainNo": 13153,
      "StationCode": "RPH",
      "RouteNo": null,
      "StopNumber": 7,
      "TrainMappingKey": null,
      "StationName": "Rampurhat Jn",
      "ArrivalTime": "03:07",
      "DepartureTime": "03:12",
      "HaltMinutes": "5m",
      "Distance": "226.0",
      "HasWifi": false,
      "Day": 2,
      "DataChanged": false,
      "ExpectedPlatformNo": "3",
      "arrivalDelay": "27 Min",
      "departureDelay": "27 Min",
      "Latitude": 24.17931,
      "Longitude": 87.78202,
      "stopNumberDisplay": 7
    },
    {
      "intermediateStations": [
        {
          "StationName": "Banshlai Bridge",
          "StationCode": "BSBR",
          "ArrivalTime": "03:49",
          "DepartureTime": "03:49",
          "HaltMinutes": "&nbsp;",
          "Day": 2,
          "Latitude": 24.48564,
          "Longitude": 87.8601,
          "stopNumberDisplay": "8.1",
          "Distance": "261.5"
        },
        {
          "StationName": "Rajgram",
          "StationCode": "RJG",
          "ArrivalTime": "03:56",
          "DepartureTime": "03:56",
          "HaltMinutes": "&nbsp;",
          "Day": 2,
          "Latitude": 24.5452,
          "Longitude": 87.8679,
          "stopNumberDisplay": "8.2",
          "Distance": "268.1"
        },
        {
          "StationName": "Nagarnabi",
          "StationCode": "NGF",
          "ArrivalTime": "04:01",
          "DepartureTime": "04:01",
          "HaltMinutes": "&nbsp;",
          "Day": 2,
          "Latitude": 24.59073,
          "Longitude": 87.86828,
          "stopNumberDisplay": "8.3",
          "Distance": "273.3"
        }
      ],
      "TrainNo": 13153,
      "StationCode": "MRR",
      "RouteNo": null,
      "StopNumber": 8,
      "TrainMappingKey": null,
      "StationName": "Murarai",
      "ArrivalTime": "03:42",
      "DepartureTime": "03:44",
      "HaltMinutes": "2m",
      "Distance": "256.5",
      "HasWifi": false,
      "Day": 2,
      "DataChanged": false,
      "ExpectedPlatformNo": null,
      "arrivalDelay": "36 Min",
      "departureDelay": "36 Min",
      "Latitude": 24.44087,
      "Longitude": 87.85881,
      "stopNumberDisplay": 8
    },
    {
      "intermediateStations": [
        {
          "StationName": "Tilbhita",
          "StationCode": "TBB",
          "ArrivalTime": "04:14",
          "DepartureTime": "04:14",
          "HaltMinutes": "&nbsp;",
          "Day": 2,
          "Latitude": 24.6756,
          "Longitude": 87.8426,
          "stopNumberDisplay": "9.1",
          "Distance": "283.2"
        },
        {
          "StationName": "Kotalpukur",
          "StationCode": "KLP",
          "ArrivalTime": "04:25",
          "DepartureTime": "04:25",
          "HaltMinutes": "&nbsp;",
          "Day": 2,
          "Latitude": 24.7408,
          "Longitude": 87.8236,
          "stopNumberDisplay": "9.2",
          "Distance": "290.7"
        },
        {
          "StationName": "Gumani",
          "StationCode": "GMAN",
          "ArrivalTime": "04:34",
          "DepartureTime": "04:34",
          "HaltMinutes": "&nbsp;",
          "Day": 2,
          "Latitude": 24.7987,
          "Longitude": 87.8053,
          "stopNumberDisplay": "9.3",
          "Distance": "297.4"
        },
        {
          "StationName": "Bonidanga Link Cabin",
          "StationCode": "BDLC",
          "ArrivalTime": "04:38",
          "DepartureTime": "04:38",
          "HaltMinutes": "&nbsp;",
          "Day": 2,
          "Latitude": 24.82179,
          "Longitude": 87.79858,
          "stopNumberDisplay": "9.4",
          "Distance": "300.1"
        },
        {
          "StationName": "Bonidanga",
          "StationCode": "BDAG",
          "ArrivalTime": "04:40",
          "DepartureTime": "04:40",
          "HaltMinutes": "&nbsp;",
          "Day": 2,
          "Latitude": 24.82341,
          "Longitude": 87.81028,
          "stopNumberDisplay": "9.5",
          "Distance": "302.1"
        },
        {
          "StationName": "Bindubasini",
          "StationCode": "BDBS",
          "ArrivalTime": "04:46",
          "DepartureTime": "04:46",
          "HaltMinutes": "&nbsp;",
          "Day": 2,
          "Latitude": 24.79988,
          "Longitude": 87.8438,
          "stopNumberDisplay": "9.6",
          "Distance": "306.5"
        },
        {
          "StationName": "Tildanga",
          "StationCode": "TDLE",
          "ArrivalTime": "04:51",
          "DepartureTime": "04:51",
          "HaltMinutes": "&nbsp;",
          "Day": 2,
          "Latitude": 24.78646,
          "Longitude": 87.87372,
          "stopNumberDisplay": "9.7",
          "Distance": "309.8"
        },
        {
          "StationName": "New Farakka S Cabin",
          "StationCode": "NFKS",
          "ArrivalTime": "04:56",
          "DepartureTime": "04:56",
          "HaltMinutes": "&nbsp;",
          "Day": 2,
          "Latitude": 24.78841,
          "Longitude": 87.914,
          "stopNumberDisplay": "9.8",
          "Distance": "313.5"
        }
      ],
      "TrainNo": 13153,
      "StationCode": "PKR",
      "RouteNo": null,
      "StopNumber": 9,
      "TrainMappingKey": null,
      "StationName": "Pakur",
      "ArrivalTime": "04:06",
      "DepartureTime": "04:08",
      "HaltMinutes": "2m",
      "Distance": "278.7",
      "HasWifi": false,
      "Day": 2,
      "DataChanged": false,
      "ExpectedPlatformNo": "1",
      "arrivalDelay": "42 Min",
      "departureDelay": "42 Min",
      "Latitude": 24.63786,
      "Longitude": 87.85574,
      "stopNumberDisplay": 9
    },
    {
      "intermediateStations": [
        {
          "StationName": "New Farakka N Cabin",
          "StationCode": "NFKN",
          "ArrivalTime": "05:04",
          "DepartureTime": "05:04",
          "HaltMinutes": "&nbsp;",
          "Day": 2,
          "Latitude": 24.799888,
          "Longitude": 87.918991,
          "stopNumberDisplay": "10.1",
          "Distance": "315.5"
        },
        {
          "StationName": "Chamagram",
          "StationCode": "CMX",
          "ArrivalTime": "05:15",
          "DepartureTime": "05:15",
          "HaltMinutes": "&nbsp;",
          "Day": 2,
          "Latitude": 24.821077,
          "Longitude": 87.963239,
          "stopNumberDisplay": "10.2",
          "Distance": "320.8"
        },
        {
          "StationName": "Khaltipur",
          "StationCode": "KTJ",
          "ArrivalTime": "05:33",
          "DepartureTime": "05:33",
          "HaltMinutes": "&nbsp;",
          "Day": 2,
          "Latitude": 24.875593,
          "Longitude": 88.02216,
          "stopNumberDisplay": "10.3",
          "Distance": "329.3"
        },
        {
          "StationName": "Jamirghata",
          "StationCode": "JMQ",
          "ArrivalTime": "05:46",
          "DepartureTime": "05:46",
          "HaltMinutes": "&nbsp;",
          "Day": 2,
          "Latitude": 24.916722,
          "Longitude": 88.068036,
          "stopNumberDisplay": "10.4",
          "Distance": "335.9"
        },
        {
          "StationName": "Gour Malda",
          "StationCode": "GZM",
          "ArrivalTime": "05:58",
          "DepartureTime": "05:58",
          "HaltMinutes": "&nbsp;",
          "Day": 2,
          "Latitude": 24.948,
          "Longitude": 88.110718,
          "stopNumberDisplay": "10.5",
          "Distance": "341.6"
        }
      ],
      "TrainNo": 13153,
      "StationCode": "NFK",
      "RouteNo": null,
      "StopNumber": 10,
      "TrainMappingKey": null,
      "StationName": "New Farakka Jn",
      "ArrivalTime": "04:58",
      "DepartureTime": "05:03",
      "HaltMinutes": "5m",
      "Distance": "314.9",
      "HasWifi": true,
      "Day": 2,
      "DataChanged": false,
      "ExpectedPlatformNo": "3",
      "arrivalDelay": "34 Min",
      "departureDelay": "34 Min",
      "Latitude": 24.79481,
      "Longitude": 87.91556,
      "stopNumberDisplay": 10
    },
    {
      "intermediateStations": [],
      "TrainNo": 13153,
      "StationCode": "MLDT",
      "RouteNo": null,
      "StopNumber": 11,
      "TrainMappingKey": null,
      "StationName": "Malda Town",
      "ArrivalTime": "06:15",
      "DepartureTime": "",
      "HaltMinutes": "",
      "Distance": "350.0",
      "HasWifi": true,
      "Day": 2,
      "DataChanged": false,
      "ExpectedPlatformNo": "1",
      "arrivalDelay": "24 Min",
      "departureDelay": "24 Min",
      "Latitude": 25.01622,
      "Longitude": 88.130336,
      "stopNumberDisplay": 11
    }
  ],
  "Source": "Kolkata Sealdah",
  "Destination": "Balurghat",
  "SourceCode": "SDAH",
  "DestinationCode": "BLGT",
  "DaysOfRun": {
    "Sun": true,
    "Mon": true,
    "Tue": true,
    "Wed": true,
    "Thu": true,
    "Fri": true,
    "Sat": true
  },
  "FooterText": null,
  "TrainType": null,
  "IsUnreserved": false,
  "Rating": 3.8,
  "FoodRating": 3.3,
  "PunctualityRating": 4,
  "CleanlinessRating": 4,
  "RatingCount": 604,
  "TotalDuration": "8:0",
  "FromCity": "KOLKATA",
  "ToCity": "Balurghat",
  "CacheTime": "2024-03-09T13:42:57.4007787+05:30",
  "HasPantry": false,
  "ErrorMsg": null
}