{
  "TrainName": "BLGT KOAA EXP",
  "TrainNo": 13162,
  "TrainNumberString": null,
  "CoachPosition": "L SLR GEN GEN SE2 SE1 BE1 C1 D4 D3 D2 D1 GEN GEN GEN SLR",
  "Classes": [
    "3A",
    "CC",
    "SL",
    "2S"
  ],
  "Schedule": [
    {
      "intermediateStations": [
        {
          "StationName": "Mallickpur Hat",
          "StationCode": "MKRH",
          "ArrivalTime": "05:57",
          "DepartureTime": "05:57",
          "HaltMinutes": "&nbsp;",
          "Day": 1,
          "Latitude": 25.3226,
          "Longitude": 88.6915,
          "stopNumberDisplay": "1.1",
          "Distance": "13.1"
        }
      ],
      "TrainNo": 13162,
      "StationCode": "BLGT",
      "RouteNo": null,
      "StopNumber": 1,
      "TrainMappingKey": null,
      "StationName": "Balurghat",
      "ArrivalTime": "",
      "DepartureTime": "05:45",
      "HaltMinutes": "",
      "Distance": "0.0",
      "HasWifi": false,
      "Day": 1,
      "DataChanged": false,
      "ExpectedPlatformNo": "1",
      "arrivalDelay": "03 Min",
      "departureDelay": "03 Min",
      "Latitude": 25.233,
      "Longitude": 88.758,
      "stopNumberDisplay": 1
    },
    {
      "intermediateStations": [
        {
          "StationName": "Malancha",
          "StationCode": "MLNH",
          "ArrivalTime": "06:08",
          "DepartureTime": "06:08",
          "HaltMinutes": "&nbsp;",
          "Day": 1,
          "Latitude": 25.3607,
          "Longitude": 88.6026,
          "stopNumberDisplay": "2.1",
          "Distance": "23.2"
        }
      ],
      "TrainNo": 13162,
      "StationCode": "RMPB",
      "RouteNo": null,
      "StopNumber": 2,
      "TrainMappingKey": null,
      "StationName": "Rampur Bazar",
      "ArrivalTime": "06:03",
      "DepartureTime": "06:05",
      "HaltMinutes": "2m",
      "Distance": "20.0",
      "HasWifi": false,
      "Day": 1,
      "DataChanged": false,
      "ExpectedPlatformNo": null,
      "arrivalDelay": "-",
      "departureDelay": "-",
      "Latitude": 25.3447,
      "Longitude": 88.6299,
      "stopNumberDisplay": 2
    },
    {
      "intermediateStations": [],
      "TrainNo": 13162,
      "StationCode": "GRMP",
      "RouteNo": null,
      "StopNumber": 3,
      "TrainMappingKey": null,
      "StationName": "Gangarampur",
      "ArrivalTime": "06:18",
      "DepartureTime": "06:20",
      "HaltMinutes": "2m",
      "Distance": "32.9",
      "HasWifi": false,
      "Day": 1,
      "DataChanged": false,
      "ExpectedPlatformNo": "1",
      "arrivalDelay": "04 Min",
      "departureDelay": "04 Min",
      "Latitude": 25.3902,
      "Longitude": 88.5162,
      "stopNumberDisplay": 3
    },
    {
      "intermediateStations": [
        {
          "StationName": "Daulatpur",
          "StationCode": "DLPH",
          "ArrivalTime": "06:43",
          "DepartureTime": "06:43",
          "HaltMinutes": "&nbsp;",
          "Day": 1,
          "Latitude": 25.33064,
          "Longitude": 88.33685,
          "stopNumberDisplay": "4.1",
          "Distance": "54.7"
        },
        {
          "StationName": "Deotala",
          "StationCode": "DOTL",
          "ArrivalTime": "06:50",
          "DepartureTime": "06:50",
          "HaltMinutes": "&nbsp;",
          "Day": 1,
          "Latitude": 25.2742,
          "Longitude": 88.29412,
          "stopNumberDisplay": "4.2",
          "Distance": "62.3"
        },
        {
          "StationName": "Mahanagar",
          "StationCode": "MANG",
          "ArrivalTime": "06:55",
          "DepartureTime": "06:55",
          "HaltMinutes": "&nbsp;",
          "Day": 1,
          "Latitude": 25.23742,
          "Longitude": 88.2337,
          "stopNumberDisplay": "4.3",
          "Distance": "67.6"
        }
      ],
      "TrainNo": 13162,
      "StationCode": "BNDP",
      "RouteNo": null,
      "StopNumber": 4,
      "TrainMappingKey": null,
      "StationName": "Buniadpur",
      "ArrivalTime": "06:32",
      "DepartureTime": "06:34",
      "HaltMinutes": "2m",
      "Distance": "45.2",
      "HasWifi": false,
      "Day": 1,
      "DataChanged": false,
      "ExpectedPlatformNo": "1",
      "arrivalDelay": "05 Min",
      "departureDelay": "05 Min",
      "Latitude": 25.38587,
      "Longitude": 88.40128,
      "stopNumberDisplay": 4
    },
    {
      "intermediateStations": [],
      "TrainNo": 13162,
      "StationCode": "GZO",
      "RouteNo": null,
      "StopNumber": 5,
      "TrainMappingKey": null,
      "StationName": "Gazole",
      "ArrivalTime": "07:00",
      "DepartureTime": "07:02",
      "HaltMinutes": "2m",
      "Distance": "73.7",
      "HasWifi": false,
      "Day": 1,
      "DataChanged": false,
      "ExpectedPlatformNo": "1",
      "arrivalDelay": "05 Min",
      "departureDelay": "05 Min",
      "Latitude": 25.22482,
      "Longitude": 88.19805,
      "stopNumberDisplay": 5
    },
    {
      "intermediateStations": [
        {
          "StationName": "Adina",
          "StationCode": "ADF",
          "ArrivalTime": "07:34",
          "DepartureTime": "07:34",
          "HaltMinutes": "&nbsp;",
          "Day": 1,
          "Latitude": 25.114455,
          "Longitude": 88.122968,
          "stopNumberDisplay": "6.1",
          "Distance": "93.6"
        },
        {
          "StationName": "Old Malda Jn",
          "StationCode": "OMLF",
          "ArrivalTime": "07:48",
          "DepartureTime": "07:48",
          "HaltMinutes": "&nbsp;",
          "Day": 1,
          "Latitude": 25.053,
          "Longitude": 88.1436,
          "stopNumberDisplay": "6.2",
          "Distance": "100.7"
        }
      ],
      "TrainNo": 13162,
      "StationCode": "EKI",
      "RouteNo": null,
      "StopNumber": 6,
      "TrainMappingKey": null,
      "StationName": "Eklakhi Jn",
      "ArrivalTime": "07:18",
      "DepartureTime": "07:20",
      "HaltMinutes": "2m",
      "Distance": "87.1",
      "HasWifi": false,
      "Day": 1,
      "DataChanged": false,
      "ExpectedPlatformNo": null,
      "arrivalDelay": "-",
      "departureDelay": "-",
      "Latitude": 25.16814,
      "Longitude": 88.0989,
      "stopNumberDisplay": 6
    },
    {
      "intermediateStations": [
        {
          "StationName": "Gour Malda",
          "StationCode": "GZM",
          "ArrivalTime": "08:18",
          "DepartureTime": "08:18",
          "HaltMinutes": "&nbsp;",
          "Day": 1,
          "Latitude": 24.948,
          "Longitude": 88.110718,
          "stopNumberDisplay": "7.1",
          "Distance": "114.7"
        },
        {
          "StationName": "Jamirghata",
          "StationCode": "JMQ",
          "ArrivalTime": "08:23",
          "DepartureTime": "08:23",
          "HaltMinutes": "&nbsp;",
          "Day": 1,
          "Latitude": 24.916722,
          "Longitude": 88.068036,
          "stopNumberDisplay": "7.2",
          "Distance": "120.5"
        },
        {
          "StationName": "Khaltipur",
          "StationCode": "KTJ",
          "ArrivalTime": "08:29",
          "DepartureTime": "08:29",
          "HaltMinutes": "&nbsp;",
          "Day": 1,
          "Latitude": 24.875593,
          "Longitude": 88.02216,
          "stopNumberDisplay": "7.3",
          "Distance": "127.0"
        },
        {
          "StationName": "Chamagram",
          "StationCode": "CMX",
          "ArrivalTime": "08:37",
          "DepartureTime": "08:37",
          "HaltMinutes": "&nbsp;",
          "Day": 1,
          "Latitude": 24.821077,
          "Longitude": 87.963239,
          "stopNumberDisplay": "7.4",
          "Distance": "135.6"
        },
        {
          "StationName": "New Farakka N Cabin",
          "StationCode": "NFKN",
          "ArrivalTime": "08:41",
          "DepartureTime": "08:41",
          "HaltMinutes": "&nbsp;",
          "Day": 1,
          "Latitude": 24.799888,
          "Longitude": 87.918991,
          "stopNumberDisplay": "7.5",
          "Distance": "140.8"
        }
      ],
      "TrainNo": 13162,
      "StationCode": "MLDT",
      "RouteNo": null,
      "StopNumber": 7,
      "TrainMappingKey": null,
      "StationName": "Malda Town",
      "ArrivalTime": "08:00",
      "DepartureTime": "08:10",
      "HaltMinutes": "10m",
      "Distance": "106.3",
      "HasWifi": true,
      "Day": 1,
      "DataChanged": false,
      "ExpectedPlatformNo": "3",
      "arrivalDelay": "-",
      "departureDelay": "-",
      "Latitude": 25.01622,
      "Longitude": 88.130336,
      "stopNumberDisplay": 7
    },
    {
      "intermediateStations": [
        {
          "StationName": "New Farakka S Cabin",
          "StationCode": "NFKS",
          "ArrivalTime": "08:45",
          "DepartureTime": "08:45",
          "HaltMinutes": "&nbsp;",
          "Day": 1,
          "Latitude": 24.78841,
          "Longitude": 87.914,
          "stopNumberDisplay": "8.1",
          "Distance": "142.8"
        },
        {
          "StationName": "Tildanga",
          "StationCode": "TDLE",
          "ArrivalTime": "08:50",
          "DepartureTime": "08:50",
          "HaltMinutes": "&nbsp;",
          "Day": 1,
          "Latitude": 24.78646,
          "Longitude": 87.87372,
          "stopNumberDisplay": "8.2",
          "Distance": "146.5"
        },
        {
          "StationName": "Bindubasini",
          "StationCode": "BDBS",
          "ArrivalTime": "08:53",
          "DepartureTime": "08:53",
          "HaltMinutes": "&nbsp;",
          "Day": 1,
          "Latitude": 24.79988,
          "Longitude": 87.8438,
          "stopNumberDisplay": "8.3",
          "Distance": "149.9"
        },
        {
          "StationName": "Bonidanga",
          "StationCode": "BDAG",
          "ArrivalTime": "08:58",
          "DepartureTime": "08:58",
          "HaltMinutes": "&nbsp;",
          "Day": 1,
          "Latitude": 24.82341,
          "Longitude": 87.81028,
          "stopNumberDisplay": "8.4",
          "Distance": "154.2"
        },
        {
          "StationName": "Bonidanga Link Cabin",
          "StationCode": "BDLC",
          "ArrivalTime": "09:00",
          "DepartureTime": "09:00",
          "HaltMinutes": "&nbsp;",
          "Day": 1,
          "Latitude": 24.82179,
          "Longitude": 87.79858,
          "stopNumberDisplay": "8.5",
          "Distance": "156.2"
        },
        {
          "StationName": "Gumani",
          "StationCode": "GMAN",
          "ArrivalTime": "09:03",
          "DepartureTime": "09:03",
          "HaltMinutes": "&nbsp;",
          "Day": 1,
          "Latitude": 24.7987,
          "Longitude": 87.8053,
          "stopNumberDisplay": "8.6",
          "Distance": "158.9"
        },
        {
          "StationName": "Kotalpukur",
          "StationCode": "KLP",
          "ArrivalTime": "09:11",
          "DepartureTime": "09:11",
          "HaltMinutes": "&nbsp;",
          "Day": 1,
          "Latitude": 24.7408,
          "Longitude": 87.8236,
          "stopNumberDisplay": "8.7",
          "Distance": "165.6"
        },
        {
          "StationName": "Tilbhita",
          "StationCode": "TBB",
          "ArrivalTime": "09:19",
          "DepartureTime": "09:19",
          "HaltMinutes": "&nbsp;",
          "Day": 1,
          "Latitude": 24.6756,
          "Longitude": 87.8426,
          "stopNumberDisplay": "8.8",
          "Distance": "173.2"
        }
      ],
      "TrainNo": 13162,
      "StationCode": "NFK",
      "RouteNo": null,
      "StopNumber": 8,
      "TrainMappingKey": null,
      "StationName": "New Farakka Jn",
      "ArrivalTime": "08:42",
      "DepartureTime": "08:44",
      "HaltMinutes": "2m",
      "Distance": "141.5",
      "HasWifi": true,
      "Day": 1,
      "DataChanged": false,
      "ExpectedPlatformNo": "1",
      "arrivalDelay": "-",
      "departureDelay": "-",
      "Latitude": 24.79481,
      "Longitude": 87.91556,
      "stopNumberDisplay": 8
    },
    {
      "intermediateStations": [
        {
          "StationName": "Nagarnabi",
          "StationCode": "NGF",
          "ArrivalTime": "09:31",
          "DepartureTime": "09:31",
          "HaltMinutes": "&nbsp;",
          "Day": 1,
          "Latitude": 24.59073,
          "Longitude": 87.86828,
          "stopNumberDisplay": "9.1",
          "Distance": "183.1"
        },
        {
          "StationName": "Rajgram",
          "StationCode": "RJG",
          "ArrivalTime": "09:35",
          "DepartureTime": "09:35",
          "HaltMinutes": "&nbsp;",
          "Day": 1,
          "Latitude": 24.5452,
          "Longitude": 87.8679,
          "stopNumberDisplay": "9.2",
          "Distance": "188.2"
        },
        {
          "StationName": "Banshlai Bridge",
          "StationCode": "BSBR",
          "ArrivalTime": "09:41",
          "DepartureTime": "09:41",
          "HaltMinutes": "&nbsp;",
          "Day": 1,
          "Latitude": 24.48564,
          "Longitude": 87.8601,
          "stopNumberDisplay": "9.3",
          "Distance": "194.9"
        }
      ],
      "TrainNo": 13162,
      "StationCode": "PKR",
      "RouteNo": null,
      "StopNumber": 9,
      "TrainMappingKey": null,
      "StationName": "Pakur",
      "ArrivalTime": "09:24",
      "DepartureTime": "09:26",
      "HaltMinutes": "2m",
      "Distance": "177.6",
      "HasWifi": false,
      "Day": 1,
      "DataChanged": false,
      "ExpectedPlatformNo": "2",
      "arrivalDelay": "-",
      "departureDelay": "-",
      "Latitude": 24.63786,
      "Longitude": 87.85574,
      "stopNumberDisplay": 9
    },
    {
      "intermediateStations": [
        {
          "StationName": "Chatra",
          "StationCode": "CTR",
          "ArrivalTime": "09:54",
          "DepartureTime": "09:54",
          "HaltMinutes": "&nbsp;",
          "Day": 1,
          "Latitude": 24.37254,
          "Longitude": 87.84902,
          "stopNumberDisplay": "10.1",
          "Distance": "207.5"
        },
        {
          "StationName": "Nalhati Jn",
          "StationCode": "NHT",
          "ArrivalTime": "10:02",
          "DepartureTime": "10:02",
          "HaltMinutes": "&nbsp;",
          "Day": 1,
          "Latitude": 24.29451,
          "Longitude": 87.838442,
          "stopNumberDisplay": "10.2",
          "Distance": "216.3"
        },
        {
          "StationName": "Swadinpur",
          "StationCode": "SDLE",
          "ArrivalTime": "10:09",
          "DepartureTime": "10:09",
          "HaltMinutes": "&nbsp;",
          "Day": 1,
          "Latitude": 24.23377,
          "Longitude": 87.81233,
          "stopNumberDisplay": "10.3",
          "Distance": "223.5"
        },
        {
          "StationName": "Rampurhat Marshalling Yard",
          "StationCode": "RPMY",
          "ArrivalTime": "10:15",
          "DepartureTime": "10:15",
          "HaltMinutes": "&nbsp;",
          "Day": 1,
          "Latitude": 24.18896,
          "Longitude": 87.78746,
          "stopNumberDisplay": "10.4",
          "Distance": "229.1"
        }
      ],
      "TrainNo": 13162,
      "StationCode": "MRR",
      "RouteNo": null,
      "StopNumber": 10,
      "TrainMappingKey": null,
      "StationName": "Murarai",
      "ArrivalTime": "09:45",
      "DepartureTime": "09:46",
      "HaltMinutes": "1m",
      "Distance": "199.9",
      "HasWifi": false,
      "Day": 1,
      "DataChanged": false,
      "ExpectedPlatformNo": null,
      "arrivalDelay": null,
      "departureDelay": null,
      "Latitude": 24.44087,
      "Longitude": 87.85881,
      "stopNumberDisplay": 10
    },
    {
      "intermediateStations": [
        {
          "StationName": "Tarapith Road",
          "StationCode": "TPF",
          "ArrivalTime": "10:29",
          "DepartureTime": "10:29",
          "HaltMinutes": "&nbsp;",
          "Day": 1,
          "Latitude": 24.12255,
          "Longitude": 87.75033,
          "stopNumberDisplay": "11.1",
          "Distance": "237.4"
        },
        {
          "StationName": "Mallarpur",
          "StationCode": "MLV",
          "ArrivalTime": "10:35",
          "DepartureTime": "10:35",
          "HaltMinutes": "&nbsp;",
          "Day": 1,
          "Latitude": 24.07911,
          "Longitude": 87.72612,
          "stopNumberDisplay": "11.2",
          "Distance": "242.8"
        },
        {
          "StationName": "Gadadharpur",
          "StationCode": "GHLE",
          "ArrivalTime": "10:44",
          "DepartureTime": "10:44",
          "HaltMinutes": "&nbsp;",
          "Day": 1,
          "Latitude": 24.0132,
          "Longitude": 87.69182,
          "stopNumberDisplay": "11.3",
          "Distance": "250.9"
        },
        {
          "StationName": "Sainthia Jn",
          "StationCode": "SNT",
          "ArrivalTime": "10:52",
          "DepartureTime": "10:52",
          "HaltMinutes": "&nbsp;",
          "Day": 1,
          "Latitude": 23.95015,
          "Longitude": 87.68118,
          "stopNumberDisplay": "11.4",
          "Distance": "258.2"
        },
        {
          "StationName": "Bataspur",
          "StationCode": "BSLE",
          "ArrivalTime": "11:00",
          "DepartureTime": "11:00",
          "HaltMinutes": "&nbsp;",
          "Day": 1,
          "Latitude": 23.8807,
          "Longitude": 87.6808,
          "stopNumberDisplay": "11.5",
          "Distance": "266.0"
        },
        {
          "StationName": "Ahmadpur Jn",
          "StationCode": "AMP",
          "ArrivalTime": "11:07",
          "DepartureTime": "11:07",
          "HaltMinutes": "&nbsp;",
          "Day": 1,
          "Latitude": 23.83259,
          "Longitude": 87.69308,
          "stopNumberDisplay": "11.6",
          "Distance": "271.5"
        },
        {
          "StationName": "Kopai",
          "StationCode": "KPLE",
          "ArrivalTime": "11:16",
          "DepartureTime": "11:16",
          "HaltMinutes": "&nbsp;",
          "Day": 1,
          "Latitude": 23.75302,
          "Longitude": 87.68969,
          "stopNumberDisplay": "11.7",
          "Distance": "280.3"
        },
        {
          "StationName": "Prantik",
          "StationCode": "PNE",
          "ArrivalTime": "11:23",
          "DepartureTime": "11:23",
          "HaltMinutes": "&nbsp;",
          "Day": 1,
          "Latitude": 23.69521,
          "Longitude": 87.69408,
          "stopNumberDisplay": "11.8",
          "Distance": "286.8"
        }
      ],
      "TrainNo": 13162,
      "StationCode": "RPH",
      "RouteNo": null,
      "StopNumber": 11,
      "TrainMappingKey": null,
      "StationName": "Rampurhat Jn",
      "ArrivalTime": "10:16",
      "DepartureTime": "10:21",
      "HaltMinutes": "5m",
      "Distance": "230.3",
      "HasWifi": false,
      "Day": 1,
      "DataChanged": false,
      "ExpectedPlatformNo": "1",
      "arrivalDelay": "-",
      "departureDelay": "-",
      "Latitude": 24.17931,
      "Longitude": 87.78202,
      "stopNumberDisplay": 11
    },
    {
      "intermediateStations": [
        {
          "StationName": "Bhedia",
          "StationCode": "BDH",
          "ArrivalTime": "11:40",
          "DepartureTime": "11:40",
          "HaltMinutes": "&nbsp;",
          "Day": 1,
          "Latitude": 23.59025,
          "Longitude": 87.71113,
          "stopNumberDisplay": "12.1",
          "Distance": "298.6"
        },
        {
          "StationName": "Pichkurirdhal",
          "StationCode": "PCQ",
          "ArrivalTime": "11:46",
          "DepartureTime": "11:46",
          "HaltMinutes": "&nbsp;",
          "Day": 1,
          "Latitude": 23.54544,
          "Longitude": 87.72072,
          "stopNumberDisplay": "12.2",
          "Distance": "303.6"
        },
        {
          "StationName": "Guskara",
          "StationCode": "GKH",
          "ArrivalTime": "11:53",
          "DepartureTime": "11:53",
          "HaltMinutes": "&nbsp;",
          "Day": 1,
          "Latitude": 23.49055,
          "Longitude": 87.73362,
          "stopNumberDisplay": "12.3",
          "Distance": "309.9"
        },
        {
          "StationName": "Noadar Dhal",
          "StationCode": "NRX",
          "ArrivalTime": "11:58",
          "DepartureTime": "11:58",
          "HaltMinutes": "&nbsp;",
          "Day": 1,
          "Latitude": 23.446,
          "Longitude": 87.74314,
          "stopNumberDisplay": "12.4",
          "Distance": "314.9"
        },
        {
          "StationName": "Banpas",
          "StationCode": "BPS",
          "ArrivalTime": "12:04",
          "DepartureTime": "12:04",
          "HaltMinutes": "&nbsp;",
          "Day": 1,
          "Latitude": 23.40121,
          "Longitude": 87.74742,
          "stopNumberDisplay": "12.5",
          "Distance": "319.9"
        },
        {
          "StationName": "Jhapater Dhal",
          "StationCode": "JTL",
          "ArrivalTime": "12:10",
          "DepartureTime": "12:10",
          "HaltMinutes": "&nbsp;",
          "Day": 1,
          "Latitude": 23.35324,
          "Longitude": 87.75077,
          "stopNumberDisplay": "12.6",
          "Distance": "325.3"
        },
        {
          "StationName": "Khana Jn",
          "StationCode": "KAN",
          "ArrivalTime": "12:15",
          "DepartureTime": "12:15",
          "HaltMinutes": "&nbsp;",
          "Day": 1,
          "Latitude": 23.321,
          "Longitude": 87.7702,
          "stopNumberDisplay": "12.7",
          "Distance": "329.6"
        },
        {
          "StationName": "Talit",
          "StationCode": "TIT",
          "ArrivalTime": "12:22",
          "DepartureTime": "12:22",
          "HaltMinutes": "&nbsp;",
          "Day": 1,
          "Latitude": 23.2933,
          "Longitude": 87.8191,
          "stopNumberDisplay": "12.8",
          "Distance": "335.5"
        }
      ],
      "TrainNo": 13162,
      "StationCode": "BHP",
      "RouteNo": null,
      "StopNumber": 12,
      "TrainMappingKey": null,
      "StationName": "Bolpur Shantiniketan",
      "ArrivalTime": "11:28",
      "DepartureTime": "11:31",
      "HaltMinutes": "3m",
      "Distance": "290.8",
      "HasWifi": false,
      "Day": 1,
      "DataChanged": false,
      "ExpectedPlatformNo": "2",
      "arrivalDelay": "-",
      "departureDelay": "-",
      "Latitude": 23.65879,
      "Longitude": 87.69858,
      "stopNumberDisplay": 12
    },
    {
      "intermediateStations": [
        {
          "StationName": "Barddhaman UP Yard",
          "StationCode": "BWNU",
          "ArrivalTime": "12:34",
          "DepartureTime": "12:34",
          "HaltMinutes": "&nbsp;",
          "Day": 1,
          "Latitude": null,
          "Longitude": null,
          "stopNumberDisplay": "13.1",
          "Distance": "344.3"
        },
        {
          "StationName": "Gangpur",
          "StationCode": "GRP",
          "ArrivalTime": "12:39",
          "DepartureTime": "12:39",
          "HaltMinutes": "&nbsp;",
          "Day": 1,
          "Latitude": 23.2232,
          "Longitude": 87.9279,
          "stopNumberDisplay": "13.2",
          "Distance": "349.6"
        },
        {
          "StationName": "Saktigarh",
          "StationCode": "SKG",
          "ArrivalTime": "12:45",
          "DepartureTime": "12:45",
          "HaltMinutes": "&nbsp;",
          "Day": 1,
          "Latitude": 23.207,
          "Longitude": 87.9691,
          "stopNumberDisplay": "13.3",
          "Distance": "354.3"
        },
        {
          "StationName": "Pallaroad",
          "StationCode": "PRAE",
          "ArrivalTime": "12:50",
          "DepartureTime": "12:50",
          "HaltMinutes": "&nbsp;",
          "Day": 1,
          "Latitude": 23.1794,
          "Longitude": 88.009,
          "stopNumberDisplay": "13.4",
          "Distance": "359.5"
        },
        {
          "StationName": "Chanchai",
          "StationCode": "CHC",
          "ArrivalTime": "12:54",
          "DepartureTime": "12:54",
          "HaltMinutes": "&nbsp;",
          "Day": 1,
          "Latitude": 23.1585,
          "Longitude": 88.0256,
          "stopNumberDisplay": "13.5",
          "Distance": "362.5"
        },
        {
          "StationName": "Masagram",
          "StationCode": "MSAE",
          "ArrivalTime": "12:57",
          "DepartureTime": "12:57",
          "HaltMinutes": "&nbsp;",
          "Day": 1,
          "Latitude": 23.1348,
          "Longitude": 88.0427,
          "stopNumberDisplay": "13.6",
          "Distance": "365.5"
        },
        {
          "StationName": "Nabagram",
          "StationCode": "NBAE",
          "ArrivalTime": "13:00",
          "DepartureTime": "13:00",
          "HaltMinutes": "&nbsp;",
          "Day": 1,
          "Latitude": 23.1111,
          "Longitude": 88.0575,
          "stopNumberDisplay": "13.7",
          "Distance": "368.6"
        },
        {
          "StationName": "Jaugram",
          "StationCode": "JRAE",
          "ArrivalTime": "13:05",
          "DepartureTime": "13:05",
          "HaltMinutes": "&nbsp;",
          "Day": 1,
          "Latitude": 23.0793,
          "Longitude": 88.0802,
          "stopNumberDisplay": "13.8",
          "Distance": "372.9"
        },
        {
          "StationName": "Jhapandanga",
          "StationCode": "JPQ",
          "ArrivalTime": "13:07",
          "DepartureTime": "13:07",
          "HaltMinutes": "&nbsp;",
          "Day": 1,
          "Latitude": 23.0639,
          "Longitude": 88.0909,
          "stopNumberDisplay": "13.9",
          "Distance": "374.9"
        },
        {
          "StationName": "Gurap",
          "StationCode": "GRAE",
          "ArrivalTime": "13:12",
          "DepartureTime": "13:12",
          "HaltMinutes": "&nbsp;",
          "Day": 1,
          "Latitude": 23.0247,
          "Longitude": 88.112,
          "stopNumberDisplay": "13.10",
          "Distance": "379.7"
        },
        {
          "StationName": "Hajigarh",
          "StationCode": "HIH",
          "ArrivalTime": "13:15",
          "DepartureTime": "13:15",
          "HaltMinutes": "&nbsp;",
          "Day": 1,
          "Latitude": 23.007,
          "Longitude": 88.1212,
          "stopNumberDisplay": "13.11",
          "Distance": "381.9"
        },
        {
          "StationName": "Cheragram Block Hut",
          "StationCode": "CRAE",
          "ArrivalTime": "13:17",
          "DepartureTime": "13:17",
          "HaltMinutes": "&nbsp;",
          "Day": 1,
          "Latitude": 22.98816,
          "Longitude": 88.12852,
          "stopNumberDisplay": "13.12",
          "Distance": "384.2"
        },
        {
          "StationName": "Sibaichandi",
          "StationCode": "SHBC",
          "ArrivalTime": "13:19",
          "DepartureTime": "13:19",
          "HaltMinutes": "&nbsp;",
          "Day": 1,
          "Latitude": 22.97407,
          "Longitude": 88.13395,
          "stopNumberDisplay": "13.13",
          "Distance": "385.8"
        },
        {
          "StationName": "Dhaniakhali Halt",
          "StationCode": "DNHL",
          "ArrivalTime": "13:22",
          "DepartureTime": "13:22",
          "HaltMinutes": "&nbsp;",
          "Day": 1,
          "Latitude": 22.95093,
          "Longitude": 88.14382,
          "stopNumberDisplay": "13.14",
          "Distance": "388.6"
        },
        {
          "StationName": "Belmuri",
          "StationCode": "BMAE",
          "ArrivalTime": "13:24",
          "DepartureTime": "13:24",
          "HaltMinutes": "&nbsp;",
          "Day": 1,
          "Latitude": 22.93272,
          "Longitude": 88.15227,
          "stopNumberDisplay": "13.15",
          "Distance": "390.8"
        },
        {
          "StationName": "Porabazar",
          "StationCode": "PBZ",
          "ArrivalTime": "13:27",
          "DepartureTime": "13:27",
          "HaltMinutes": "&nbsp;",
          "Day": 1,
          "Latitude": 22.9164,
          "Longitude": 88.1598,
          "stopNumberDisplay": "13.16",
          "Distance": "392.8"
        },
        {
          "StationName": "Chandanpur",
          "StationCode": "CDAE",
          "ArrivalTime": "13:31",
          "DepartureTime": "13:31",
          "HaltMinutes": "&nbsp;",
          "Day": 1,
          "Latitude": 22.8806,
          "Longitude": 88.1754,
          "stopNumberDisplay": "13.17",
          "Distance": "397.0"
        },
        {
          "StationName": "Madhusudanpur",
          "StationCode": "MDSE",
          "ArrivalTime": "13:36",
          "DepartureTime": "13:36",
          "HaltMinutes": "&nbsp;",
          "Day": 1,
          "Latitude": 22.8443,
          "Longitude": 88.1931,
          "stopNumberDisplay": "13.18",
          "Distance": "401.5"
        },
        {
          "StationName": "Kamarkundu",
          "StationCode": "KQU",
          "ArrivalTime": "13:39",
          "DepartureTime": "13:39",
          "HaltMinutes": "&nbsp;",
          "Day": 1,
          "Latitude": 22.8208,
          "Longitude": 88.2051,
          "stopNumberDisplay": "13.19",
          "Distance": "404.4"
        },
        {
          "StationName": "Balarambati",
          "StationCode": "BLAE",
          "ArrivalTime": "13:41",
          "DepartureTime": "13:41",
          "HaltMinutes": "&nbsp;",
          "Day": 1,
          "Latitude": 22.8069,
          "Longitude": 88.2123,
          "stopNumberDisplay": "13.20",
          "Distance": "406.1"
        },
        {
          "StationName": "Mirzapur Bankipur",
          "StationCode": "MBE",
          "ArrivalTime": "13:43",
          "DepartureTime": "13:43",
          "HaltMinutes": "&nbsp;",
          "Day": 1,
          "Latitude": 22.7911,
          "Longitude": 88.2221,
          "stopNumberDisplay": "13.21",
          "Distance": "408.1"
        },
        {
          "StationName": "Baruipara",
          "StationCode": "BRPA",
          "ArrivalTime": "13:47",
          "DepartureTime": "13:47",
          "HaltMinutes": "&nbsp;",
          "Day": 1,
          "Latitude": 22.7663,
          "Longitude": 88.2373,
          "stopNumberDisplay": "13.22",
          "Distance": "411.2"
        },
        {
          "StationName": "Begampur",
          "StationCode": "BPAE",
          "ArrivalTime": "13:51",
          "DepartureTime": "13:51",
          "HaltMinutes": "&nbsp;",
          "Day": 1,
          "Latitude": 22.7371,
          "Longitude": 88.256,
          "stopNumberDisplay": "13.23",
          "Distance": "415.0"
        },
        {
          "StationName": "Janai Road",
          "StationCode": "JOX",
          "ArrivalTime": "13:53",
          "DepartureTime": "13:53",
          "HaltMinutes": "&nbsp;",
          "Day": 1,
          "Latitude": 22.7217,
          "Longitude": 88.2648,
          "stopNumberDisplay": "13.24",
          "Distance": "417.0"
        },
        {
          "StationName": "Gobra",
          "StationCode": "GBRA",
          "ArrivalTime": "13:56",
          "DepartureTime": "13:56",
          "HaltMinutes": "&nbsp;",
          "Day": 1,
          "Latitude": 22.6954,
          "Longitude": 88.2796,
          "stopNumberDisplay": "13.25",
          "Distance": "420.2"
        },
        {
          "StationName": "Dankuni Jn",
          "StationCode": "DKAE",
          "ArrivalTime": "13:59",
          "DepartureTime": "13:59",
          "HaltMinutes": "&nbsp;",
          "Day": 1,
          "Latitude": 22.6776,
          "Longitude": 88.2911,
          "stopNumberDisplay": "13.26",
          "Distance": "422.5"
        },
        {
          "StationName": "Calcutta Chord Link West",
          "StationCode": "CCLW",
          "ArrivalTime": "14:01",
          "DepartureTime": "14:01",
          "HaltMinutes": "&nbsp;",
          "Day": 1,
          "Latitude": 22.6559,
          "Longitude": 88.3076,
          "stopNumberDisplay": "13.27",
          "Distance": "425.5"
        },
        {
          "StationName": "Calcutta Chord Link East Cabin",
          "StationCode": "CCRL",
          "ArrivalTime": "14:02",
          "DepartureTime": "14:02",
          "HaltMinutes": "&nbsp;",
          "Day": 1,
          "Latitude": 22.65297,
          "Longitude": 88.3177,
          "stopNumberDisplay": "13.28",
          "Distance": "426.5"
        },
        {
          "StationName": "Rajchandrapur",
          "StationCode": "RCD",
          "ArrivalTime": "14:03",
          "DepartureTime": "14:03",
          "HaltMinutes": "&nbsp;",
          "Day": 1,
          "Latitude": 22.6528838,
          "Longitude": 88.3213116,
          "stopNumberDisplay": "13.29",
          "Distance": "426.9"
        },
        {
          "StationName": "Bally Halt",
          "StationCode": "BLYH",
          "ArrivalTime": "14:04",
          "DepartureTime": "14:04",
          "HaltMinutes": "&nbsp;",
          "Day": 1,
          "Latitude": 22.65234,
          "Longitude": 88.33927,
          "stopNumberDisplay": "13.30",
          "Distance": "428.8"
        },
        {
          "StationName": "Bally Ghat",
          "StationCode": "BLYG",
          "ArrivalTime": "14:05",
          "DepartureTime": "14:05",
          "HaltMinutes": "&nbsp;",
          "Day": 1,
          "Latitude": 22.65249,
          "Longitude": 88.34828,
          "stopNumberDisplay": "13.31",
          "Distance": "429.7"
        },
        {
          "StationName": "Dakshineswar",
          "StationCode": "DAKE",
          "ArrivalTime": "14:06",
          "DepartureTime": "14:06",
          "HaltMinutes": "&nbsp;",
          "Day": 1,
          "Latitude": 22.65374,
          "Longitude": 88.36339,
          "stopNumberDisplay": "13.32",
          "Distance": "431.3"
        },
        {
          "StationName": "Baranagar Road",
          "StationCode": "BARN",
          "ArrivalTime": "14:08",
          "DepartureTime": "14:08",
          "HaltMinutes": "&nbsp;",
          "Day": 1,
          "Latitude": 22.65361,
          "Longitude": 88.37847,
          "stopNumberDisplay": "13.33",
          "Distance": "432.8"
        },
        {
          "StationName": "Dum Dum Jn",
          "StationCode": "DDJ",
          "ArrivalTime": "14:12",
          "DepartureTime": "14:12",
          "HaltMinutes": "&nbsp;",
          "Day": 1,
          "Latitude": 22.62066,
          "Longitude": 88.39323,
          "stopNumberDisplay": "13.34",
          "Distance": "437.5"
        },
        {
          "StationName": "Patipukur",
          "StationCode": "PTKR",
          "ArrivalTime": "14:13",
          "DepartureTime": "14:13",
          "HaltMinutes": "&nbsp;",
          "Day": 1,
          "Latitude": 22.6064,
          "Longitude": 88.3952,
          "stopNumberDisplay": "13.35",
          "Distance": "439.1"
        },
        {
          "StationName": "Ultadanga Road",
          "StationCode": "ULR",
          "ArrivalTime": "14:14",
          "DepartureTime": "14:14",
          "HaltMinutes": "&nbsp;",
          "Day": 1,
          "Latitude": 22.5971,
          "Longitude": 88.3907,
          "stopNumberDisplay": "13.36",
          "Distance": "440.4"
        }
      ],
      "TrainNo": 13162,
      "StationCode": "BWN",
      "RouteNo": null,
      "StopNumber": 13,
      "TrainMappingKey": null,
      "StationName": "Barddhaman Jn",
      "ArrivalTime": "12:30",
      "DepartureTime": "12:32",
      "HaltMinutes": "2m",
      "Distance": "342.7",
      "HasWifi": true,
      "Day": 1,
      "DataChanged": false,
      "ExpectedPlatformNo": "3",
      "arrivalDelay": "-",
      "departureDelay": "-",
      "Latitude": 23.25,
      "Longitude": 87.8697,
      "stopNumberDisplay": 13
    },
    {
      "intermediateStations": [],
      "TrainNo": 13162,
      "StationCode": "KOAA",
      "RouteNo": null,
      "StopNumber": 14,
      "TrainMappingKey": null,
      "StationName": "Kolkata",
      "ArrivalTime": "14:15",
      "DepartureTime": "",
      "HaltMinutes": "",
      "Distance": "441.4",
      "HasWifi": false,
      "Day": 1,
      "DataChanged": false,
      "ExpectedPlatformNo": "2",
      "arrivalDelay": "-",
      "departureDelay": "-",
      "Latitude": null,
      "Longitude": null,
      "stopNumberDisplay": 14
    }
  ],
  "Source": "Balurghat",
  "Destination": "Kolkata Chitpur",
  "SourceCode": "BLGT",
  "DestinationCode": "KOAA",
  "DaysOfRun": {
    "Sun": false,
    "Mon": true,
    "Tue": true,
    "Wed": true,
    "Thu": true,
    "Fri": true,
    "Sat": true
  },
  "FooterText": null,
  "TrainType": null,
  "IsUnreserved": false,
  "Rating": 3.9,
  "FoodRating": 3.4,
  "PunctualityRating": 4.2,
  "CleanlinessRating": 4.2,
  "RatingCount": 217,
  "TotalDuration": "8:30",
  "FromCity": "Balurghat",
  "ToCity": "KOLKATA",
  "CacheTime": "2024-03-09T15:38:48.3526562+05:30",
  "HasPantry": false,
  "ErrorMsg": null
}