{
  "TrainName": "KLK BNW EXP",
  "TrainNo": 14796,
  "TrainNumberString": null,
  "CoachPosition": "L SLR GS GS GS S2 S1 GS GS GS GS SLR",
  "Classes": [
    "SL"
  ],
  "Schedule": [
    {
      "intermediateStations": [
        {
          "StationName": "Surajpur",
          "StationCode": "SUPR",
          "ArrivalTime": "17:03",
          "DepartureTime": "17:03",
          "HaltMinutes": "&nbsp;",
          "Day": 1,
          "Latitude": 30.76403,
          "Longitude": 76.90185,
          "stopNumberDisplay": "1.1",
          "Distance": "8.6"
        }
      ],
      "TrainNo": 14796,
      "StationCode": "KLK",
      "RouteNo": null,
      "StopNumber": 1,
      "TrainMappingKey": null,
      "StationName": "Kalka",
      "ArrivalTime": "",
      "DepartureTime": "16:55",
      "HaltMinutes": "",
      "Distance": "0.0",
      "HasWifi": true,
      "Day": 1,
      "DataChanged": false,
      "ExpectedPlatformNo": null,
      "arrivalDelay": "-",
      "departureDelay": "-",
      "Latitude": 30.83746,
      "Longitude": 76.9327,
      "stopNumberDisplay": 1
    },
    {
      "intermediateStations": [],
      "TrainNo": 14796,
      "StationCode": "CNDM",
      "RouteNo": null,
      "StopNumber": 2,
      "TrainMappingKey": null,
      "StationName": "Chandi Mandir",
      "ArrivalTime": "17:10",
      "DepartureTime": "17:12",
      "HaltMinutes": "2m",
      "Distance": "15.6",
      "HasWifi": false,
      "Day": 1,
      "DataChanged": false,
      "ExpectedPlatformNo": null,
      "arrivalDelay": "-",
      "departureDelay": "-",
      "Latitude": 30.72708,
      "Longitude": 76.88695,
      "stopNumberDisplay": 2
    },
    {
      "intermediateStations": [
        {
          "StationName": "Ghagghar",
          "StationCode": "GHG",
          "ArrivalTime": "17:37",
          "DepartureTime": "17:37",
          "HaltMinutes": "&nbsp;",
          "Day": 1,
          "Latitude": 30.62738,
          "Longitude": 76.84706,
          "stopNumberDisplay": "3.1",
          "Distance": "36.0"
        },
        {
          "StationName": "Dappar",
          "StationCode": "DHPR",
          "ArrivalTime": "17:44",
          "DepartureTime": "17:44",
          "HaltMinutes": "&nbsp;",
          "Day": 1,
          "Latitude": 30.61025,
          "Longitude": 76.8476,
          "stopNumberDisplay": "3.2",
          "Distance": "47.0"
        },
        {
          "StationName": "Lalru",
          "StationCode": "LLU",
          "ArrivalTime": "17:47",
          "DepartureTime": "17:47",
          "HaltMinutes": "&nbsp;",
          "Day": 1,
          "Latitude": 30.47978,
          "Longitude": 76.79409,
          "stopNumberDisplay": "3.3",
          "Distance": "51.5"
        }
      ],
      "TrainNo": 14796,
      "StationCode": "CDG",
      "RouteNo": null,
      "StopNumber": 3,
      "TrainMappingKey": null,
      "StationName": "Chandigarh Jn",
      "ArrivalTime": "17:25",
      "DepartureTime": "17:30",
      "HaltMinutes": "5m",
      "Distance": "24.7",
      "HasWifi": true,
      "Day": 1,
      "DataChanged": false,
      "ExpectedPlatformNo": "4",
      "arrivalDelay": "-",
      "departureDelay": "-",
      "Latitude": 30.70427,
      "Longitude": 76.82065,
      "stopNumberDisplay": 3
    },
    {
      "intermediateStations": [
        {
          "StationName": "Ambala Cantt New West Outer Cabin",
          "StationCode": "NWOC",
          "ArrivalTime": "18:13",
          "DepartureTime": "18:13",
          "HaltMinutes": "&nbsp;",
          "Day": 1,
          "Latitude": null,
          "Longitude": null,
          "stopNumberDisplay": "4.1",
          "Distance": "67.2"
        },
        {
          "StationName": "Ambala Cantt Yard",
          "StationCode": "UMBY",
          "ArrivalTime": "18:15",
          "DepartureTime": "18:15",
          "HaltMinutes": "&nbsp;",
          "Day": 1,
          "Latitude": null,
          "Longitude": null,
          "stopNumberDisplay": "4.2",
          "Distance": "67.9"
        }
      ],
      "TrainNo": 14796,
      "StationCode": "DKT",
      "RouteNo": null,
      "StopNumber": 4,
      "TrainMappingKey": null,
      "StationName": "Dhulkot",
      "ArrivalTime": "17:54",
      "DepartureTime": "17:56",
      "HaltMinutes": "2m",
      "Distance": "61.6",
      "HasWifi": false,
      "Day": 1,
      "DataChanged": false,
      "ExpectedPlatformNo": null,
      "arrivalDelay": "-",
      "departureDelay": "-",
      "Latitude": 30.395414,
      "Longitude": 76.788294,
      "stopNumberDisplay": 4
    },
    {
      "intermediateStations": [
        {
          "StationName": "Mohri",
          "StationCode": "MOY",
          "ArrivalTime": "18:34",
          "DepartureTime": "18:34",
          "HaltMinutes": "&nbsp;",
          "Day": 1,
          "Latitude": 30.25563,
          "Longitude": 76.8502,
          "stopNumberDisplay": "5.1",
          "Distance": "79.2"
        }
      ],
      "TrainNo": 14796,
      "StationCode": "UMB",
      "RouteNo": null,
      "StopNumber": 5,
      "TrainMappingKey": null,
      "StationName": "Ambala Cantt Jn",
      "ArrivalTime": "18:20",
      "DepartureTime": "18:25",
      "HaltMinutes": "5m",
      "Distance": "69.6",
      "HasWifi": false,
      "Day": 1,
      "DataChanged": false,
      "ExpectedPlatformNo": "1",
      "arrivalDelay": "-",
      "departureDelay": "-",
      "Latitude": null,
      "Longitude": null,
      "stopNumberDisplay": 5
    },
    {
      "intermediateStations": [
        {
          "StationName": "Dhola Mazra",
          "StationCode": "DHMZ",
          "ArrivalTime": "18:52",
          "DepartureTime": "18:52",
          "HaltMinutes": "&nbsp;",
          "Day": 1,
          "Latitude": 30.11515,
          "Longitude": 76.8535,
          "stopNumberDisplay": "6.1",
          "Distance": "95.1"
        },
        {
          "StationName": "Dhirpur",
          "StationCode": "DPP",
          "ArrivalTime": "18:58",
          "DepartureTime": "18:58",
          "HaltMinutes": "&nbsp;",
          "Day": 1,
          "Latitude": 30.06657,
          "Longitude": 76.84416,
          "stopNumberDisplay": "6.2",
          "Distance": "100.5"
        },
        {
          "StationName": "Dhoda Kheri",
          "StationCode": "DHKR",
          "ArrivalTime": "19:05",
          "DepartureTime": "19:05",
          "HaltMinutes": "&nbsp;",
          "Day": 1,
          "Latitude": 30.01828,
          "Longitude": 76.84231,
          "stopNumberDisplay": "6.3",
          "Distance": "106.0"
        }
      ],
      "TrainNo": 14796,
      "StationCode": "SHDM",
      "RouteNo": null,
      "StopNumber": 6,
      "TrainMappingKey": null,
      "StationName": "Shahabad Markanda",
      "ArrivalTime": "18:43",
      "DepartureTime": "18:45",
      "HaltMinutes": "2m",
      "Distance": "89.4",
      "HasWifi": false,
      "Day": 1,
      "DataChanged": false,
      "ExpectedPlatformNo": null,
      "arrivalDelay": "-",
      "departureDelay": "-",
      "Latitude": 30.16583,
      "Longitude": 76.86142,
      "stopNumberDisplay": 6
    },
    {
      "intermediateStations": [
        {
          "StationName": "Amin",
          "StationCode": "AMIN",
          "ArrivalTime": "19:21",
          "DepartureTime": "19:21",
          "HaltMinutes": "&nbsp;",
          "Day": 1,
          "Latitude": 29.904897,
          "Longitude": 76.899803,
          "stopNumberDisplay": "7.1",
          "Distance": "120.0"
        }
      ],
      "TrainNo": 14796,
      "StationCode": "KKDE",
      "RouteNo": null,
      "StopNumber": 7,
      "TrainMappingKey": null,
      "StationName": "Kurukshetra Jn",
      "ArrivalTime": "19:11",
      "DepartureTime": "19:13",
      "HaltMinutes": "2m",
      "Distance": "111.5",
      "HasWifi": false,
      "Day": 1,
      "DataChanged": false,
      "ExpectedPlatformNo": null,
      "arrivalDelay": "-",
      "departureDelay": "-",
      "Latitude": 29.96969,
      "Longitude": 76.85231,
      "stopNumberDisplay": 7
    },
    {
      "intermediateStations": [
        {
          "StationName": "Taraori",
          "StationCode": "TRR",
          "ArrivalTime": "19:33",
          "DepartureTime": "19:33",
          "HaltMinutes": "&nbsp;",
          "Day": 1,
          "Latitude": 29.797889,
          "Longitude": 76.938301,
          "stopNumberDisplay": "8.1",
          "Distance": "132.5"
        },
        {
          "StationName": "Bhaini Khurd",
          "StationCode": "BZK",
          "ArrivalTime": "19:36",
          "DepartureTime": "19:36",
          "HaltMinutes": "&nbsp;",
          "Day": 1,
          "Latitude": 29.752121,
          "Longitude": 76.955726,
          "stopNumberDisplay": "8.2",
          "Distance": "137.9"
        }
      ],
      "TrainNo": 14796,
      "StationCode": "NLKR",
      "RouteNo": null,
      "StopNumber": 8,
      "TrainMappingKey": null,
      "StationName": "Nilokheri",
      "ArrivalTime": "19:28",
      "DepartureTime": "19:30",
      "HaltMinutes": "2m",
      "Distance": "128.5",
      "HasWifi": false,
      "Day": 1,
      "DataChanged": false,
      "ExpectedPlatformNo": null,
      "arrivalDelay": "-",
      "departureDelay": "-",
      "Latitude": 29.831895,
      "Longitude": 76.925216,
      "stopNumberDisplay": 8
    },
    {
      "intermediateStations": [
        {
          "StationName": "Bazida Jatan",
          "StationCode": "BZJT",
          "ArrivalTime": "19:51",
          "DepartureTime": "19:51",
          "HaltMinutes": "&nbsp;",
          "Day": 1,
          "Latitude": 29.613439,
          "Longitude": 76.965202,
          "stopNumberDisplay": "9.1",
          "Distance": "154.1"
        }
      ],
      "TrainNo": 14796,
      "StationCode": "KUN",
      "RouteNo": null,
      "StopNumber": 9,
      "TrainMappingKey": null,
      "StationName": "Karnal",
      "ArrivalTime": "19:41",
      "DepartureTime": "19:43",
      "HaltMinutes": "2m",
      "Distance": "144.6",
      "HasWifi": true,
      "Day": 1,
      "DataChanged": false,
      "ExpectedPlatformNo": "1",
      "arrivalDelay": "-",
      "departureDelay": "-",
      "Latitude": 29.694797,
      "Longitude": 76.969562,
      "stopNumberDisplay": 9
    },
    {
      "intermediateStations": [
        {
          "StationName": "Kohand",
          "StationCode": "KFU",
          "ArrivalTime": "20:04",
          "DepartureTime": "20:04",
          "HaltMinutes": "&nbsp;",
          "Day": 1,
          "Latitude": 29.49466,
          "Longitude": 76.968413,
          "stopNumberDisplay": "10.1",
          "Distance": "167.2"
        },
        {
          "StationName": "Babarpur",
          "StationCode": "BBDE",
          "ArrivalTime": "20:08",
          "DepartureTime": "20:08",
          "HaltMinutes": "&nbsp;",
          "Day": 1,
          "Latitude": 29.450055,
          "Longitude": 76.966405,
          "stopNumberDisplay": "10.2",
          "Distance": "172.3"
        }
      ],
      "TrainNo": 14796,
      "StationCode": "GRA",
      "RouteNo": null,
      "StopNumber": 10,
      "TrainMappingKey": null,
      "StationName": "Gharaunda",
      "ArrivalTime": "19:58",
      "DepartureTime": "20:00",
      "HaltMinutes": "2m",
      "Distance": "162.1",
      "HasWifi": false,
      "Day": 1,
      "DataChanged": false,
      "ExpectedPlatformNo": null,
      "arrivalDelay": "-",
      "departureDelay": "-",
      "Latitude": 29.540912,
      "Longitude": 76.965152,
      "stopNumberDisplay": 10
    },
    {
      "intermediateStations": [
        {
          "StationName": "Binjhol",
          "StationCode": "BNJL",
          "ArrivalTime": "20:26",
          "DepartureTime": "20:26",
          "HaltMinutes": "&nbsp;",
          "Day": 1,
          "Latitude": 29.34146,
          "Longitude": 76.91994,
          "stopNumberDisplay": "11.1",
          "Distance": "186.3"
        },
        {
          "StationName": "Naultha",
          "StationCode": "NLH",
          "ArrivalTime": "20:32",
          "DepartureTime": "20:32",
          "HaltMinutes": "&nbsp;",
          "Day": 1,
          "Latitude": 29.31601,
          "Longitude": 76.88611,
          "stopNumberDisplay": "11.2",
          "Distance": "190.6"
        }
      ],
      "TrainNo": 14796,
      "StationCode": "PNP",
      "RouteNo": null,
      "StopNumber": 11,
      "TrainMappingKey": null,
      "StationName": "Panipat Jn",
      "ArrivalTime": "20:14",
      "DepartureTime": "20:16",
      "HaltMinutes": "2m",
      "Distance": "178.9",
      "HasWifi": true,
      "Day": 1,
      "DataChanged": false,
      "ExpectedPlatformNo": null,
      "arrivalDelay": "-",
      "departureDelay": "-",
      "Latitude": 29.389026,
      "Longitude": 76.963879,
      "stopNumberDisplay": 11
    },
    {
      "intermediateStations": [
        {
          "StationName": "Dhurana",
          "StationCode": "DHRN",
          "ArrivalTime": "20:48",
          "DepartureTime": "20:48",
          "HaltMinutes": "&nbsp;",
          "Day": 1,
          "Latitude": 29.24563,
          "Longitude": 76.79246,
          "stopNumberDisplay": "12.1",
          "Distance": "202.4"
        },
        {
          "StationName": "Mudlana",
          "StationCode": "MDLA",
          "ArrivalTime": "20:53",
          "DepartureTime": "20:53",
          "HaltMinutes": "&nbsp;",
          "Day": 1,
          "Latitude": 29.21228,
          "Longitude": 76.75766,
          "stopNumberDisplay": "12.2",
          "Distance": "207.7"
        },
        {
          "StationName": "Sarsadh",
          "StationCode": "SRDH",
          "ArrivalTime": "20:57",
          "DepartureTime": "20:57",
          "HaltMinutes": "&nbsp;",
          "Day": 1,
          "Latitude": 29.18589,
          "Longitude": 76.73382,
          "stopNumberDisplay": "12.3",
          "Distance": "211.6"
        }
      ],
      "TrainNo": 14796,
      "StationCode": "IRA",
      "RouteNo": null,
      "StopNumber": 12,
      "TrainMappingKey": null,
      "StationName": "Israna",
      "ArrivalTime": "20:41",
      "DepartureTime": "20:43",
      "HaltMinutes": "2m",
      "Distance": "197.0",
      "HasWifi": false,
      "Day": 1,
      "DataChanged": false,
      "ExpectedPlatformNo": null,
      "arrivalDelay": "-",
      "departureDelay": "-",
      "Latitude": 29.27844,
      "Longitude": 76.83667,
      "stopNumberDisplay": 12
    },
    {
      "intermediateStations": [
        {
          "StationName": "Bhainswan",
          "StationCode": "BASN",
          "ArrivalTime": "21:17",
          "DepartureTime": "21:17",
          "HaltMinutes": "&nbsp;",
          "Day": 1,
          "Latitude": 29.08912,
          "Longitude": 76.67994,
          "stopNumberDisplay": "13.1",
          "Distance": "223.9"
        },
        {
          "StationName": "Rukhi",
          "StationCode": "RKX",
          "ArrivalTime": "21:24",
          "DepartureTime": "21:24",
          "HaltMinutes": "&nbsp;",
          "Day": 1,
          "Latitude": 29.0554,
          "Longitude": 76.66917,
          "stopNumberDisplay": "13.2",
          "Distance": "227.9"
        },
        {
          "StationName": "Jasia",
          "StationCode": "JSS",
          "ArrivalTime": "21:33",
          "DepartureTime": "21:33",
          "HaltMinutes": "&nbsp;",
          "Day": 1,
          "Latitude": 29.01976,
          "Longitude": 76.65556,
          "stopNumberDisplay": "13.3",
          "Distance": "232.3"
        },
        {
          "StationName": "Makrauli",
          "StationCode": "MKLI",
          "ArrivalTime": "21:43",
          "DepartureTime": "21:43",
          "HaltMinutes": "&nbsp;",
          "Day": 1,
          "Latitude": 28.97494,
          "Longitude": 76.63833,
          "stopNumberDisplay": "13.4",
          "Distance": "237.2"
        }
      ],
      "TrainNo": 14796,
      "StationCode": "GHNA",
      "RouteNo": null,
      "StopNumber": 13,
      "TrainMappingKey": null,
      "StationName": "Gohana Jn",
      "ArrivalTime": "21:03",
      "DepartureTime": "21:05",
      "HaltMinutes": "2m",
      "Distance": "218.0",
      "HasWifi": false,
      "Day": 1,
      "DataChanged": false,
      "ExpectedPlatformNo": null,
      "arrivalDelay": "-",
      "departureDelay": "-",
      "Latitude": 29.1411,
      "Longitude": 76.68949,
      "stopNumberDisplay": 13
    },
    {
      "intermediateStations": [
        {
          "StationName": "Dobh Bhali Jn",
          "StationCode": "DBHL",
          "ArrivalTime": "22:21",
          "DepartureTime": "22:21",
          "HaltMinutes": "&nbsp;",
          "Day": 1,
          "Latitude": null,
          "Longitude": null,
          "stopNumberDisplay": "14.1",
          "Distance": "257.5"
        },
        {
          "StationName": "Lahli",
          "StationCode": "LHLL",
          "ArrivalTime": "22:31",
          "DepartureTime": "22:31",
          "HaltMinutes": "&nbsp;",
          "Day": 1,
          "Latitude": 28.85392,
          "Longitude": 76.44586,
          "stopNumberDisplay": "14.2",
          "Distance": "264.0"
        }
      ],
      "TrainNo": 14796,
      "StationCode": "ROK",
      "RouteNo": null,
      "StopNumber": 14,
      "TrainMappingKey": null,
      "StationName": "Rohtak Jn",
      "ArrivalTime": "22:08",
      "DepartureTime": "22:10",
      "HaltMinutes": "2m",
      "Distance": "250.0",
      "HasWifi": true,
      "Day": 1,
      "DataChanged": false,
      "ExpectedPlatformNo": null,
      "arrivalDelay": "-",
      "departureDelay": "-",
      "Latitude": 28.89081,
      "Longitude": 76.57943,
      "stopNumberDisplay": 14
    },
    {
      "intermediateStations": [
        {
          "StationName": "Kharak",
          "StationCode": "KHRK",
          "ArrivalTime": "22:52",
          "DepartureTime": "22:52",
          "HaltMinutes": "&nbsp;",
          "Day": 1,
          "Latitude": 28.83642,
          "Longitude": 76.30136,
          "stopNumberDisplay": "15.1",
          "Distance": "278.1"
        },
        {
          "StationName": "Bamla",
          "StationCode": "BMLL",
          "ArrivalTime": "23:02",
          "DepartureTime": "23:02",
          "HaltMinutes": "&nbsp;",
          "Day": 1,
          "Latitude": 28.82776,
          "Longitude": 76.17671,
          "stopNumberDisplay": "15.2",
          "Distance": "285.8"
        },
        {
          "StationName": "Bhiwani City",
          "StationCode": "BNWC",
          "ArrivalTime": "23:13",
          "DepartureTime": "23:13",
          "HaltMinutes": "&nbsp;",
          "Day": 1,
          "Latitude": 28.82541,
          "Longitude": 76.14418,
          "stopNumberDisplay": "15.3",
          "Distance": "294.1"
        }
      ],
      "TrainNo": 14796,
      "StationCode": "KLNK",
      "RouteNo": null,
      "StopNumber": 15,
      "TrainMappingKey": null,
      "StationName": "Kalanaur Kalan",
      "ArrivalTime": "22:40",
      "DepartureTime": "22:42",
      "HaltMinutes": "2m",
      "Distance": "270.2",
      "HasWifi": false,
      "Day": 1,
      "DataChanged": false,
      "ExpectedPlatformNo": null,
      "arrivalDelay": "-",
      "departureDelay": "-",
      "Latitude": 28.83477,
      "Longitude": 76.38932,
      "stopNumberDisplay": 15
    },
    {
      "intermediateStations": [],
      "TrainNo": 14796,
      "StationCode": "BNW",
      "RouteNo": null,
      "StopNumber": 16,
      "TrainMappingKey": null,
      "StationName": "Bhiwani Jn",
      "ArrivalTime": "23:20",
      "DepartureTime": "",
      "HaltMinutes": "",
      "Distance": "299.2",
      "HasWifi": true,
      "Day": 1,
      "DataChanged": false,
      "ExpectedPlatformNo": null,
      "arrivalDelay": "-",
      "departureDelay": "-",
      "Latitude": 28.80044,
      "Longitude": 76.12448,
      "stopNumberDisplay": 16
    }
  ],
  "Source": "Kalka",
  "Destination": "Bhiwani",
  "SourceCode": "KLK",
  "DestinationCode": "BNW",
  "DaysOfRun": {
    "Sun": true,
    "Mon": true,
    "Tue": true,
    "Wed": true,
    "Thu": true,
    "Fri": true,
    "Sat": true
  },
  "FooterText": null,
  "TrainType": null,
  "IsUnreserved": false,
  "Rating": 4.2,
  "FoodRating": 4.3,
  "PunctualityRating": 4.5,
  "CleanlinessRating": 4.3,
  "RatingCount": 31,
  "TotalDuration": "6:25",
  "FromCity": "Kalka",
  "ToCity": "Bhiwani",
  "CacheTime": "2024-03-08T22:59:40.2769574+05:30",
  "HasPantry": false,
  "ErrorMsg": null
}