{
  "TrainName": "TRIVENI EXP",
  "TrainNo": 15076,
  "TrainNumberString": null,
  "CoachPosition": "L SLR GN GN GN GN S1 S2 S3 S4 S5 S6 S7 A1 A2 M1 M2 M3 M4 M5 M6 M7 EOG PRYJ",
  "Classes": [
    "2A",
    "3E",
    "SL"
  ],
  "Schedule": [
    {
      "intermediateStations": [
        {
          "StationName": "Banbasa",
          "StationCode": "BNSA",
          "ArrivalTime": "08:43",
          "DepartureTime": "08:43",
          "HaltMinutes": "&nbsp;",
          "Day": 1,
          "Latitude": 28.99269,
          "Longitude": 80.07398,
          "stopNumberDisplay": "1.1",
          "Distance": "9.1"
        },
        {
          "StationName": "Chakarpur",
          "StationCode": "CKK",
          "ArrivalTime": "08:50",
          "DepartureTime": "08:50",
          "HaltMinutes": "&nbsp;",
          "Day": 1,
          "Latitude": 28.96385,
          "Longitude": 80.01352,
          "stopNumberDisplay": "1.2",
          "Distance": "16.4"
        }
      ],
      "TrainNo": 15076,
      "StationCode": "TPU",
      "RouteNo": null,
      "StopNumber": 1,
      "TrainMappingKey": null,
      "StationName": "Tanakpur",
      "ArrivalTime": "",
      "DepartureTime": "08:35",
      "HaltMinutes": "",
      "Distance": "0.0",
      "HasWifi": false,
      "Day": 1,
      "DataChanged": false,
      "ExpectedPlatformNo": null,
      "arrivalDelay": "05 Min",
      "departureDelay": "05 Min",
      "Latitude": 29.06777,
      "Longitude": 80.10967,
      "stopNumberDisplay": 1
    },
    {
      "intermediateStations": [],
      "TrainNo": 15076,
      "StationCode": "KHMA",
      "RouteNo": null,
      "StopNumber": 2,
      "TrainMappingKey": null,
      "StationName": "Khatima",
      "ArrivalTime": "08:56",
      "DepartureTime": "09:01",
      "HaltMinutes": "5m",
      "Distance": "23.3",
      "HasWifi": false,
      "Day": 1,
      "DataChanged": false,
      "ExpectedPlatformNo": "1",
      "arrivalDelay": "10 Min",
      "departureDelay": "10 Min",
      "Latitude": 28.91494,
      "Longitude": 79.96913,
      "stopNumberDisplay": 2
    },
    {
      "intermediateStations": [
        {
          "StationName": "Nyoriya Husenpur",
          "StationCode": "NRY",
          "ArrivalTime": "09:27",
          "DepartureTime": "09:27",
          "HaltMinutes": "&nbsp;",
          "Day": 1,
          "Latitude": 28.73585,
          "Longitude": 79.88968,
          "stopNumberDisplay": "3.1",
          "Distance": "46.3"
        }
      ],
      "TrainNo": 15076,
      "StationCode": "MJZ",
      "RouteNo": null,
      "StopNumber": 3,
      "TrainMappingKey": null,
      "StationName": "Majhola Pakarya",
      "ArrivalTime": "09:16",
      "DepartureTime": "09:18",
      "HaltMinutes": "2m",
      "Distance": "36.3",
      "HasWifi": false,
      "Day": 1,
      "DataChanged": false,
      "ExpectedPlatformNo": null,
      "arrivalDelay": "08 Min",
      "departureDelay": "08 Min",
      "Latitude": 28.81675,
      "Longitude": 79.88915,
      "stopNumberDisplay": 3
    },
    {
      "intermediateStations": [
        {
          "StationName": "Lalauri Khera",
          "StationCode": "LUA",
          "ArrivalTime": "09:54",
          "DepartureTime": "09:54",
          "HaltMinutes": "&nbsp;",
          "Day": 1,
          "Latitude": 28.607824,
          "Longitude": 79.746408,
          "stopNumberDisplay": "4.1",
          "Distance": "68.8"
        },
        {
          "StationName": "Shahi",
          "StationCode": "SSC",
          "ArrivalTime": "10:01",
          "DepartureTime": "10:01",
          "HaltMinutes": "&nbsp;",
          "Day": 1,
          "Latitude": 28.585936,
          "Longitude": 79.685795,
          "stopNumberDisplay": "4.2",
          "Distance": "75.2"
        },
        {
          "StationName": "Bijauria",
          "StationCode": "BJV",
          "ArrivalTime": "10:09",
          "DepartureTime": "10:09",
          "HaltMinutes": "&nbsp;",
          "Day": 1,
          "Latitude": 28.560807,
          "Longitude": 79.617707,
          "stopNumberDisplay": "4.3",
          "Distance": "82.4"
        },
        {
          "StationName": "Saithal",
          "StationCode": "STH",
          "ArrivalTime": "10:15",
          "DepartureTime": "10:15",
          "HaltMinutes": "&nbsp;",
          "Day": 1,
          "Latitude": 28.541065,
          "Longitude": 79.5621,
          "stopNumberDisplay": "4.4",
          "Distance": "88.2"
        },
        {
          "StationName": "Dibnapur",
          "StationCode": "DBNR",
          "ArrivalTime": "10:21",
          "DepartureTime": "10:21",
          "HaltMinutes": "&nbsp;",
          "Day": 1,
          "Latitude": 28.524413,
          "Longitude": 79.516013,
          "stopNumberDisplay": "4.5",
          "Distance": "93.1"
        },
        {
          "StationName": "Bhojipura Jn",
          "StationCode": "BPR",
          "ArrivalTime": "10:30",
          "DepartureTime": "10:30",
          "HaltMinutes": "&nbsp;",
          "Day": 1,
          "Latitude": 28.494552,
          "Longitude": 79.447663,
          "stopNumberDisplay": "4.6",
          "Distance": "101.0"
        },
        {
          "StationName": "Dohna",
          "StationCode": "DOX",
          "ArrivalTime": "10:34",
          "DepartureTime": "10:34",
          "HaltMinutes": "&nbsp;",
          "Day": 1,
          "Latitude": 28.455896,
          "Longitude": 79.438637,
          "stopNumberDisplay": "4.7",
          "Distance": "105.2"
        },
        {
          "StationName": "Izzatnagar Workshop Siding",
          "StationCode": "IZNS",
          "ArrivalTime": "10:41",
          "DepartureTime": "10:41",
          "HaltMinutes": "&nbsp;",
          "Day": 1,
          "Latitude": null,
          "Longitude": null,
          "stopNumberDisplay": "4.8",
          "Distance": "111.2"
        }
      ],
      "TrainNo": 15076,
      "StationCode": "PBE",
      "RouteNo": null,
      "StopNumber": 4,
      "TrainMappingKey": null,
      "StationName": "Pilibhit Jn",
      "ArrivalTime": "09:41",
      "DepartureTime": "09:46",
      "HaltMinutes": "5m",
      "Distance": "62.0",
      "HasWifi": false,
      "Day": 1,
      "DataChanged": false,
      "ExpectedPlatformNo": "1",
      "arrivalDelay": "32 Min",
      "departureDelay": "32 Min",
      "Latitude": 28.6153,
      "Longitude": 79.81438,
      "stopNumberDisplay": 4
    },
    {
      "intermediateStations": [],
      "TrainNo": 15076,
      "StationCode": "IZN",
      "RouteNo": null,
      "StopNumber": 5,
      "TrainMappingKey": null,
      "StationName": "Izzatnagar",
      "ArrivalTime": "10:43",
      "DepartureTime": "10:48",
      "HaltMinutes": "5m",
      "Distance": "113.0",
      "HasWifi": false,
      "Day": 1,
      "DataChanged": false,
      "ExpectedPlatformNo": "1",
      "arrivalDelay": "20 Min",
      "departureDelay": "20 Min",
      "Latitude": 28.38824,
      "Longitude": 79.42124,
      "stopNumberDisplay": 5
    },
    {
      "intermediateStations": [],
      "TrainNo": 15076,
      "StationCode": "BC",
      "RouteNo": null,
      "StopNumber": 6,
      "TrainMappingKey": null,
      "StationName": "Bareilly City",
      "ArrivalTime": "11:05",
      "DepartureTime": "11:10",
      "HaltMinutes": "5m",
      "Distance": "117.6",
      "HasWifi": false,
      "Day": 1,
      "DataChanged": false,
      "ExpectedPlatformNo": null,
      "arrivalDelay": "-",
      "departureDelay": "-",
      "Latitude": null,
      "Longitude": null,
      "stopNumberDisplay": 6
    },
    {
      "intermediateStations": [
        {
          "StationName": "Bareilly Cantt Jn",
          "StationCode": "BRYC",
          "ArrivalTime": "11:33",
          "DepartureTime": "11:33",
          "HaltMinutes": "&nbsp;",
          "Day": 1,
          "Latitude": 28.31086,
          "Longitude": 79.42749,
          "stopNumberDisplay": "7.1",
          "Distance": "123.4"
        },
        {
          "StationName": "Rasuiya",
          "StationCode": "RYS",
          "ArrivalTime": "11:39",
          "DepartureTime": "11:39",
          "HaltMinutes": "&nbsp;",
          "Day": 1,
          "Latitude": 28.26418,
          "Longitude": 79.47452,
          "stopNumberDisplay": "7.2",
          "Distance": "130.4"
        },
        {
          "StationName": "Pitambarpur",
          "StationCode": "PMR",
          "ArrivalTime": "11:47",
          "DepartureTime": "11:47",
          "HaltMinutes": "&nbsp;",
          "Day": 1,
          "Latitude": 28.20015,
          "Longitude": 79.53803,
          "stopNumberDisplay": "7.3",
          "Distance": "139.8"
        },
        {
          "StationName": "Tisua",
          "StationCode": "TSA",
          "ArrivalTime": "11:55",
          "DepartureTime": "11:55",
          "HaltMinutes": "&nbsp;",
          "Day": 1,
          "Latitude": 28.13577,
          "Longitude": 79.58617,
          "stopNumberDisplay": "7.4",
          "Distance": "148.4"
        },
        {
          "StationName": "Bilpur",
          "StationCode": "BLPU",
          "ArrivalTime": "12:01",
          "DepartureTime": "12:01",
          "HaltMinutes": "&nbsp;",
          "Day": 1,
          "Latitude": 28.08099,
          "Longitude": 79.62703,
          "stopNumberDisplay": "7.5",
          "Distance": "155.7"
        },
        {
          "StationName": "Miranpur Katra",
          "StationCode": "MK",
          "ArrivalTime": "12:07",
          "DepartureTime": "12:07",
          "HaltMinutes": "&nbsp;",
          "Day": 1,
          "Latitude": 28.03712,
          "Longitude": 79.67485,
          "stopNumberDisplay": "7.6",
          "Distance": "162.5"
        },
        {
          "StationName": "Milakpur Halt",
          "StationCode": "MILA",
          "ArrivalTime": "12:12",
          "DepartureTime": "12:12",
          "HaltMinutes": "&nbsp;",
          "Day": 1,
          "Latitude": null,
          "Longitude": null,
          "stopNumberDisplay": "7.7",
          "Distance": "168.7"
        },
        {
          "StationName": "Tilhar",
          "StationCode": "TLH",
          "ArrivalTime": "12:15",
          "DepartureTime": "12:15",
          "HaltMinutes": "&nbsp;",
          "Day": 1,
          "Latitude": 27.97277,
          "Longitude": 79.74169,
          "stopNumberDisplay": "7.8",
          "Distance": "172.1"
        },
        {
          "StationName": "Bahadurpur Halt",
          "StationCode": "BHDH",
          "ArrivalTime": "12:21",
          "DepartureTime": "12:21",
          "HaltMinutes": "&nbsp;",
          "Day": 1,
          "Latitude": 27.94452,
          "Longitude": 79.7972,
          "stopNumberDisplay": "7.9",
          "Distance": "178.6"
        },
        {
          "StationName": "Banthra",
          "StationCode": "BTRA",
          "ArrivalTime": "12:24",
          "DepartureTime": "12:24",
          "HaltMinutes": "&nbsp;",
          "Day": 1,
          "Latitude": 27.92903,
          "Longitude": 79.82756,
          "stopNumberDisplay": "7.10",
          "Distance": "182.1"
        }
      ],
      "TrainNo": 15076,
      "StationCode": "BE",
      "RouteNo": null,
      "StopNumber": 7,
      "TrainMappingKey": null,
      "StationName": "Bareilly Jn",
      "ArrivalTime": "11:25",
      "DepartureTime": "11:30",
      "HaltMinutes": "5m",
      "Distance": "120.0",
      "HasWifi": false,
      "Day": 1,
      "DataChanged": false,
      "ExpectedPlatformNo": "1",
      "arrivalDelay": "20 Min",
      "departureDelay": "20 Min",
      "Latitude": null,
      "Longitude": null,
      "stopNumberDisplay": 7
    },
    {
      "intermediateStations": [
        {
          "StationName": "Shahjahanpur Kutchery Halt",
          "StationCode": "SXK",
          "ArrivalTime": "12:35",
          "DepartureTime": "12:35",
          "HaltMinutes": "&nbsp;",
          "Day": 1,
          "Latitude": 27.88763,
          "Longitude": 79.92053,
          "stopNumberDisplay": "8.1",
          "Distance": "192.2"
        },
        {
          "StationName": "Roza Jn",
          "StationCode": "ROZA",
          "ArrivalTime": "12:42",
          "DepartureTime": "12:42",
          "HaltMinutes": "&nbsp;",
          "Day": 1,
          "Latitude": 27.85087,
          "Longitude": 79.95616,
          "stopNumberDisplay": "8.2",
          "Distance": "198.1"
        },
        {
          "StationName": "Pt Ram Prasad Bismil",
          "StationCode": "PRPM",
          "ArrivalTime": "12:48",
          "DepartureTime": "12:48",
          "HaltMinutes": "&nbsp;",
          "Day": 1,
          "Latitude": 27.8153,
          "Longitude": 79.9577,
          "stopNumberDisplay": "8.3",
          "Distance": "202.6"
        },
        {
          "StationName": "Kahiliya",
          "StationCode": "KH",
          "ArrivalTime": "12:53",
          "DepartureTime": "12:53",
          "HaltMinutes": "&nbsp;",
          "Day": 1,
          "Latitude": 27.7757,
          "Longitude": 79.9599,
          "stopNumberDisplay": "8.4",
          "Distance": "206.6"
        },
        {
          "StationName": "Aigawan",
          "StationCode": "AIG",
          "ArrivalTime": "13:03",
          "DepartureTime": "13:03",
          "HaltMinutes": "&nbsp;",
          "Day": 1,
          "Latitude": 27.699,
          "Longitude": 79.9635,
          "stopNumberDisplay": "8.5",
          "Distance": "214.8"
        },
        {
          "StationName": "Anjhi Shahabad",
          "StationCode": "AJI",
          "ArrivalTime": "13:11",
          "DepartureTime": "13:11",
          "HaltMinutes": "&nbsp;",
          "Day": 1,
          "Latitude": 27.6444,
          "Longitude": 79.9745,
          "stopNumberDisplay": "8.6",
          "Distance": "221.3"
        },
        {
          "StationName": "Sharma Halt",
          "StationCode": "SHRM",
          "ArrivalTime": "13:18",
          "DepartureTime": "13:18",
          "HaltMinutes": "&nbsp;",
          "Day": 1,
          "Latitude": 27.5992,
          "Longitude": 80.0064,
          "stopNumberDisplay": "8.7",
          "Distance": "227.2"
        },
        {
          "StationName": "Todarpur",
          "StationCode": "TDP",
          "ArrivalTime": "13:21",
          "DepartureTime": "13:21",
          "HaltMinutes": "&nbsp;",
          "Day": 1,
          "Latitude": 27.5797,
          "Longitude": 80.0202,
          "stopNumberDisplay": "8.8",
          "Distance": "229.5"
        },
        {
          "StationName": "Behta Gokul",
          "StationCode": "BEG",
          "ArrivalTime": "13:29",
          "DepartureTime": "13:29",
          "HaltMinutes": "&nbsp;",
          "Day": 1,
          "Latitude": 27.5307,
          "Longitude": 80.0553,
          "stopNumberDisplay": "8.9",
          "Distance": "236.2"
        },
        {
          "StationName": "Kaurha",
          "StationCode": "KUF",
          "ArrivalTime": "13:40",
          "DepartureTime": "13:40",
          "HaltMinutes": "&nbsp;",
          "Day": 1,
          "Latitude": 27.4631,
          "Longitude": 80.1033,
          "stopNumberDisplay": "8.10",
          "Distance": "244.9"
        }
      ],
      "TrainNo": 15076,
      "StationCode": "SPN",
      "RouteNo": null,
      "StopNumber": 8,
      "TrainMappingKey": null,
      "StationName": "Shahjahanpur Jn",
      "ArrivalTime": "12:31",
      "DepartureTime": "12:33",
      "HaltMinutes": "2m",
      "Distance": "190.5",
      "HasWifi": true,
      "Day": 1,
      "DataChanged": false,
      "ExpectedPlatformNo": "1",
      "arrivalDelay": "13 Min",
      "departureDelay": "13 Min",
      "Latitude": 27.89387,
      "Longitude": 79.90365,
      "stopNumberDisplay": 8
    },
    {
      "intermediateStations": [
        {
          "StationName": "Karna",
          "StationCode": "KAR",
          "ArrivalTime": "14:00",
          "DepartureTime": "14:00",
          "HaltMinutes": "&nbsp;",
          "Day": 1,
          "Latitude": 27.3216,
          "Longitude": 80.1962,
          "stopNumberDisplay": "9.1",
          "Distance": "263.6"
        },
        {
          "StationName": "Masit",
          "StationCode": "MST",
          "ArrivalTime": "14:06",
          "DepartureTime": "14:06",
          "HaltMinutes": "&nbsp;",
          "Day": 1,
          "Latitude": 27.2761,
          "Longitude": 80.2512,
          "stopNumberDisplay": "9.2",
          "Distance": "271.0"
        },
        {
          "StationName": "Baghauli",
          "StationCode": "BGH",
          "ArrivalTime": "14:11",
          "DepartureTime": "14:11",
          "HaltMinutes": "&nbsp;",
          "Day": 1,
          "Latitude": 27.228,
          "Longitude": 80.2961,
          "stopNumberDisplay": "9.3",
          "Distance": "277.8"
        },
        {
          "StationName": "Balamau Jn",
          "StationCode": "BLM",
          "ArrivalTime": "14:17",
          "DepartureTime": "14:17",
          "HaltMinutes": "&nbsp;",
          "Day": 1,
          "Latitude": 27.1673,
          "Longitude": 80.3522,
          "stopNumberDisplay": "9.4",
          "Distance": "286.5"
        },
        {
          "StationName": "Dalelnagar",
          "StationCode": "DLQ",
          "ArrivalTime": "14:24",
          "DepartureTime": "14:24",
          "HaltMinutes": "&nbsp;",
          "Day": 1,
          "Latitude": 27.119716,
          "Longitude": 80.418449,
          "stopNumberDisplay": "9.5",
          "Distance": "295.1"
        },
        {
          "StationName": "Umar Tali",
          "StationCode": "UTA",
          "ArrivalTime": "14:29",
          "DepartureTime": "14:29",
          "HaltMinutes": "&nbsp;",
          "Day": 1,
          "Latitude": 27.087664,
          "Longitude": 80.471072,
          "stopNumberDisplay": "9.6",
          "Distance": "301.5"
        }
      ],
      "TrainNo": 15076,
      "StationCode": "HRI",
      "RouteNo": null,
      "StopNumber": 9,
      "TrainMappingKey": null,
      "StationName": "Hardoi",
      "ArrivalTime": "13:50",
      "DepartureTime": "13:52",
      "HaltMinutes": "2m",
      "Distance": "253.4",
      "HasWifi": true,
      "Day": 1,
      "DataChanged": false,
      "ExpectedPlatformNo": "2",
      "arrivalDelay": "22 Min",
      "departureDelay": "22 Min",
      "Latitude": 27.3989,
      "Longitude": 80.1479,
      "stopNumberDisplay": 9
    },
    {
      "intermediateStations": [
        {
          "StationName": "Rahimabad",
          "StationCode": "RBD",
          "ArrivalTime": "14:49",
          "DepartureTime": "14:49",
          "HaltMinutes": "&nbsp;",
          "Day": 1,
          "Latitude": 26.99717,
          "Longitude": 80.604776,
          "stopNumberDisplay": "10.1",
          "Distance": "317.8"
        },
        {
          "StationName": "Dilawarnagar",
          "StationCode": "DIL",
          "ArrivalTime": "14:58",
          "DepartureTime": "14:58",
          "HaltMinutes": "&nbsp;",
          "Day": 1,
          "Latitude": 26.958867,
          "Longitude": 80.668971,
          "stopNumberDisplay": "10.2",
          "Distance": "325.5"
        },
        {
          "StationName": "Malihabad",
          "StationCode": "MLD",
          "ArrivalTime": "15:05",
          "DepartureTime": "15:05",
          "HaltMinutes": "&nbsp;",
          "Day": 1,
          "Latitude": 26.931629,
          "Longitude": 80.713697,
          "stopNumberDisplay": "10.3",
          "Distance": "331.1"
        },
        {
          "StationName": "Kakori",
          "StationCode": "KKJ",
          "ArrivalTime": "15:17",
          "DepartureTime": "15:17",
          "HaltMinutes": "&nbsp;",
          "Day": 1,
          "Latitude": 26.884022,
          "Longitude": 80.798016,
          "stopNumberDisplay": "10.4",
          "Distance": "341.0"
        }
      ],
      "TrainNo": 15076,
      "StationCode": "SAN",
      "RouteNo": null,
      "StopNumber": 10,
      "TrainMappingKey": null,
      "StationName": "Sandila",
      "ArrivalTime": "14:33",
      "DepartureTime": "14:35",
      "HaltMinutes": "2m",
      "Distance": "306.7",
      "HasWifi": false,
      "Day": 1,
      "DataChanged": false,
      "ExpectedPlatformNo": "3",
      "arrivalDelay": "44 Min",
      "departureDelay": "44 Min",
      "Latitude": 27.060189,
      "Longitude": 80.515455,
      "stopNumberDisplay": 10
    },
    {
      "intermediateStations": [
        {
          "StationName": "Alambagh West Cabin",
          "StationCode": "LNWT",
          "ArrivalTime": "15:46",
          "DepartureTime": "15:46",
          "HaltMinutes": "&nbsp;",
          "Day": 1,
          "Latitude": 26.82849,
          "Longitude": 80.90237,
          "stopNumberDisplay": "11.1",
          "Distance": "353.0"
        }
      ],
      "TrainNo": 15076,
      "StationCode": "AMG",
      "RouteNo": null,
      "StopNumber": 11,
      "TrainMappingKey": null,
      "StationName": "Alamnagar",
      "ArrivalTime": "15:27",
      "DepartureTime": "15:28",
      "HaltMinutes": "1m",
      "Distance": "349.3",
      "HasWifi": false,
      "Day": 1,
      "DataChanged": false,
      "ExpectedPlatformNo": "1",
      "arrivalDelay": "53 Min",
      "departureDelay": "53 Min",
      "Latitude": 26.841756,
      "Longitude": 80.868087,
      "stopNumberDisplay": 11
    },
    {
      "intermediateStations": [
        {
          "StationName": "Dilkusha Cabin",
          "StationCode": "LBH",
          "ArrivalTime": "16:10",
          "DepartureTime": "16:10",
          "HaltMinutes": "&nbsp;",
          "Day": 1,
          "Latitude": 26.83157,
          "Longitude": 80.96141,
          "stopNumberDisplay": "12.1",
          "Distance": "358.4"
        },
        {
          "StationName": "Block Hut A",
          "StationCode": "BHAW",
          "ArrivalTime": "16:14",
          "DepartureTime": "16:14",
          "HaltMinutes": "&nbsp;",
          "Day": 1,
          "Latitude": 26.8063,
          "Longitude": 80.9786,
          "stopNumberDisplay": "12.2",
          "Distance": "362.1"
        },
        {
          "StationName": "Utraitia Jn",
          "StationCode": "UTR",
          "ArrivalTime": "16:21",
          "DepartureTime": "16:21",
          "HaltMinutes": "&nbsp;",
          "Day": 1,
          "Latitude": 26.7629,
          "Longitude": 80.9742,
          "stopNumberDisplay": "12.3",
          "Distance": "367.0"
        },
        {
          "StationName": "MohanlalGanj",
          "StationCode": "MLJ",
          "ArrivalTime": "16:32",
          "DepartureTime": "16:32",
          "HaltMinutes": "&nbsp;",
          "Day": 1,
          "Latitude": 26.68614,
          "Longitude": 80.98419,
          "stopNumberDisplay": "12.4",
          "Distance": "375.6"
        },
        {
          "StationName": "Kankaha",
          "StationCode": "KKAH",
          "ArrivalTime": "16:42",
          "DepartureTime": "16:42",
          "HaltMinutes": "&nbsp;",
          "Day": 1,
          "Latitude": 26.61919,
          "Longitude": 81.00792,
          "stopNumberDisplay": "12.5",
          "Distance": "383.4"
        }
      ],
      "TrainNo": 15076,
      "StationCode": "LKO",
      "RouteNo": null,
      "StopNumber": 12,
      "TrainMappingKey": null,
      "StationName": "Lucknow Charbagh NR",
      "ArrivalTime": "15:55",
      "DepartureTime": "16:05",
      "HaltMinutes": "10m",
      "Distance": "354.8",
      "HasWifi": false,
      "Day": 1,
      "DataChanged": false,
      "ExpectedPlatformNo": "3",
      "arrivalDelay": "53 Min",
      "departureDelay": "53 Min",
      "Latitude": null,
      "Longitude": null,
      "stopNumberDisplay": 12
    },
    {
      "intermediateStations": [
        {
          "StationName": "Shrirajnagar",
          "StationCode": "SAGR",
          "ArrivalTime": "16:58",
          "DepartureTime": "16:58",
          "HaltMinutes": "&nbsp;",
          "Day": 1,
          "Latitude": 26.522005,
          "Longitude": 81.077925,
          "stopNumberDisplay": "13.1",
          "Distance": "396.3"
        }
      ],
      "TrainNo": 15076,
      "StationCode": "NHN",
      "RouteNo": null,
      "StopNumber": 13,
      "TrainMappingKey": null,
      "StationName": "Nigohan",
      "ArrivalTime": "16:51",
      "DepartureTime": "16:52",
      "HaltMinutes": "1m",
      "Distance": "390.4",
      "HasWifi": false,
      "Day": 1,
      "DataChanged": false,
      "ExpectedPlatformNo": "3",
      "arrivalDelay": "50 Min",
      "departureDelay": "50 Min",
      "Latitude": 26.56756,
      "Longitude": 81.04589,
      "stopNumberDisplay": 13
    },
    {
      "intermediateStations": [
        {
          "StationName": "Kundanganj",
          "StationCode": "KVG",
          "ArrivalTime": "17:13",
          "DepartureTime": "17:13",
          "HaltMinutes": "&nbsp;",
          "Day": 1,
          "Latitude": 26.395922,
          "Longitude": 81.13692,
          "stopNumberDisplay": "14.1",
          "Distance": "411.6"
        }
      ],
      "TrainNo": 15076,
      "StationCode": "BCN",
      "RouteNo": null,
      "StopNumber": 14,
      "TrainMappingKey": null,
      "StationName": "Bachhrawan",
      "ArrivalTime": "17:03",
      "DepartureTime": "17:05",
      "HaltMinutes": "2m",
      "Distance": "402.1",
      "HasWifi": false,
      "Day": 1,
      "DataChanged": false,
      "ExpectedPlatformNo": null,
      "arrivalDelay": "44 Min",
      "departureDelay": "44 Min",
      "Latitude": 26.476438,
      "Longitude": 81.105168,
      "stopNumberDisplay": 14
    },
    {
      "intermediateStations": [
        {
          "StationName": "GangaGanj",
          "StationCode": "GANG",
          "ArrivalTime": "17:32",
          "DepartureTime": "17:32",
          "HaltMinutes": "&nbsp;",
          "Day": 1,
          "Latitude": 26.29206,
          "Longitude": 81.20216,
          "stopNumberDisplay": "15.1",
          "Distance": "425.0"
        }
      ],
      "TrainNo": 15076,
      "StationCode": "HCP",
      "RouteNo": null,
      "StopNumber": 15,
      "TrainMappingKey": null,
      "StationName": "Harchandpur",
      "ArrivalTime": "17:19",
      "DepartureTime": "17:20",
      "HaltMinutes": "1m",
      "Distance": "417.9",
      "HasWifi": false,
      "Day": 1,
      "DataChanged": false,
      "ExpectedPlatformNo": null,
      "arrivalDelay": "46 Min",
      "departureDelay": "46 Min",
      "Latitude": 26.3433,
      "Longitude": 81.16075,
      "stopNumberDisplay": 15
    },
    {
      "intermediateStations": [
        {
          "StationName": "Daryapur Jn",
          "StationCode": "DYP",
          "ArrivalTime": "17:58",
          "DepartureTime": "17:58",
          "HaltMinutes": "&nbsp;",
          "Day": 1,
          "Latitude": 26.18252,
          "Longitude": 81.24822,
          "stopNumberDisplay": "16.1",
          "Distance": "438.7"
        },
        {
          "StationName": "Bela Bela",
          "StationCode": "BBHL",
          "ArrivalTime": "18:06",
          "DepartureTime": "18:06",
          "HaltMinutes": "&nbsp;",
          "Day": 1,
          "Latitude": 26.1368,
          "Longitude": 81.24882,
          "stopNumberDisplay": "16.2",
          "Distance": "443.7"
        }
      ],
      "TrainNo": 15076,
      "StationCode": "RBL",
      "RouteNo": null,
      "StopNumber": 16,
      "TrainMappingKey": null,
      "StationName": "Rae Bareli Jn",
      "ArrivalTime": "17:45",
      "DepartureTime": "17:50",
      "HaltMinutes": "5m",
      "Distance": "432.6",
      "HasWifi": true,
      "Day": 1,
      "DataChanged": false,
      "ExpectedPlatformNo": null,
      "arrivalDelay": "47 Min",
      "departureDelay": "47 Min",
      "Latitude": 26.232651,
      "Longitude": 81.238501,
      "stopNumberDisplay": 16
    },
    {
      "intermediateStations": [
        {
          "StationName": "Ramachandrapur",
          "StationCode": "RCP",
          "ArrivalTime": "18:25",
          "DepartureTime": "18:25",
          "HaltMinutes": "&nbsp;",
          "Day": 1,
          "Latitude": 25.99728,
          "Longitude": 81.26755,
          "stopNumberDisplay": "17.1",
          "Distance": "460.5"
        }
      ],
      "TrainNo": 15076,
      "StationCode": "LMN",
      "RouteNo": null,
      "StopNumber": 17,
      "TrainMappingKey": null,
      "StationName": "Lachhmanpur",
      "ArrivalTime": "18:19",
      "DepartureTime": "18:20",
      "HaltMinutes": "1m",
      "Distance": "453.4",
      "HasWifi": false,
      "Day": 1,
      "DataChanged": false,
      "ExpectedPlatformNo": "2",
      "arrivalDelay": "01 Hr 07 Min",
      "departureDelay": "01 Hr 07 Min",
      "Latitude": 26.05027,
      "Longitude": 81.25689,
      "stopNumberDisplay": 17
    },
    {
      "intermediateStations": [
        {
          "StationName": "Arkha",
          "StationCode": "ARKA",
          "ArrivalTime": "18:39",
          "DepartureTime": "18:39",
          "HaltMinutes": "&nbsp;",
          "Day": 1,
          "Latitude": 25.887748,
          "Longitude": 81.313594,
          "stopNumberDisplay": "18.1",
          "Distance": "472.7"
        }
      ],
      "TrainNo": 15076,
      "StationCode": "UCR",
      "RouteNo": null,
      "StopNumber": 18,
      "TrainMappingKey": null,
      "StationName": "Unchahar Jn",
      "ArrivalTime": "18:33",
      "DepartureTime": "18:35",
      "HaltMinutes": "2m",
      "Distance": "470.6",
      "HasWifi": false,
      "Day": 1,
      "DataChanged": false,
      "ExpectedPlatformNo": null,
      "arrivalDelay": "40 Min",
      "departureDelay": "40 Min",
      "Latitude": 25.90667,
      "Longitude": 81.29845,
      "stopNumberDisplay": 18
    },
    {
      "intermediateStations": [],
      "TrainNo": 15076,
      "StationCode": "PQN",
      "RouteNo": null,
      "StopNumber": 19,
      "TrainMappingKey": null,
      "StationName": "Pariawan Kalakankar Road",
      "ArrivalTime": "18:54",
      "DepartureTime": "18:55",
      "HaltMinutes": "1m",
      "Distance": "481.5",
      "HasWifi": false,
      "Day": 1,
      "DataChanged": false,
      "ExpectedPlatformNo": null,
      "arrivalDelay": "49 Min",
      "departureDelay": "49 Min",
      "Latitude": 25.825498,
      "Longitude": 81.368228,
      "stopNumberDisplay": 19
    },
    {
      "intermediateStations": [],
      "TrainNo": 15076,
      "StationCode": "GRMR",
      "RouteNo": null,
      "StopNumber": 20,
      "TrainMappingKey": null,
      "StationName": "Garhi Manikpur",
      "ArrivalTime": "19:09",
      "DepartureTime": "19:10",
      "HaltMinutes": "1m",
      "Distance": "488.7",
      "HasWifi": false,
      "Day": 1,
      "DataChanged": false,
      "ExpectedPlatformNo": null,
      "arrivalDelay": "47 Min",
      "departureDelay": "47 Min",
      "Latitude": 25.776703,
      "Longitude": 81.41453,
      "stopNumberDisplay": 20
    },
    {
      "intermediateStations": [
        {
          "StationName": "Bhadri",
          "StationCode": "BHDR",
          "ArrivalTime": "19:37",
          "DepartureTime": "19:37",
          "HaltMinutes": "&nbsp;",
          "Day": 1,
          "Latitude": 25.67692121,
          "Longitude": 81.56795025,
          "stopNumberDisplay": "21.1",
          "Distance": "507.6"
        }
      ],
      "TrainNo": 15076,
      "StationCode": "KHNM",
      "RouteNo": null,
      "StopNumber": 21,
      "TrainMappingKey": null,
      "StationName": "Kunda Harnamganj",
      "ArrivalTime": "19:29",
      "DepartureTime": "19:30",
      "HaltMinutes": "1m",
      "Distance": "500.4",
      "HasWifi": false,
      "Day": 1,
      "DataChanged": false,
      "ExpectedPlatformNo": null,
      "arrivalDelay": "39 Min",
      "departureDelay": "39 Min",
      "Latitude": 25.714478,
      "Longitude": 81.509456,
      "stopNumberDisplay": 21
    },
    {
      "intermediateStations": [],
      "TrainNo": 15076,
      "StationCode": "LGO",
      "RouteNo": null,
      "StopNumber": 22,
      "TrainMappingKey": null,
      "StationName": "LalgopalGanj",
      "ArrivalTime": "19:44",
      "DepartureTime": "19:45",
      "HaltMinutes": "1m",
      "Distance": "514.9",
      "HasWifi": false,
      "Day": 1,
      "DataChanged": false,
      "ExpectedPlatformNo": "1",
      "arrivalDelay": "40 Min",
      "departureDelay": "40 Min",
      "Latitude": 25.64262,
      "Longitude": 81.630152,
      "stopNumberDisplay": 22
    },
    {
      "intermediateStations": [
        {
          "StationName": "Atrampur",
          "StationCode": "ARP",
          "ArrivalTime": "20:19",
          "DepartureTime": "20:19",
          "HaltMinutes": "&nbsp;",
          "Day": 1,
          "Latitude": 25.572363,
          "Longitude": 81.745872,
          "stopNumberDisplay": "23.1",
          "Distance": "528.9"
        },
        {
          "StationName": "Sarai Gopal",
          "StationCode": "SPGL",
          "ArrivalTime": "20:43",
          "DepartureTime": "20:43",
          "HaltMinutes": "&nbsp;",
          "Day": 1,
          "Latitude": 25.547256,
          "Longitude": 81.82895,
          "stopNumberDisplay": "23.2",
          "Distance": "537.7"
        },
        {
          "StationName": "Phaphamau Bypass B Cabin",
          "StationCode": "PFMB",
          "ArrivalTime": "20:51",
          "DepartureTime": "20:51",
          "HaltMinutes": "&nbsp;",
          "Day": 1,
          "Latitude": 25.53956,
          "Longitude": 81.85696,
          "stopNumberDisplay": "23.3",
          "Distance": "540.7"
        }
      ],
      "TrainNo": 15076,
      "StationCode": "RMC",
      "RouteNo": null,
      "StopNumber": 23,
      "TrainMappingKey": null,
      "StationName": "Ram Chaura Road",
      "ArrivalTime": "19:59",
      "DepartureTime": "20:00",
      "HaltMinutes": "1m",
      "Distance": "521.9",
      "HasWifi": false,
      "Day": 1,
      "DataChanged": false,
      "ExpectedPlatformNo": null,
      "arrivalDelay": "32 Min",
      "departureDelay": "32 Min",
      "Latitude": 25.608909,
      "Longitude": 81.688392,
      "stopNumberDisplay": 23
    },
    {
      "intermediateStations": [],
      "TrainNo": 15076,
      "StationCode": "PFM",
      "RouteNo": null,
      "StopNumber": 24,
      "TrainMappingKey": null,
      "StationName": "Phaphamau Jn",
      "ArrivalTime": "20:57",
      "DepartureTime": "20:58",
      "HaltMinutes": "1m",
      "Distance": "542.8",
      "HasWifi": false,
      "Day": 1,
      "DataChanged": false,
      "ExpectedPlatformNo": null,
      "arrivalDelay": "37 Min",
      "departureDelay": "37 Min",
      "Latitude": 25.525515,
      "Longitude": 81.867043,
      "stopNumberDisplay": 24
    },
    {
      "intermediateStations": [],
      "TrainNo": 15076,
      "StationCode": "PRG",
      "RouteNo": null,
      "StopNumber": 25,
      "TrainMappingKey": null,
      "StationName": "Prayag Jn",
      "ArrivalTime": "21:29",
      "DepartureTime": "21:31",
      "HaltMinutes": "2m",
      "Distance": "549.2",
      "HasWifi": false,
      "Day": 1,
      "DataChanged": false,
      "ExpectedPlatformNo": "3",
      "arrivalDelay": "27 Min",
      "departureDelay": "27 Min",
      "Latitude": 25.4684,
      "Longitude": 81.86781,
      "stopNumberDisplay": 25
    },
    {
      "intermediateStations": [],
      "TrainNo": 15076,
      "StationCode": "PRYJ",
      "RouteNo": null,
      "StopNumber": 26,
      "TrainMappingKey": null,
      "StationName": "Prayagraj Jn",
      "ArrivalTime": "22:00",
      "DepartureTime": "22:20",
      "HaltMinutes": "20m",
      "Distance": "555.7",
      "HasWifi": false,
      "Day": 1,
      "DataChanged": false,
      "ExpectedPlatformNo": "10",
      "arrivalDelay": "29 Min",
      "departureDelay": "29 Min",
      "Latitude": null,
      "Longitude": null,
      "stopNumberDisplay": 26
    },
    {
      "intermediateStations": [
        {
          "StationName": "Prayagraj Chheoki Jn",
          "StationCode": "PCOI",
          "ArrivalTime": "22:44",
          "DepartureTime": "22:44",
          "HaltMinutes": "&nbsp;",
          "Day": 1,
          "Latitude": null,
          "Longitude": null,
          "stopNumberDisplay": "27.1",
          "Distance": "564.9"
        },
        {
          "StationName": "Karchana",
          "StationCode": "KCN",
          "ArrivalTime": "22:53",
          "DepartureTime": "22:53",
          "HaltMinutes": "&nbsp;",
          "Day": 1,
          "Latitude": 25.3133,
          "Longitude": 81.9163,
          "stopNumberDisplay": "27.2",
          "Distance": "573.6"
        },
        {
          "StationName": "Bheerpur",
          "StationCode": "BEP",
          "ArrivalTime": "23:03",
          "DepartureTime": "23:03",
          "HaltMinutes": "&nbsp;",
          "Day": 1,
          "Latitude": 25.265,
          "Longitude": 81.9894,
          "stopNumberDisplay": "27.3",
          "Distance": "582.8"
        }
      ],
      "TrainNo": 15076,
      "StationCode": "NYN",
      "RouteNo": null,
      "StopNumber": 27,
      "TrainMappingKey": null,
      "StationName": "Naini Jn",
      "ArrivalTime": "22:40",
      "DepartureTime": "22:42",
      "HaltMinutes": "2m",
      "Distance": "562.9",
      "HasWifi": false,
      "Day": 1,
      "DataChanged": false,
      "ExpectedPlatformNo": "10",
      "arrivalDelay": "-",
      "departureDelay": "-",
      "Latitude": 25.3935,
      "Longitude": 81.8602,
      "stopNumberDisplay": 27
    },
    {
      "intermediateStations": [
        {
          "StationName": "Unchdih",
          "StationCode": "UND",
          "ArrivalTime": "23:32",
          "DepartureTime": "23:32",
          "HaltMinutes": "&nbsp;",
          "Day": 1,
          "Latitude": 25.1922,
          "Longitude": 82.1635,
          "stopNumberDisplay": "28.1",
          "Distance": "602.1"
        },
        {
          "StationName": "Manda Road",
          "StationCode": "MNF",
          "ArrivalTime": "23:47",
          "DepartureTime": "23:47",
          "HaltMinutes": "&nbsp;",
          "Day": 1,
          "Latitude": 25.1631,
          "Longitude": 82.2372,
          "stopNumberDisplay": "28.2",
          "Distance": "610.3"
        },
        {
          "StationName": "Jigna",
          "StationCode": "JIA",
          "ArrivalTime": "00:02",
          "DepartureTime": "00:02",
          "HaltMinutes": "&nbsp;",
          "Day": 2,
          "Latitude": 25.1575,
          "Longitude": 82.3182,
          "stopNumberDisplay": "28.3",
          "Distance": "618.6"
        },
        {
          "StationName": "Gaipura",
          "StationCode": "GAE",
          "ArrivalTime": "00:15",
          "DepartureTime": "00:15",
          "HaltMinutes": "&nbsp;",
          "Day": 2,
          "Latitude": 25.1605,
          "Longitude": 82.3867,
          "stopNumberDisplay": "28.4",
          "Distance": "625.6"
        },
        {
          "StationName": "Birohe",
          "StationCode": "BEO",
          "ArrivalTime": "00:29",
          "DepartureTime": "00:29",
          "HaltMinutes": "&nbsp;",
          "Day": 2,
          "Latitude": 25.1723,
          "Longitude": 82.4569,
          "stopNumberDisplay": "28.5",
          "Distance": "633.1"
        }
      ],
      "TrainNo": 15076,
      "StationCode": "MJA",
      "RouteNo": null,
      "StopNumber": 28,
      "TrainMappingKey": null,
      "StationName": "Meja Road",
      "ArrivalTime": "23:15",
      "DepartureTime": "23:16",
      "HaltMinutes": "1m",
      "Distance": "593.8",
      "HasWifi": false,
      "Day": 1,
      "DataChanged": false,
      "ExpectedPlatformNo": null,
      "arrivalDelay": "57 Min",
      "departureDelay": "57 Min",
      "Latitude": 25.2214,
      "Longitude": 82.0895,
      "stopNumberDisplay": 28
    },
    {
      "intermediateStations": [],
      "TrainNo": 15076,
      "StationCode": "BDL",
      "RouteNo": null,
      "StopNumber": 29,
      "TrainMappingKey": null,
      "StationName": "Vindhyachal",
      "ArrivalTime": "00:38",
      "DepartureTime": "00:40",
      "HaltMinutes": "2m",
      "Distance": "637.8",
      "HasWifi": true,
      "Day": 2,
      "DataChanged": false,
      "ExpectedPlatformNo": null,
      "arrivalDelay": "01 Hr 49 Min",
      "departureDelay": "01 Hr 49 Min",
      "Latitude": 25.1602,
      "Longitude": 82.5019,
      "stopNumberDisplay": 29
    },
    {
      "intermediateStations": [
        {
          "StationName": "Jhingura",
          "StationCode": "JHG",
          "ArrivalTime": "01:23",
          "DepartureTime": "01:23",
          "HaltMinutes": "&nbsp;",
          "Day": 2,
          "Latitude": 25.1242,
          "Longitude": 82.65,
          "stopNumberDisplay": "30.1",
          "Distance": "653.5"
        },
        {
          "StationName": "Pahara",
          "StationCode": "PRE",
          "ArrivalTime": "01:38",
          "DepartureTime": "01:38",
          "HaltMinutes": "&nbsp;",
          "Day": 2,
          "Latitude": 25.1193,
          "Longitude": 82.7244,
          "stopNumberDisplay": "30.2",
          "Distance": "660.9"
        },
        {
          "StationName": "Dagmagpur",
          "StationCode": "DAP",
          "ArrivalTime": "01:55",
          "DepartureTime": "01:55",
          "HaltMinutes": "&nbsp;",
          "Day": 2,
          "Latitude": 25.0981,
          "Longitude": 82.8006,
          "stopNumberDisplay": "30.3",
          "Distance": "669.0"
        }
      ],
      "TrainNo": 15076,
      "StationCode": "MZP",
      "RouteNo": null,
      "StopNumber": 30,
      "TrainMappingKey": null,
      "StationName": "Mirzapur",
      "ArrivalTime": "01:00",
      "DepartureTime": "01:05",
      "HaltMinutes": "5m",
      "Distance": "645.1",
      "HasWifi": false,
      "Day": 2,
      "DataChanged": false,
      "ExpectedPlatformNo": null,
      "arrivalDelay": "01 Hr 32 Min",
      "departureDelay": "01 Hr 32 Min",
      "Latitude": 25.1346,
      "Longitude": 82.569,
      "stopNumberDisplay": 30
    },
    {
      "intermediateStations": [
        {
          "StationName": "Vishwanath Puri",
          "StationCode": "VWP",
          "ArrivalTime": "02:32",
          "DepartureTime": "02:32",
          "HaltMinutes": "&nbsp;",
          "Day": 2,
          "Latitude": null,
          "Longitude": null,
          "stopNumberDisplay": "31.1",
          "Distance": "688.0"
        }
      ],
      "TrainNo": 15076,
      "StationCode": "CAR",
      "RouteNo": null,
      "StopNumber": 31,
      "TrainMappingKey": null,
      "StationName": "Chunar Jn",
      "ArrivalTime": "02:10",
      "DepartureTime": "02:15",
      "HaltMinutes": "5m",
      "Distance": "676.2",
      "HasWifi": false,
      "Day": 2,
      "DataChanged": false,
      "ExpectedPlatformNo": null,
      "arrivalDelay": "01 Hr 25 Min",
      "departureDelay": "01 Hr 25 Min",
      "Latitude": 25.10343,
      "Longitude": 82.87244,
      "stopNumberDisplay": 31
    },
    {
      "intermediateStations": [],
      "TrainNo": 15076,
      "StationCode": "SKGH",
      "RouteNo": null,
      "StopNumber": 32,
      "TrainMappingKey": null,
      "StationName": "Saktesgarh",
      "ArrivalTime": "02:45",
      "DepartureTime": "02:46",
      "HaltMinutes": "1m",
      "Distance": "697.1",
      "HasWifi": false,
      "Day": 2,
      "DataChanged": false,
      "ExpectedPlatformNo": null,
      "arrivalDelay": "01 Hr 15 Min",
      "departureDelay": "01 Hr 15 Min",
      "Latitude": 24.99926,
      "Longitude": 82.821498,
      "stopNumberDisplay": 32
    },
    {
      "intermediateStations": [
        {
          "StationName": "Khairahi",
          "StationCode": "KHRY",
          "ArrivalTime": "03:39",
          "DepartureTime": "03:39",
          "HaltMinutes": "&nbsp;",
          "Day": 2,
          "Latitude": 24.80196,
          "Longitude": 82.986,
          "stopNumberDisplay": "33.1",
          "Distance": "734.5"
        }
      ],
      "TrainNo": 15076,
      "StationCode": "LUSA",
      "RouteNo": null,
      "StopNumber": 33,
      "TrainMappingKey": null,
      "StationName": "Lusa",
      "ArrivalTime": "03:19",
      "DepartureTime": "03:20",
      "HaltMinutes": "1m",
      "Distance": "717.8",
      "HasWifi": false,
      "Day": 2,
      "DataChanged": false,
      "ExpectedPlatformNo": null,
      "arrivalDelay": "01 Hr 24 Min",
      "departureDelay": "01 Hr 24 Min",
      "Latitude": 24.876301,
      "Longitude": 82.842854,
      "stopNumberDisplay": 33
    },
    {
      "intermediateStations": [],
      "TrainNo": 15076,
      "StationCode": "SBDR",
      "RouteNo": null,
      "StopNumber": 34,
      "TrainMappingKey": null,
      "StationName": "Sonbhadra",
      "ArrivalTime": "04:00",
      "DepartureTime": "04:05",
      "HaltMinutes": "5m",
      "Distance": "752.2",
      "HasWifi": false,
      "Day": 2,
      "DataChanged": false,
      "ExpectedPlatformNo": null,
      "arrivalDelay": "01 Hr 21 Min",
      "departureDelay": "01 Hr 21 Min",
      "Latitude": null,
      "Longitude": null,
      "stopNumberDisplay": 34
    },
    {
      "intermediateStations": [
        {
          "StationName": "Agori Khas",
          "StationCode": "AGY",
          "ArrivalTime": "05:08",
          "DepartureTime": "05:08",
          "HaltMinutes": "&nbsp;",
          "Day": 2,
          "Latitude": 24.598758,
          "Longitude": 83.055963,
          "stopNumberDisplay": "35.1",
          "Distance": "768.7"
        }
      ],
      "TrainNo": 15076,
      "StationCode": "CUK",
      "RouteNo": null,
      "StopNumber": 35,
      "TrainMappingKey": null,
      "StationName": "Churk",
      "ArrivalTime": "04:19",
      "DepartureTime": "04:20",
      "HaltMinutes": "1m",
      "Distance": "757.2",
      "HasWifi": false,
      "Day": 2,
      "DataChanged": false,
      "ExpectedPlatformNo": "1",
      "arrivalDelay": "01 Hr 08 Min",
      "departureDelay": "01 Hr 08 Min",
      "Latitude": 24.64925,
      "Longitude": 83.1037,
      "stopNumberDisplay": 35
    },
    {
      "intermediateStations": [
        {
          "StationName": "Billi Jn",
          "StationCode": "BXLL",
          "ArrivalTime": "06:06",
          "DepartureTime": "06:06",
          "HaltMinutes": "&nbsp;",
          "Day": 2,
          "Latitude": 24.4619,
          "Longitude": 83.01917,
          "stopNumberDisplay": "36.1",
          "Distance": "785.2"
        },
        {
          "StationName": "Billi Chord Cabin",
          "StationCode": "YY-BXLB",
          "ArrivalTime": "06:09",
          "DepartureTime": "06:09",
          "HaltMinutes": "&nbsp;",
          "Day": 2,
          "Latitude": 24.45673,
          "Longitude": 83.00283,
          "stopNumberDisplay": "36.2",
          "Distance": "787.4"
        },
        {
          "StationName": "Obra A Cabin",
          "StationCode": "OBAC",
          "ArrivalTime": "06:10",
          "DepartureTime": "06:10",
          "HaltMinutes": "&nbsp;",
          "Day": 2,
          "Latitude": 24.44974,
          "Longitude": 82.99004,
          "stopNumberDisplay": "36.3",
          "Distance": "789.0"
        },
        {
          "StationName": "Obra Dam",
          "StationCode": "OBR",
          "ArrivalTime": "06:12",
          "DepartureTime": "06:12",
          "HaltMinutes": "&nbsp;",
          "Day": 2,
          "Latitude": 24.43823,
          "Longitude": 82.97408,
          "stopNumberDisplay": "36.4",
          "Distance": "791.2"
        },
        {
          "StationName": "Phaphrakund",
          "StationCode": "PPKD",
          "ArrivalTime": "06:18",
          "DepartureTime": "06:18",
          "HaltMinutes": "&nbsp;",
          "Day": 2,
          "Latitude": 24.41747,
          "Longitude": 82.93244,
          "stopNumberDisplay": "36.5",
          "Distance": "797.1"
        },
        {
          "StationName": "Magardaha",
          "StationCode": "MWF",
          "ArrivalTime": "06:25",
          "DepartureTime": "06:25",
          "HaltMinutes": "&nbsp;",
          "Day": 2,
          "Latitude": 24.38685,
          "Longitude": 82.89282,
          "stopNumberDisplay": "36.6",
          "Distance": "803.9"
        },
        {
          "StationName": "Khuldil Road",
          "StationCode": "KDRD",
          "ArrivalTime": "06:31",
          "DepartureTime": "06:31",
          "HaltMinutes": "&nbsp;",
          "Day": 2,
          "Latitude": 24.36161,
          "Longitude": 82.85616,
          "stopNumberDisplay": "36.7",
          "Distance": "809.8"
        },
        {
          "StationName": "Mirchadhuri",
          "StationCode": "MCQ",
          "ArrivalTime": "06:42",
          "DepartureTime": "06:42",
          "HaltMinutes": "&nbsp;",
          "Day": 2,
          "Latitude": 24.29231,
          "Longitude": 82.79414,
          "stopNumberDisplay": "36.8",
          "Distance": "820.3"
        },
        {
          "StationName": "Karaila Road Jn",
          "StationCode": "KRLR",
          "ArrivalTime": "06:50",
          "DepartureTime": "06:50",
          "HaltMinutes": "&nbsp;",
          "Day": 2,
          "Latitude": 24.26945,
          "Longitude": 82.72466,
          "stopNumberDisplay": "36.9",
          "Distance": "828.3"
        },
        {
          "StationName": "Karaila Road Bypass Cabin",
          "StationCode": "YY-KRLB",
          "ArrivalTime": "06:51",
          "DepartureTime": "06:51",
          "HaltMinutes": "&nbsp;",
          "Day": 2,
          "Latitude": 24.258779,
          "Longitude": 82.722363,
          "stopNumberDisplay": "36.10",
          "Distance": "829.8"
        }
      ],
      "TrainNo": 15076,
      "StationCode": "CPU",
      "RouteNo": null,
      "StopNumber": 36,
      "TrainMappingKey": null,
      "StationName": "Chopan",
      "ArrivalTime": "05:50",
      "DepartureTime": "06:00",
      "HaltMinutes": "10m",
      "Distance": "778.9",
      "HasWifi": false,
      "Day": 2,
      "DataChanged": false,
      "ExpectedPlatformNo": null,
      "arrivalDelay": "01 Hr 16 Min",
      "departureDelay": "01 Hr 16 Min",
      "Latitude": 24.51403,
      "Longitude": 83.0263,
      "stopNumberDisplay": 36
    },
    {
      "intermediateStations": [
        {
          "StationName": "Krishnashilla",
          "StationCode": "KRSL",
          "ArrivalTime": "07:41",
          "DepartureTime": "07:41",
          "HaltMinutes": "&nbsp;",
          "Day": 2,
          "Latitude": 24.1541,
          "Longitude": 82.7681,
          "stopNumberDisplay": "37.1",
          "Distance": "849.6"
        }
      ],
      "TrainNo": 15076,
      "StationCode": "ANPR",
      "RouteNo": null,
      "StopNumber": 37,
      "TrainMappingKey": null,
      "StationName": "Anpara",
      "ArrivalTime": "07:01",
      "DepartureTime": "07:03",
      "HaltMinutes": "2m",
      "Distance": "839.3",
      "HasWifi": false,
      "Day": 2,
      "DataChanged": false,
      "ExpectedPlatformNo": null,
      "arrivalDelay": "01 Hr 36 Min",
      "departureDelay": "01 Hr 36 Min",
      "Latitude": 24.2167,
      "Longitude": 82.766,
      "stopNumberDisplay": 37
    },
    {
      "intermediateStations": [],
      "TrainNo": 15076,
      "StationCode": "SKTN",
      "RouteNo": null,
      "StopNumber": 38,
      "TrainMappingKey": null,
      "StationName": "Shaktinagar",
      "ArrivalTime": "08:20",
      "DepartureTime": "",
      "HaltMinutes": "",
      "Distance": "860.3",
      "HasWifi": false,
      "Day": 2,
      "DataChanged": false,
      "ExpectedPlatformNo": null,
      "arrivalDelay": "-",
      "departureDelay": "-",
      "Latitude": 24.123,
      "Longitude": 82.7048,
      "stopNumberDisplay": 38
    }
  ],
  "Source": "Tanakpur",
  "Destination": "Shakti Nagar",
  "SourceCode": "TPU",
  "DestinationCode": "SKTN",
  "DaysOfRun": {
    "Sun": true,
    "Mon": false,
    "Tue": true,
    "Wed": false,
    "Thu": true,
    "Fri": false,
    "Sat": true
  },
  "FooterText": null,
  "TrainType": null,
  "IsUnreserved": false,
  "Rating": 3.9,
  "FoodRating": 3.5,
  "PunctualityRating": 3.9,
  "CleanlinessRating": 4.2,
  "RatingCount": 232,
  "TotalDuration": "23:45",
  "FromCity": "Tanakpur",
  "ToCity": "Shakti Nagar",
  "CacheTime": "2024-03-09T16:50:09.7006487+05:30",
  "HasPantry": false,
  "ErrorMsg": null
}