{
  "TrainName": "DMM NS EXP",
  "TrainNo": 17248,
  "TrainNumberString": null,
  "CoachPosition": "L SLR GS A1 B4 B3 B2 B1 S13 S12 S11 S10 S9 S8 S7 S6 S5 S4 S3 S2 S1 GS SLR",
  "Classes": [
    "2A",
    "3A",
    "SL"
  ],
  "Schedule": [
    {
      "intermediateStations": [
        {
          "StationName": "Chinnekunta Palli",
          "StationCode": "CCI",
          "ArrivalTime": "14:32",
          "DepartureTime": "14:32",
          "HaltMinutes": "&nbsp;",
          "Day": 1,
          "Latitude": 14.44341,
          "Longitude": 77.845396,
          "stopNumberDisplay": "1.1",
          "Distance": "14.7"
        },
        {
          "StationName": "Ramanujam Palli",
          "StationCode": "RLX",
          "ArrivalTime": "14:35",
          "DepartureTime": "14:35",
          "HaltMinutes": "&nbsp;",
          "Day": 1,
          "Latitude": 14.438922,
          "Longitude": 77.877365,
          "stopNumberDisplay": "1.2",
          "Distance": "18.4"
        }
      ],
      "TrainNo": 17248,
      "StationCode": "DMM",
      "RouteNo": null,
      "StopNumber": 1,
      "TrainMappingKey": null,
      "StationName": "Dharmavaram Jn",
      "ArrivalTime": "",
      "DepartureTime": "14:20",
      "HaltMinutes": "",
      "Distance": "0.0",
      "HasWifi": false,
      "Day": 1,
      "DataChanged": false,
      "ExpectedPlatformNo": "5",
      "arrivalDelay": "-",
      "departureDelay": "-",
      "Latitude": 14.426455,
      "Longitude": 77.715921,
      "stopNumberDisplay": 1
    },
    {
      "intermediateStations": [
        {
          "StationName": "Malakavemula",
          "StationCode": "MVA",
          "ArrivalTime": "14:58",
          "DepartureTime": "14:58",
          "HaltMinutes": "&nbsp;",
          "Day": 1,
          "Latitude": 14.273,
          "Longitude": 78.0523,
          "stopNumberDisplay": "2.1",
          "Distance": "46.1"
        },
        {
          "StationName": "Kalasamudram",
          "StationCode": "KCM",
          "ArrivalTime": "15:04",
          "DepartureTime": "15:04",
          "HaltMinutes": "&nbsp;",
          "Day": 1,
          "Latitude": 14.2167,
          "Longitude": 78.0994,
          "stopNumberDisplay": "2.2",
          "Distance": "54.0"
        }
      ],
      "TrainNo": 17248,
      "StationCode": "MGB",
      "RouteNo": null,
      "StopNumber": 2,
      "TrainMappingKey": null,
      "StationName": "Mudigubba",
      "ArrivalTime": "14:49",
      "DepartureTime": "14:50",
      "HaltMinutes": "1m",
      "Distance": "35.1",
      "HasWifi": false,
      "Day": 1,
      "DataChanged": false,
      "ExpectedPlatformNo": "1",
      "arrivalDelay": "-",
      "departureDelay": "-",
      "Latitude": 14.348625,
      "Longitude": 77.996005,
      "stopNumberDisplay": 2
    },
    {
      "intermediateStations": [
        {
          "StationName": "Nallacheruvu",
          "StationCode": "NCU",
          "ArrivalTime": "15:23",
          "DepartureTime": "15:23",
          "HaltMinutes": "&nbsp;",
          "Day": 1,
          "Latitude": 14.0209,
          "Longitude": 78.1778,
          "stopNumberDisplay": "3.1",
          "Distance": "78.1"
        },
        {
          "StationName": "Nallacheruvu East",
          "StationCode": "NCE",
          "ArrivalTime": "15:26",
          "DepartureTime": "15:26",
          "HaltMinutes": "&nbsp;",
          "Day": 1,
          "Latitude": 13.9881,
          "Longitude": 78.1858,
          "stopNumberDisplay": "3.2",
          "Distance": "81.9"
        },
        {
          "StationName": "Tanakallu",
          "StationCode": "TKU",
          "ArrivalTime": "15:32",
          "DepartureTime": "15:32",
          "HaltMinutes": "&nbsp;",
          "Day": 1,
          "Latitude": 13.9223,
          "Longitude": 78.2011,
          "stopNumberDisplay": "3.3",
          "Distance": "89.7"
        }
      ],
      "TrainNo": 17248,
      "StationCode": "KRY",
      "RouteNo": null,
      "StopNumber": 3,
      "TrainMappingKey": null,
      "StationName": "Kadiri",
      "ArrivalTime": "15:14",
      "DepartureTime": "15:15",
      "HaltMinutes": "1m",
      "Distance": "67.5",
      "HasWifi": false,
      "Day": 1,
      "DataChanged": false,
      "ExpectedPlatformNo": "1",
      "arrivalDelay": "-",
      "departureDelay": "-",
      "Latitude": 14.1144,
      "Longitude": 78.1654,
      "stopNumberDisplay": 3
    },
    {
      "intermediateStations": [
        {
          "StationName": "Battulapuram",
          "StationCode": "BTM",
          "ArrivalTime": "15:51",
          "DepartureTime": "15:51",
          "HaltMinutes": "&nbsp;",
          "Day": 1,
          "Latitude": 13.7479,
          "Longitude": 78.306,
          "stopNumberDisplay": "4.1",
          "Distance": "112.5"
        },
        {
          "StationName": "Tummanamgutta",
          "StationCode": "TAT",
          "ArrivalTime": "15:56",
          "DepartureTime": "15:56",
          "HaltMinutes": "&nbsp;",
          "Day": 1,
          "Latitude": 13.7161,
          "Longitude": 78.3617,
          "stopNumberDisplay": "4.2",
          "Distance": "119.9"
        },
        {
          "StationName": "Kurabalakota",
          "StationCode": "KBA",
          "ArrivalTime": "16:08",
          "DepartureTime": "16:08",
          "HaltMinutes": "&nbsp;",
          "Day": 1,
          "Latitude": 13.6663,
          "Longitude": 78.4859,
          "stopNumberDisplay": "4.3",
          "Distance": "136.0"
        }
      ],
      "TrainNo": 17248,
      "StationCode": "MCU",
      "RouteNo": null,
      "StopNumber": 4,
      "TrainMappingKey": null,
      "StationName": "Mulakala Cheruvu",
      "ArrivalTime": "15:44",
      "DepartureTime": "15:45",
      "HaltMinutes": "1m",
      "Distance": "104.8",
      "HasWifi": false,
      "Day": 1,
      "DataChanged": false,
      "ExpectedPlatformNo": "1",
      "arrivalDelay": "-",
      "departureDelay": "-",
      "Latitude": 13.8022,
      "Longitude": 78.2645,
      "stopNumberDisplay": 4
    },
    {
      "intermediateStations": [
        {
          "StationName": "Vayalpad",
          "StationCode": "VLD",
          "ArrivalTime": "16:22",
          "DepartureTime": "16:22",
          "HaltMinutes": "&nbsp;",
          "Day": 1,
          "Latitude": 13.63407,
          "Longitude": 78.62334,
          "stopNumberDisplay": "5.1",
          "Distance": "152.6"
        }
      ],
      "TrainNo": 17248,
      "StationCode": "MPL",
      "RouteNo": null,
      "StopNumber": 5,
      "TrainMappingKey": null,
      "StationName": "Madanapalle Road",
      "ArrivalTime": "16:14",
      "DepartureTime": "16:15",
      "HaltMinutes": "1m",
      "Distance": "144.9",
      "HasWifi": false,
      "Day": 1,
      "DataChanged": false,
      "ExpectedPlatformNo": "1",
      "arrivalDelay": "-",
      "departureDelay": "-",
      "Latitude": 13.6438,
      "Longitude": 78.5541,
      "stopNumberDisplay": 5
    },
    {
      "intermediateStations": [],
      "TrainNo": 17248,
      "StationCode": "KCI",
      "RouteNo": null,
      "StopNumber": 6,
      "TrainMappingKey": null,
      "StationName": "Kalikiri",
      "ArrivalTime": "16:39",
      "DepartureTime": "16:40",
      "HaltMinutes": "1m",
      "Distance": "172.6",
      "HasWifi": false,
      "Day": 1,
      "DataChanged": false,
      "ExpectedPlatformNo": "2",
      "arrivalDelay": "-",
      "departureDelay": "-",
      "Latitude": 13.6439,
      "Longitude": 78.8015,
      "stopNumberDisplay": 6
    },
    {
      "intermediateStations": [
        {
          "StationName": "Pulicherla",
          "StationCode": "PCL",
          "ArrivalTime": "17:19",
          "DepartureTime": "17:19",
          "HaltMinutes": "&nbsp;",
          "Day": 1,
          "Latitude": 13.5982,
          "Longitude": 79.0399,
          "stopNumberDisplay": "7.1",
          "Distance": "202.1"
        },
        {
          "StationName": "Mangalampeta",
          "StationCode": "MPT",
          "ArrivalTime": "17:32",
          "DepartureTime": "17:32",
          "HaltMinutes": "&nbsp;",
          "Day": 1,
          "Latitude": 13.5699,
          "Longitude": 79.074,
          "stopNumberDisplay": "7.2",
          "Distance": "209.2"
        },
        {
          "StationName": "Vallivedu",
          "StationCode": "VLV",
          "ArrivalTime": "17:41",
          "DepartureTime": "17:41",
          "HaltMinutes": "&nbsp;",
          "Day": 1,
          "Latitude": 13.5276,
          "Longitude": 79.0675,
          "stopNumberDisplay": "7.3",
          "Distance": "214.4"
        },
        {
          "StationName": "Damalcheruvu",
          "StationCode": "DCU",
          "ArrivalTime": "17:51",
          "DepartureTime": "17:51",
          "HaltMinutes": "&nbsp;",
          "Day": 1,
          "Latitude": 13.4784,
          "Longitude": 79.056,
          "stopNumberDisplay": "7.4",
          "Distance": "220.3"
        }
      ],
      "TrainNo": 17248,
      "StationCode": "PIL",
      "RouteNo": null,
      "StopNumber": 7,
      "TrainMappingKey": null,
      "StationName": "Piler",
      "ArrivalTime": "16:52",
      "DepartureTime": "16:53",
      "HaltMinutes": "1m",
      "Distance": "186.9",
      "HasWifi": false,
      "Day": 1,
      "DataChanged": false,
      "ExpectedPlatformNo": "1",
      "arrivalDelay": "-",
      "departureDelay": "-",
      "Latitude": 13.6619,
      "Longitude": 78.9273,
      "stopNumberDisplay": 7
    },
    {
      "intermediateStations": [
        {
          "StationName": "Panapakam",
          "StationCode": "PAM",
          "ArrivalTime": "18:17",
          "DepartureTime": "18:17",
          "HaltMinutes": "&nbsp;",
          "Day": 1,
          "Latitude": 13.4998,
          "Longitude": 79.2038,
          "stopNumberDisplay": "8.1",
          "Distance": "239.7"
        },
        {
          "StationName": "Mungilipattu",
          "StationCode": "MNPT",
          "ArrivalTime": "18:24",
          "DepartureTime": "18:24",
          "HaltMinutes": "&nbsp;",
          "Day": 1,
          "Latitude": 13.5557,
          "Longitude": 79.2407,
          "stopNumberDisplay": "8.2",
          "Distance": "247.2"
        },
        {
          "StationName": "Kotala",
          "StationCode": "KEN",
          "ArrivalTime": "18:31",
          "DepartureTime": "18:31",
          "HaltMinutes": "&nbsp;",
          "Day": 1,
          "Latitude": 13.6058,
          "Longitude": 79.2873,
          "stopNumberDisplay": "8.3",
          "Distance": "254.7"
        },
        {
          "StationName": "Chandragiri",
          "StationCode": "CGI",
          "ArrivalTime": "18:34",
          "DepartureTime": "18:34",
          "HaltMinutes": "&nbsp;",
          "Day": 1,
          "Latitude": 13.6118,
          "Longitude": 79.3121,
          "stopNumberDisplay": "8.4",
          "Distance": "257.7"
        },
        {
          "StationName": "Tirupati West Halt",
          "StationCode": "TPW",
          "ArrivalTime": "18:43",
          "DepartureTime": "18:43",
          "HaltMinutes": "&nbsp;",
          "Day": 1,
          "Latitude": 13.6248,
          "Longitude": 79.4051,
          "stopNumberDisplay": "8.5",
          "Distance": "267.9"
        }
      ],
      "TrainNo": 17248,
      "StationCode": "PAK",
      "RouteNo": null,
      "StopNumber": 8,
      "TrainMappingKey": null,
      "StationName": "Pakala Jn",
      "ArrivalTime": "18:04",
      "DepartureTime": "18:05",
      "HaltMinutes": "1m",
      "Distance": "227.7",
      "HasWifi": false,
      "Day": 1,
      "DataChanged": false,
      "ExpectedPlatformNo": "1",
      "arrivalDelay": "-",
      "departureDelay": "-",
      "Latitude": 13.4512,
      "Longitude": 79.1142,
      "stopNumberDisplay": 8
    },
    {
      "intermediateStations": [
        {
          "StationName": "Tiruchanur",
          "StationCode": "TCNR",
          "ArrivalTime": "19:04",
          "DepartureTime": "19:04",
          "HaltMinutes": "&nbsp;",
          "Day": 1,
          "Latitude": 13.6318,
          "Longitude": 79.4629,
          "stopNumberDisplay": "9.1",
          "Distance": "276.5"
        }
      ],
      "TrainNo": 17248,
      "StationCode": "TPTY",
      "RouteNo": null,
      "StopNumber": 9,
      "TrainMappingKey": null,
      "StationName": "Tirupati",
      "ArrivalTime": "18:45",
      "DepartureTime": "18:50",
      "HaltMinutes": "5m",
      "Distance": "269.6",
      "HasWifi": true,
      "Day": 1,
      "DataChanged": false,
      "ExpectedPlatformNo": "1",
      "arrivalDelay": "-",
      "departureDelay": "-",
      "Latitude": 13.6281,
      "Longitude": 79.4194,
      "stopNumberDisplay": 9
    },
    {
      "intermediateStations": [
        {
          "StationName": "Renigunta Chord Cabin",
          "StationCode": "XX-RUXC",
          "ArrivalTime": "19:18",
          "DepartureTime": "19:18",
          "HaltMinutes": "&nbsp;",
          "Day": 1,
          "Latitude": 13.652954,
          "Longitude": 79.520453,
          "stopNumberDisplay": "10.1",
          "Distance": "281.9"
        },
        {
          "StationName": "Yerpedu",
          "StationCode": "YPD",
          "ArrivalTime": "19:25",
          "DepartureTime": "19:25",
          "HaltMinutes": "&nbsp;",
          "Day": 1,
          "Latitude": 13.687932,
          "Longitude": 79.576812,
          "stopNumberDisplay": "10.2",
          "Distance": "289.1"
        },
        {
          "StationName": "Rachagunneri",
          "StationCode": "RCG",
          "ArrivalTime": "19:32",
          "DepartureTime": "19:32",
          "HaltMinutes": "&nbsp;",
          "Day": 1,
          "Latitude": 13.714504,
          "Longitude": 79.629721,
          "stopNumberDisplay": "10.3",
          "Distance": "295.6"
        }
      ],
      "TrainNo": 17248,
      "StationCode": "RU",
      "RouteNo": null,
      "StopNumber": 10,
      "TrainMappingKey": null,
      "StationName": "Renigunta Jn",
      "ArrivalTime": "19:10",
      "DepartureTime": "19:15",
      "HaltMinutes": "5m",
      "Distance": "279.4",
      "HasWifi": true,
      "Day": 1,
      "DataChanged": false,
      "ExpectedPlatformNo": "2",
      "arrivalDelay": "-",
      "departureDelay": "-",
      "Latitude": 13.6366028,
      "Longitude": 79.5065922,
      "stopNumberDisplay": 10
    },
    {
      "intermediateStations": [
        {
          "StationName": "Akkurti",
          "StationCode": "AKY",
          "ArrivalTime": "19:44",
          "DepartureTime": "19:44",
          "HaltMinutes": "&nbsp;",
          "Day": 1,
          "Latitude": 13.7827,
          "Longitude": 79.66889,
          "stopNumberDisplay": "11.1",
          "Distance": "307.3"
        },
        {
          "StationName": "Yellakaru",
          "StationCode": "YLK",
          "ArrivalTime": "19:49",
          "DepartureTime": "19:49",
          "HaltMinutes": "&nbsp;",
          "Day": 1,
          "Latitude": 13.8458,
          "Longitude": 79.6503,
          "stopNumberDisplay": "11.2",
          "Distance": "314.7"
        },
        {
          "StationName": "Yataluru",
          "StationCode": "YAL",
          "ArrivalTime": "19:54",
          "DepartureTime": "19:54",
          "HaltMinutes": "&nbsp;",
          "Day": 1,
          "Latitude": 13.8929,
          "Longitude": 79.626,
          "stopNumberDisplay": "11.3",
          "Distance": "320.6"
        }
      ],
      "TrainNo": 17248,
      "StationCode": "KHT",
      "RouteNo": null,
      "StopNumber": 11,
      "TrainMappingKey": null,
      "StationName": "Sri Kalahasti",
      "ArrivalTime": "19:39",
      "DepartureTime": "19:40",
      "HaltMinutes": "1m",
      "Distance": "302.6",
      "HasWifi": false,
      "Day": 1,
      "DataChanged": false,
      "ExpectedPlatformNo": "2",
      "arrivalDelay": "-",
      "departureDelay": "-",
      "Latitude": 13.7459,
      "Longitude": 79.6831,
      "stopNumberDisplay": 11
    },
    {
      "intermediateStations": [
        {
          "StationName": "Nidigallu",
          "StationCode": "NDZ",
          "ArrivalTime": "20:15",
          "DepartureTime": "20:15",
          "HaltMinutes": "&nbsp;",
          "Day": 1,
          "Latitude": 13.9887,
          "Longitude": 79.66079,
          "stopNumberDisplay": "12.1",
          "Distance": "335.0"
        },
        {
          "StationName": "Vendodu",
          "StationCode": "VDD",
          "ArrivalTime": "20:31",
          "DepartureTime": "20:31",
          "HaltMinutes": "&nbsp;",
          "Day": 1,
          "Latitude": 14.027,
          "Longitude": 79.7291,
          "stopNumberDisplay": "12.2",
          "Distance": "343.6"
        },
        {
          "StationName": "Kondagunta",
          "StationCode": "KQA",
          "ArrivalTime": "20:49",
          "DepartureTime": "20:49",
          "HaltMinutes": "&nbsp;",
          "Day": 1,
          "Latitude": 14.0802,
          "Longitude": 79.79349,
          "stopNumberDisplay": "12.3",
          "Distance": "353.0"
        }
      ],
      "TrainNo": 17248,
      "StationCode": "VKI",
      "RouteNo": null,
      "StopNumber": 12,
      "TrainMappingKey": null,
      "StationName": "Venkatagiri",
      "ArrivalTime": "19:59",
      "DepartureTime": "20:00",
      "HaltMinutes": "1m",
      "Distance": "327.0",
      "HasWifi": false,
      "Day": 1,
      "DataChanged": false,
      "ExpectedPlatformNo": "1",
      "arrivalDelay": "-",
      "departureDelay": "-",
      "Latitude": 13.9443,
      "Longitude": 79.60429,
      "stopNumberDisplay": 12
    },
    {
      "intermediateStations": [
        {
          "StationName": "Manubolu",
          "StationCode": "MBL",
          "ArrivalTime": "21:18",
          "DepartureTime": "21:18",
          "HaltMinutes": "&nbsp;",
          "Day": 1,
          "Latitude": 14.2266,
          "Longitude": 79.8776,
          "stopNumberDisplay": "13.1",
          "Distance": "372.2"
        },
        {
          "StationName": "Kommarapudi Jn",
          "StationCode": "KMLP",
          "ArrivalTime": "21:23",
          "DepartureTime": "21:23",
          "HaltMinutes": "&nbsp;",
          "Day": 1,
          "Latitude": 14.27324,
          "Longitude": 79.90027,
          "stopNumberDisplay": "13.2",
          "Distance": "378.4"
        },
        {
          "StationName": "Venkatachalam Jn",
          "StationCode": "VKT",
          "ArrivalTime": "21:29",
          "DepartureTime": "21:29",
          "HaltMinutes": "&nbsp;",
          "Day": 1,
          "Latitude": 14.3267,
          "Longitude": 79.9269,
          "stopNumberDisplay": "13.3",
          "Distance": "384.6"
        },
        {
          "StationName": "Vedayapalem",
          "StationCode": "VDE",
          "ArrivalTime": "21:37",
          "DepartureTime": "21:37",
          "HaltMinutes": "&nbsp;",
          "Day": 1,
          "Latitude": 14.4043,
          "Longitude": 79.9578,
          "stopNumberDisplay": "13.4",
          "Distance": "393.9"
        },
        {
          "StationName": "Nellore South",
          "StationCode": "NLS",
          "ArrivalTime": "21:41",
          "DepartureTime": "21:41",
          "HaltMinutes": "&nbsp;",
          "Day": 1,
          "Latitude": 14.4444,
          "Longitude": 79.9839,
          "stopNumberDisplay": "13.5",
          "Distance": "398.6"
        }
      ],
      "TrainNo": 17248,
      "StationCode": "GDR",
      "RouteNo": null,
      "StopNumber": 13,
      "TrainMappingKey": null,
      "StationName": "Gudur Jn",
      "ArrivalTime": "21:08",
      "DepartureTime": "21:10",
      "HaltMinutes": "2m",
      "Distance": "362.8",
      "HasWifi": true,
      "Day": 1,
      "DataChanged": false,
      "ExpectedPlatformNo": "4",
      "arrivalDelay": "-",
      "departureDelay": "-",
      "Latitude": 14.14842,
      "Longitude": 79.84536,
      "stopNumberDisplay": 13
    },
    {
      "intermediateStations": [
        {
          "StationName": "Padugupadu",
          "StationCode": "PGU",
          "ArrivalTime": "21:48",
          "DepartureTime": "21:48",
          "HaltMinutes": "&nbsp;",
          "Day": 1,
          "Latitude": 14.4967,
          "Longitude": 79.9902,
          "stopNumberDisplay": "14.1",
          "Distance": "405.2"
        },
        {
          "StationName": "Kodavaluru",
          "StationCode": "KJJ",
          "ArrivalTime": "21:54",
          "DepartureTime": "21:54",
          "HaltMinutes": "&nbsp;",
          "Day": 1,
          "Latitude": 14.5638,
          "Longitude": 79.9948,
          "stopNumberDisplay": "14.2",
          "Distance": "412.6"
        },
        {
          "StationName": "Talamanchi",
          "StationCode": "TMC",
          "ArrivalTime": "21:57",
          "DepartureTime": "21:57",
          "HaltMinutes": "&nbsp;",
          "Day": 1,
          "Latitude": 14.6065,
          "Longitude": 79.9976,
          "stopNumberDisplay": "14.3",
          "Distance": "417.4"
        },
        {
          "StationName": "Alluru Road",
          "StationCode": "AXR",
          "ArrivalTime": "22:06",
          "DepartureTime": "22:06",
          "HaltMinutes": "&nbsp;",
          "Day": 1,
          "Latitude": 14.7101,
          "Longitude": 79.9893,
          "stopNumberDisplay": "14.4",
          "Distance": "429.0"
        },
        {
          "StationName": "Bitragunta",
          "StationCode": "BTTR",
          "ArrivalTime": "22:11",
          "DepartureTime": "22:11",
          "HaltMinutes": "&nbsp;",
          "Day": 1,
          "Latitude": 14.7686,
          "Longitude": 79.9835,
          "stopNumberDisplay": "14.5",
          "Distance": "435.5"
        },
        {
          "StationName": "Sri Venkateswarapalem",
          "StationCode": "SVPM",
          "ArrivalTime": "22:15",
          "DepartureTime": "22:15",
          "HaltMinutes": "&nbsp;",
          "Day": 1,
          "Latitude": 14.8058,
          "Longitude": 79.982,
          "stopNumberDisplay": "14.6",
          "Distance": "439.6"
        }
      ],
      "TrainNo": 17248,
      "StationCode": "NLR",
      "RouteNo": null,
      "StopNumber": 14,
      "TrainMappingKey": null,
      "StationName": "Nellore",
      "ArrivalTime": "21:43",
      "DepartureTime": "21:45",
      "HaltMinutes": "2m",
      "Distance": "401.1",
      "HasWifi": true,
      "Day": 1,
      "DataChanged": false,
      "ExpectedPlatformNo": "2",
      "arrivalDelay": "-",
      "departureDelay": "-",
      "Latitude": 14.4606,
      "Longitude": 79.9899,
      "stopNumberDisplay": 14
    },
    {
      "intermediateStations": [
        {
          "StationName": "Tettu",
          "StationCode": "TTU",
          "ArrivalTime": "22:36",
          "DepartureTime": "22:36",
          "HaltMinutes": "&nbsp;",
          "Day": 1,
          "Latitude": 15.042,
          "Longitude": 80.0057,
          "stopNumberDisplay": "15.1",
          "Distance": "466.2"
        },
        {
          "StationName": "Ulavapadu",
          "StationCode": "UPD",
          "ArrivalTime": "22:48",
          "DepartureTime": "22:48",
          "HaltMinutes": "&nbsp;",
          "Day": 1,
          "Latitude": 15.1667,
          "Longitude": 80.0129,
          "stopNumberDisplay": "15.2",
          "Distance": "480.1"
        },
        {
          "StationName": "Singarayakonda",
          "StationCode": "SKM",
          "ArrivalTime": "22:55",
          "DepartureTime": "22:55",
          "HaltMinutes": "&nbsp;",
          "Day": 1,
          "Latitude": 15.2521,
          "Longitude": 80.0263,
          "stopNumberDisplay": "15.3",
          "Distance": "489.8"
        },
        {
          "StationName": "Tanguturu",
          "StationCode": "TNR",
          "ArrivalTime": "23:03",
          "DepartureTime": "23:03",
          "HaltMinutes": "&nbsp;",
          "Day": 1,
          "Latitude": 15.337,
          "Longitude": 80.0331,
          "stopNumberDisplay": "15.4",
          "Distance": "499.4"
        },
        {
          "StationName": "Surareddipalem",
          "StationCode": "SDM",
          "ArrivalTime": "23:10",
          "DepartureTime": "23:10",
          "HaltMinutes": "&nbsp;",
          "Day": 1,
          "Latitude": 15.4075,
          "Longitude": 80.0459,
          "stopNumberDisplay": "15.5",
          "Distance": "507.6"
        }
      ],
      "TrainNo": 17248,
      "StationCode": "KVZ",
      "RouteNo": null,
      "StopNumber": 15,
      "TrainMappingKey": null,
      "StationName": "Kavali",
      "ArrivalTime": "22:24",
      "DepartureTime": "22:25",
      "HaltMinutes": "1m",
      "Distance": "451.9",
      "HasWifi": false,
      "Day": 1,
      "DataChanged": false,
      "ExpectedPlatformNo": "2",
      "arrivalDelay": "-",
      "departureDelay": "-",
      "Latitude": 14.9162,
      "Longitude": 79.9886,
      "stopNumberDisplay": 15
    },
    {
      "intermediateStations": [
        {
          "StationName": "Karavadi",
          "StationCode": "KRV",
          "ArrivalTime": "23:28",
          "DepartureTime": "23:28",
          "HaltMinutes": "&nbsp;",
          "Day": 1,
          "Latitude": 15.5523,
          "Longitude": 80.1132,
          "stopNumberDisplay": "16.1",
          "Distance": "526.5"
        },
        {
          "StationName": "Ammanabrolu",
          "StationCode": "ANB",
          "ArrivalTime": "23:33",
          "DepartureTime": "23:33",
          "HaltMinutes": "&nbsp;",
          "Day": 1,
          "Latitude": 15.5965,
          "Longitude": 80.1487,
          "stopNumberDisplay": "16.2",
          "Distance": "532.8"
        },
        {
          "StationName": "Raparla Halt",
          "StationCode": "RPRL",
          "ArrivalTime": "23:36",
          "DepartureTime": "23:36",
          "HaltMinutes": "&nbsp;",
          "Day": 1,
          "Latitude": 15.6188,
          "Longitude": 80.1688,
          "stopNumberDisplay": "16.3",
          "Distance": "536.1"
        },
        {
          "StationName": "Uppugunduru",
          "StationCode": "UGD",
          "ArrivalTime": "23:40",
          "DepartureTime": "23:40",
          "HaltMinutes": "&nbsp;",
          "Day": 1,
          "Latitude": 15.6498,
          "Longitude": 80.1935,
          "stopNumberDisplay": "16.4",
          "Distance": "540.5"
        },
        {
          "StationName": "Chinnaganjam",
          "StationCode": "CJM",
          "ArrivalTime": "23:45",
          "DepartureTime": "23:45",
          "HaltMinutes": "&nbsp;",
          "Day": 1,
          "Latitude": 15.6897,
          "Longitude": 80.2368,
          "stopNumberDisplay": "16.5",
          "Distance": "547.0"
        },
        {
          "StationName": "Kadavakuduru",
          "StationCode": "KVDU",
          "ArrivalTime": "23:49",
          "DepartureTime": "23:49",
          "HaltMinutes": "&nbsp;",
          "Day": 1,
          "Latitude": 15.7255,
          "Longitude": 80.2595,
          "stopNumberDisplay": "16.6",
          "Distance": "551.3"
        },
        {
          "StationName": "Kottapandillapalli",
          "StationCode": "KPLL",
          "ArrivalTime": "23:53",
          "DepartureTime": "23:53",
          "HaltMinutes": "&nbsp;",
          "Day": 1,
          "Latitude": 15.7585,
          "Longitude": 80.2795,
          "stopNumberDisplay": "16.7",
          "Distance": "556.2"
        },
        {
          "StationName": "Vetapalem",
          "StationCode": "VTM",
          "ArrivalTime": "23:56",
          "DepartureTime": "23:56",
          "HaltMinutes": "&nbsp;",
          "Day": 1,
          "Latitude": 15.7829,
          "Longitude": 80.3005,
          "stopNumberDisplay": "16.8",
          "Distance": "559.6"
        },
        {
          "StationName": "Jandrapeta",
          "StationCode": "JAQ",
          "ArrivalTime": "00:00",
          "DepartureTime": "00:00",
          "HaltMinutes": "&nbsp;",
          "Day": 2,
          "Latitude": 15.8096,
          "Longitude": 80.3341,
          "stopNumberDisplay": "16.9",
          "Distance": "564.1"
        }
      ],
      "TrainNo": 17248,
      "StationCode": "OGL",
      "RouteNo": null,
      "StopNumber": 16,
      "TrainMappingKey": null,
      "StationName": "Ongole",
      "ArrivalTime": "23:18",
      "DepartureTime": "23:20",
      "HaltMinutes": "2m",
      "Distance": "517.8",
      "HasWifi": true,
      "Day": 1,
      "DataChanged": false,
      "ExpectedPlatformNo": "1",
      "arrivalDelay": "-",
      "departureDelay": "-",
      "Latitude": 15.4986,
      "Longitude": 80.0577,
      "stopNumberDisplay": 16
    },
    {
      "intermediateStations": [
        {
          "StationName": "Ipurupalem Halt",
          "StationCode": "IPPN",
          "ArrivalTime": "00:09",
          "DepartureTime": "00:09",
          "HaltMinutes": "&nbsp;",
          "Day": 2,
          "Latitude": 15.8521,
          "Longitude": 80.3852,
          "stopNumberDisplay": "17.1",
          "Distance": "571.4"
        },
        {
          "StationName": "Ipurupalem",
          "StationCode": "IPPM",
          "ArrivalTime": "00:09",
          "DepartureTime": "00:09",
          "HaltMinutes": "&nbsp;",
          "Day": 2,
          "Latitude": 15.8527,
          "Longitude": 80.386,
          "stopNumberDisplay": "17.2",
          "Distance": "571.5"
        },
        {
          "StationName": "Stuartpuram",
          "StationCode": "SPF",
          "ArrivalTime": "00:13",
          "DepartureTime": "00:13",
          "HaltMinutes": "&nbsp;",
          "Day": 2,
          "Latitude": 15.8745,
          "Longitude": 80.4157,
          "stopNumberDisplay": "17.3",
          "Distance": "575.5"
        }
      ],
      "TrainNo": 17248,
      "StationCode": "CLX",
      "RouteNo": null,
      "StopNumber": 17,
      "TrainMappingKey": null,
      "StationName": "Chirala",
      "ArrivalTime": "00:03",
      "DepartureTime": "00:05",
      "HaltMinutes": "2m",
      "Distance": "567.3",
      "HasWifi": true,
      "Day": 2,
      "DataChanged": false,
      "ExpectedPlatformNo": "4",
      "arrivalDelay": "-",
      "departureDelay": "-",
      "Latitude": 15.831,
      "Longitude": 80.3536,
      "stopNumberDisplay": 17
    },
    {
      "intermediateStations": [
        {
          "StationName": "Appikatla",
          "StationCode": "APL",
          "ArrivalTime": "00:28",
          "DepartureTime": "00:28",
          "HaltMinutes": "&nbsp;",
          "Day": 2,
          "Latitude": 15.9701,
          "Longitude": 80.5145,
          "stopNumberDisplay": "18.1",
          "Distance": "591.1"
        },
        {
          "StationName": "Machavaram",
          "StationCode": "MCVM",
          "ArrivalTime": "00:34",
          "DepartureTime": "00:34",
          "HaltMinutes": "&nbsp;",
          "Day": 2,
          "Latitude": 16.0254,
          "Longitude": 80.5421,
          "stopNumberDisplay": "18.2",
          "Distance": "597.9"
        },
        {
          "StationName": "Nidubrolu",
          "StationCode": "NDO",
          "ArrivalTime": "00:38",
          "DepartureTime": "00:38",
          "HaltMinutes": "&nbsp;",
          "Day": 2,
          "Latitude": 16.06769,
          "Longitude": 80.5575,
          "stopNumberDisplay": "18.3",
          "Distance": "602.9"
        },
        {
          "StationName": "Modukuru",
          "StationCode": "MDKU",
          "ArrivalTime": "00:44",
          "DepartureTime": "00:44",
          "HaltMinutes": "&nbsp;",
          "Day": 2,
          "Latitude": 16.1247,
          "Longitude": 80.5832,
          "stopNumberDisplay": "18.4",
          "Distance": "609.7"
        },
        {
          "StationName": "Tsunduru",
          "StationCode": "TSR",
          "ArrivalTime": "00:48",
          "DepartureTime": "00:48",
          "HaltMinutes": "&nbsp;",
          "Day": 2,
          "Latitude": 16.1569,
          "Longitude": 80.5861,
          "stopNumberDisplay": "18.5",
          "Distance": "613.4"
        },
        {
          "StationName": "Valiveru",
          "StationCode": "VRU",
          "ArrivalTime": "00:52",
          "DepartureTime": "00:52",
          "HaltMinutes": "&nbsp;",
          "Day": 2,
          "Latitude": 16.1888,
          "Longitude": 80.6056,
          "stopNumberDisplay": "18.6",
          "Distance": "617.7"
        }
      ],
      "TrainNo": 17248,
      "StationCode": "BPP",
      "RouteNo": null,
      "StopNumber": 18,
      "TrainMappingKey": null,
      "StationName": "Bapatla",
      "ArrivalTime": "00:19",
      "DepartureTime": "00:20",
      "HaltMinutes": "1m",
      "Distance": "582.3",
      "HasWifi": false,
      "Day": 2,
      "DataChanged": false,
      "ExpectedPlatformNo": "3",
      "arrivalDelay": "-",
      "departureDelay": "-",
      "Latitude": 15.9084,
      "Longitude": 80.4685,
      "stopNumberDisplay": 18
    },
    {
      "intermediateStations": [
        {
          "StationName": "Kolakalur",
          "StationCode": "KLX",
          "ArrivalTime": "01:08",
          "DepartureTime": "01:08",
          "HaltMinutes": "&nbsp;",
          "Day": 2,
          "Latitude": 16.295395,
          "Longitude": 80.627817,
          "stopNumberDisplay": "19.1",
          "Distance": "631.0"
        },
        {
          "StationName": "Duggirala",
          "StationCode": "DIG",
          "ArrivalTime": "01:13",
          "DepartureTime": "01:13",
          "HaltMinutes": "&nbsp;",
          "Day": 2,
          "Latitude": 16.328928,
          "Longitude": 80.623663,
          "stopNumberDisplay": "19.2",
          "Distance": "634.8"
        },
        {
          "StationName": "Morampudi",
          "StationCode": "MOD",
          "ArrivalTime": "01:17",
          "DepartureTime": "01:17",
          "HaltMinutes": "&nbsp;",
          "Day": 2,
          "Latitude": 16.358138,
          "Longitude": 80.6201,
          "stopNumberDisplay": "19.3",
          "Distance": "638.0"
        },
        {
          "StationName": "Chiluvur",
          "StationCode": "CLVR",
          "ArrivalTime": "01:20",
          "DepartureTime": "01:20",
          "HaltMinutes": "&nbsp;",
          "Day": 2,
          "Latitude": 16.38035,
          "Longitude": 80.617348,
          "stopNumberDisplay": "19.4",
          "Distance": "640.5"
        },
        {
          "StationName": "Peddavadlapudi",
          "StationCode": "PVD",
          "ArrivalTime": "01:25",
          "DepartureTime": "01:25",
          "HaltMinutes": "&nbsp;",
          "Day": 2,
          "Latitude": 16.414346,
          "Longitude": 80.613092,
          "stopNumberDisplay": "19.5",
          "Distance": "644.3"
        },
        {
          "StationName": "Kolanukonda",
          "StationCode": "KAQ",
          "ArrivalTime": "01:30",
          "DepartureTime": "01:30",
          "HaltMinutes": "&nbsp;",
          "Day": 2,
          "Latitude": 16.448421,
          "Longitude": 80.604723,
          "stopNumberDisplay": "19.6",
          "Distance": "648.3"
        },
        {
          "StationName": "Krishna Canal Jn",
          "StationCode": "KCC",
          "ArrivalTime": "01:34",
          "DepartureTime": "01:34",
          "HaltMinutes": "&nbsp;",
          "Day": 2,
          "Latitude": 16.47702,
          "Longitude": 80.60557,
          "stopNumberDisplay": "19.7",
          "Distance": "651.5"
        }
      ],
      "TrainNo": 17248,
      "StationCode": "TEL",
      "RouteNo": null,
      "StopNumber": 19,
      "TrainMappingKey": null,
      "StationName": "Tenali Jn",
      "ArrivalTime": "00:58",
      "DepartureTime": "01:00",
      "HaltMinutes": "2m",
      "Distance": "624.9",
      "HasWifi": true,
      "Day": 2,
      "DataChanged": false,
      "ExpectedPlatformNo": "4",
      "arrivalDelay": "-",
      "departureDelay": "-",
      "Latitude": 16.2426,
      "Longitude": 80.6405,
      "stopNumberDisplay": 19
    },
    {
      "intermediateStations": [
        {
          "StationName": "Vijayawada Yard",
          "StationCode": "BZAY",
          "ArrivalTime": "01:51",
          "DepartureTime": "01:51",
          "HaltMinutes": "&nbsp;",
          "Day": 2,
          "Latitude": null,
          "Longitude": null,
          "stopNumberDisplay": "20.1",
          "Distance": "657.3"
        },
        {
          "StationName": "Vijayawada Bulb Cabin",
          "StationCode": "VBC",
          "ArrivalTime": "01:52",
          "DepartureTime": "01:52",
          "HaltMinutes": "&nbsp;",
          "Day": 2,
          "Latitude": 16.54085,
          "Longitude": 80.61879,
          "stopNumberDisplay": "20.2",
          "Distance": "657.8"
        },
        {
          "StationName": "Vijayawada North Cabin",
          "StationCode": "VNC",
          "ArrivalTime": "01:52",
          "DepartureTime": "01:52",
          "HaltMinutes": "&nbsp;",
          "Day": 2,
          "Latitude": 16.53167,
          "Longitude": 80.62829,
          "stopNumberDisplay": "20.3",
          "Distance": "658.2"
        },
        {
          "StationName": "Madhura Nagar",
          "StationCode": "MDUN",
          "ArrivalTime": "01:56",
          "DepartureTime": "01:56",
          "HaltMinutes": "&nbsp;",
          "Day": 2,
          "Latitude": null,
          "Longitude": null,
          "stopNumberDisplay": "20.4",
          "Distance": "660.8"
        },
        {
          "StationName": "Ramavarappadu",
          "StationCode": "RMV",
          "ArrivalTime": "02:01",
          "DepartureTime": "02:01",
          "HaltMinutes": "&nbsp;",
          "Day": 2,
          "Latitude": 16.526,
          "Longitude": 80.67983,
          "stopNumberDisplay": "20.5",
          "Distance": "664.3"
        },
        {
          "StationName": "Nidamanuru",
          "StationCode": "NDM",
          "ArrivalTime": "02:09",
          "DepartureTime": "02:09",
          "HaltMinutes": "&nbsp;",
          "Day": 2,
          "Latitude": 16.50705,
          "Longitude": 80.73172,
          "stopNumberDisplay": "20.6",
          "Distance": "670.3"
        },
        {
          "StationName": "Uppaluru",
          "StationCode": "UPL",
          "ArrivalTime": "02:16",
          "DepartureTime": "02:16",
          "HaltMinutes": "&nbsp;",
          "Day": 2,
          "Latitude": 16.49305,
          "Longitude": 80.78037,
          "stopNumberDisplay": "20.7",
          "Distance": "676.0"
        },
        {
          "StationName": "Tenneru",
          "StationCode": "TNRU",
          "ArrivalTime": "02:21",
          "DepartureTime": "02:21",
          "HaltMinutes": "&nbsp;",
          "Day": 2,
          "Latitude": 16.48811,
          "Longitude": 80.81605,
          "stopNumberDisplay": "20.8",
          "Distance": "679.8"
        },
        {
          "StationName": "Tarigoppula",
          "StationCode": "TGU",
          "ArrivalTime": "02:24",
          "DepartureTime": "02:24",
          "HaltMinutes": "&nbsp;",
          "Day": 2,
          "Latitude": 16.48527,
          "Longitude": 80.83602,
          "stopNumberDisplay": "20.9",
          "Distance": "681.9"
        },
        {
          "StationName": "Indupalli",
          "StationCode": "IDP",
          "ArrivalTime": "02:30",
          "DepartureTime": "02:30",
          "HaltMinutes": "&nbsp;",
          "Day": 2,
          "Latitude": 16.4796,
          "Longitude": 80.87765,
          "stopNumberDisplay": "20.10",
          "Distance": "686.4"
        },
        {
          "StationName": "Ventrapragada",
          "StationCode": "VPG",
          "ArrivalTime": "02:35",
          "DepartureTime": "02:35",
          "HaltMinutes": "&nbsp;",
          "Day": 2,
          "Latitude": 16.47446,
          "Longitude": 80.91467,
          "stopNumberDisplay": "20.11",
          "Distance": "690.4"
        },
        {
          "StationName": "Dosapadu",
          "StationCode": "DPD",
          "ArrivalTime": "02:39",
          "DepartureTime": "02:39",
          "HaltMinutes": "&nbsp;",
          "Day": 2,
          "Latitude": 16.4688884,
          "Longitude": 80.9391765,
          "stopNumberDisplay": "20.12",
          "Distance": "693.1"
        }
      ],
      "TrainNo": 17248,
      "StationCode": "BZA",
      "RouteNo": null,
      "StopNumber": 20,
      "TrainMappingKey": null,
      "StationName": "Vijayawada Jn",
      "ArrivalTime": "01:40",
      "DepartureTime": "01:50",
      "HaltMinutes": "10m",
      "Distance": "656.4",
      "HasWifi": true,
      "Day": 2,
      "DataChanged": false,
      "ExpectedPlatformNo": "4",
      "arrivalDelay": "-",
      "departureDelay": "-",
      "Latitude": 16.51862,
      "Longitude": 80.61919,
      "stopNumberDisplay": 20
    },
    {
      "intermediateStations": [
        {
          "StationName": "Moturu",
          "StationCode": "OTR",
          "ArrivalTime": "02:58",
          "DepartureTime": "02:58",
          "HaltMinutes": "&nbsp;",
          "Day": 2,
          "Latitude": 16.4402,
          "Longitude": 81.05116,
          "stopNumberDisplay": "21.1",
          "Distance": "707.2"
        },
        {
          "StationName": "Guntakonduru",
          "StationCode": "GUK",
          "ArrivalTime": "03:02",
          "DepartureTime": "03:02",
          "HaltMinutes": "&nbsp;",
          "Day": 2,
          "Latitude": 16.45674,
          "Longitude": 81.0776,
          "stopNumberDisplay": "21.2",
          "Distance": "710.5"
        },
        {
          "StationName": "Pasalapudi",
          "StationCode": "PSLP",
          "ArrivalTime": "03:05",
          "DepartureTime": "03:05",
          "HaltMinutes": "&nbsp;",
          "Day": 2,
          "Latitude": 16.47028,
          "Longitude": 81.095,
          "stopNumberDisplay": "21.3",
          "Distance": "712.9"
        },
        {
          "StationName": "Putlacheruvu",
          "StationCode": "PCU",
          "ArrivalTime": "03:08",
          "DepartureTime": "03:08",
          "HaltMinutes": "&nbsp;",
          "Day": 2,
          "Latitude": 16.48455,
          "Longitude": 81.1121,
          "stopNumberDisplay": "21.4",
          "Distance": "715.4"
        },
        {
          "StationName": "Mokhasa Kalavapudi",
          "StationCode": "MVP",
          "ArrivalTime": "03:10",
          "DepartureTime": "03:10",
          "HaltMinutes": "&nbsp;",
          "Day": 2,
          "Latitude": 16.49608,
          "Longitude": 81.13153,
          "stopNumberDisplay": "21.5",
          "Distance": "717.8"
        },
        {
          "StationName": "Mandavalli",
          "StationCode": "MDVL",
          "ArrivalTime": "03:15",
          "DepartureTime": "03:15",
          "HaltMinutes": "&nbsp;",
          "Day": 2,
          "Latitude": 16.51394,
          "Longitude": 81.15485,
          "stopNumberDisplay": "21.6",
          "Distance": "721.8"
        }
      ],
      "TrainNo": 17248,
      "StationCode": "GDV",
      "RouteNo": null,
      "StopNumber": 21,
      "TrainMappingKey": null,
      "StationName": "Gudivada Jn",
      "ArrivalTime": "02:48",
      "DepartureTime": "02:50",
      "HaltMinutes": "2m",
      "Distance": "699.9",
      "HasWifi": false,
      "Day": 2,
      "DataChanged": false,
      "ExpectedPlatformNo": "2",
      "arrivalDelay": "-",
      "departureDelay": "-",
      "Latitude": 16.43063,
      "Longitude": 80.98807,
      "stopNumberDisplay": 21
    },
    {
      "intermediateStations": [
        {
          "StationName": "Pallevada Halt",
          "StationCode": "PLVA",
          "ArrivalTime": "03:31",
          "DepartureTime": "03:31",
          "HaltMinutes": "&nbsp;",
          "Day": 2,
          "Latitude": 16.574,
          "Longitude": 81.2714,
          "stopNumberDisplay": "22.1",
          "Distance": "737.0"
        }
      ],
      "TrainNo": 17248,
      "StationCode": "KKLR",
      "RouteNo": null,
      "StopNumber": 22,
      "TrainMappingKey": null,
      "StationName": "Kaikaluru",
      "ArrivalTime": "03:23",
      "DepartureTime": "03:25",
      "HaltMinutes": "2m",
      "Distance": "729.0",
      "HasWifi": false,
      "Day": 2,
      "DataChanged": false,
      "ExpectedPlatformNo": "2",
      "arrivalDelay": "-",
      "departureDelay": "-",
      "Latitude": 16.55145,
      "Longitude": 81.21905,
      "stopNumberDisplay": 22
    },
    {
      "intermediateStations": [
        {
          "StationName": "Cherukuvada",
          "StationCode": "CKV",
          "ArrivalTime": "03:46",
          "DepartureTime": "03:46",
          "HaltMinutes": "&nbsp;",
          "Day": 2,
          "Latitude": 16.58972,
          "Longitude": 81.42161,
          "stopNumberDisplay": "23.1",
          "Distance": "751.4"
        },
        {
          "StationName": "Undi",
          "StationCode": "UNDI",
          "ArrivalTime": "03:51",
          "DepartureTime": "03:51",
          "HaltMinutes": "&nbsp;",
          "Day": 2,
          "Latitude": 16.5805,
          "Longitude": 81.45886,
          "stopNumberDisplay": "23.2",
          "Distance": "756.4"
        }
      ],
      "TrainNo": 17248,
      "StationCode": "AKVD",
      "RouteNo": null,
      "StopNumber": 23,
      "TrainMappingKey": null,
      "StationName": "Akividu",
      "ArrivalTime": "03:38",
      "DepartureTime": "03:40",
      "HaltMinutes": "2m",
      "Distance": "745.8",
      "HasWifi": false,
      "Day": 2,
      "DataChanged": false,
      "ExpectedPlatformNo": null,
      "arrivalDelay": "-",
      "departureDelay": "-",
      "Latitude": 16.58271,
      "Longitude": 81.36924,
      "stopNumberDisplay": 23
    },
    {
      "intermediateStations": [
        {
          "StationName": "Bhimavaram B Cabin",
          "StationCode": "BVBC",
          "ArrivalTime": "04:06",
          "DepartureTime": "04:06",
          "HaltMinutes": "&nbsp;",
          "Day": 2,
          "Latitude": 16.54674,
          "Longitude": 81.52874,
          "stopNumberDisplay": "24.1",
          "Distance": "764.5"
        }
      ],
      "TrainNo": 17248,
      "StationCode": "BVRT",
      "RouteNo": null,
      "StopNumber": 24,
      "TrainMappingKey": null,
      "StationName": "Bhimavaram Town",
      "ArrivalTime": "03:58",
      "DepartureTime": "04:00",
      "HaltMinutes": "2m",
      "Distance": "763.5",
      "HasWifi": false,
      "Day": 2,
      "DataChanged": false,
      "ExpectedPlatformNo": "2",
      "arrivalDelay": "-",
      "departureDelay": "-",
      "Latitude": null,
      "Longitude": null,
      "stopNumberDisplay": 24
    },
    {
      "intermediateStations": [
        {
          "StationName": "Pennada Agraharam",
          "StationCode": "PAGM",
          "ArrivalTime": "04:21",
          "DepartureTime": "04:21",
          "HaltMinutes": "&nbsp;",
          "Day": 2,
          "Latitude": 16.54167,
          "Longitude": 81.57801,
          "stopNumberDisplay": "25.1",
          "Distance": "770.2"
        },
        {
          "StationName": "Srungavruksham",
          "StationCode": "SGKM",
          "ArrivalTime": "04:24",
          "DepartureTime": "04:24",
          "HaltMinutes": "&nbsp;",
          "Day": 2,
          "Latitude": 16.54352,
          "Longitude": 81.60162,
          "stopNumberDisplay": "25.2",
          "Distance": "772.7"
        }
      ],
      "TrainNo": 17248,
      "StationCode": "BVRM",
      "RouteNo": null,
      "StopNumber": 25,
      "TrainMappingKey": null,
      "StationName": "Bhimavaram Jn",
      "ArrivalTime": "04:13",
      "DepartureTime": "04:15",
      "HaltMinutes": "2m",
      "Distance": "765.5",
      "HasWifi": false,
      "Day": 2,
      "DataChanged": false,
      "ExpectedPlatformNo": null,
      "arrivalDelay": "-",
      "departureDelay": "-",
      "Latitude": null,
      "Longitude": null,
      "stopNumberDisplay": 25
    },
    {
      "intermediateStations": [
        {
          "StationName": "Sivadevunichikkala",
          "StationCode": "SVDC",
          "ArrivalTime": "04:32",
          "DepartureTime": "04:32",
          "HaltMinutes": "&nbsp;",
          "Day": 2,
          "Latitude": 16.53645,
          "Longitude": 81.65444,
          "stopNumberDisplay": "26.1",
          "Distance": "778.4"
        },
        {
          "StationName": "Lankalakoderu",
          "StationCode": "LKDU",
          "ArrivalTime": "04:34",
          "DepartureTime": "04:34",
          "HaltMinutes": "&nbsp;",
          "Day": 2,
          "Latitude": 16.53427,
          "Longitude": 81.68066,
          "stopNumberDisplay": "26.2",
          "Distance": "781.3"
        },
        {
          "StationName": "Chinta Parru Halt",
          "StationCode": "CTPR",
          "ArrivalTime": "04:35",
          "DepartureTime": "04:35",
          "HaltMinutes": "&nbsp;",
          "Day": 2,
          "Latitude": 16.53439,
          "Longitude": 81.69508,
          "stopNumberDisplay": "26.3",
          "Distance": "782.8"
        }
      ],
      "TrainNo": 17248,
      "StationCode": "VVM",
      "RouteNo": null,
      "StopNumber": 26,
      "TrainMappingKey": null,
      "StationName": "Viravasaram",
      "ArrivalTime": "04:28",
      "DepartureTime": "04:30",
      "HaltMinutes": "2m",
      "Distance": "776.1",
      "HasWifi": false,
      "Day": 2,
      "DataChanged": false,
      "ExpectedPlatformNo": null,
      "arrivalDelay": "-",
      "departureDelay": "-",
      "Latitude": 16.542,
      "Longitude": 81.63333,
      "stopNumberDisplay": 26
    },
    {
      "intermediateStations": [],
      "TrainNo": 17248,
      "StationCode": "PKO",
      "RouteNo": null,
      "StopNumber": 27,
      "TrainMappingKey": null,
      "StationName": "Palakollu",
      "ArrivalTime": "04:38",
      "DepartureTime": "04:40",
      "HaltMinutes": "2m",
      "Distance": "786.0",
      "HasWifi": false,
      "Day": 2,
      "DataChanged": false,
      "ExpectedPlatformNo": null,
      "arrivalDelay": "-",
      "departureDelay": "-",
      "Latitude": 16.52102,
      "Longitude": 81.71712,
      "stopNumberDisplay": 27
    },
    {
      "intermediateStations": [],
      "TrainNo": 17248,
      "StationCode": "NS",
      "RouteNo": null,
      "StopNumber": 28,
      "TrainMappingKey": null,
      "StationName": "Narasapur",
      "ArrivalTime": "05:25",
      "DepartureTime": "",
      "HaltMinutes": "",
      "Distance": "795.1",
      "HasWifi": false,
      "Day": 2,
      "DataChanged": false,
      "ExpectedPlatformNo": "1",
      "arrivalDelay": "-",
      "departureDelay": "-",
      "Latitude": 16.4439,
      "Longitude": 81.69963,
      "stopNumberDisplay": 28
    }
  ],
  "Source": "Dharmavaram Junction",
  "Destination": "Narasapur",
  "SourceCode": "DMM",
  "DestinationCode": "NS",
  "DaysOfRun": {
    "Sun": true,
    "Mon": true,
    "Tue": true,
    "Wed": true,
    "Thu": true,
    "Fri": true,
    "Sat": true
  },
  "FooterText": null,
  "TrainType": null,
  "IsUnreserved": false,
  "Rating": 4.1,
  "FoodRating": 3.7,
  "PunctualityRating": 4.2,
  "CleanlinessRating": 4.4,
  "RatingCount": 905,
  "TotalDuration": "15:5",
  "FromCity": "Dharmavaram",
  "ToCity": "Narsapur",
  "CacheTime": "2024-03-08T21:53:58.2860041+05:30",
  "HasPantry": false,
  "ErrorMsg": null
}