{
  "TrainName": "SAURASHTRA JANTA",
  "TrainNo": 19217,
  "TrainNumberString": null,
  "CoachPosition": "L EOG H1 A2 A1 B6 B5 B4 B3 B2 B1 S8 S7 S6 S5 S4 S3 S2 S1 GEN GEN GEN EOG",
  "Classes": [
    "1A",
    "2A",
    "3A",
    "SL"
  ],
  "Schedule": [
    {
      "intermediateStations": [
        {
          "StationName": "Santa Cruz",
          "StationCode": "STC",
          "ArrivalTime": "13:42",
          "DepartureTime": "13:42",
          "HaltMinutes": "&nbsp;",
          "Day": 1,
          "Latitude": 19.08156,
          "Longitude": 72.84164,
          "stopNumberDisplay": "1.1",
          "Distance": "2.1"
        },
        {
          "StationName": "Ville Parle",
          "StationCode": "VLP",
          "ArrivalTime": "13:45",
          "DepartureTime": "13:45",
          "HaltMinutes": "&nbsp;",
          "Day": 1,
          "Latitude": 19.10004,
          "Longitude": 72.84406,
          "stopNumberDisplay": "1.2",
          "Distance": "4.0"
        },
        {
          "StationName": "Andheri",
          "StationCode": "ADH",
          "ArrivalTime": "13:47",
          "DepartureTime": "13:47",
          "HaltMinutes": "&nbsp;",
          "Day": 1,
          "Latitude": null,
          "Longitude": null,
          "stopNumberDisplay": "1.3",
          "Distance": "6.1"
        },
        {
          "StationName": "Jogeshwari",
          "StationCode": "JOS",
          "ArrivalTime": "13:50",
          "DepartureTime": "13:50",
          "HaltMinutes": "&nbsp;",
          "Day": 1,
          "Latitude": 19.13647,
          "Longitude": 72.84896,
          "stopNumberDisplay": "1.4",
          "Distance": "8.1"
        },
        {
          "StationName": "Ram Mandir",
          "StationCode": "RMAR",
          "ArrivalTime": "13:52",
          "DepartureTime": "13:52",
          "HaltMinutes": "&nbsp;",
          "Day": 1,
          "Latitude": 19.15168,
          "Longitude": 72.85023,
          "stopNumberDisplay": "1.5",
          "Distance": "9.7"
        },
        {
          "StationName": "Goregaon",
          "StationCode": "GMN",
          "ArrivalTime": "13:53",
          "DepartureTime": "13:53",
          "HaltMinutes": "&nbsp;",
          "Day": 1,
          "Latitude": 19.16461,
          "Longitude": 72.84961,
          "stopNumberDisplay": "1.6",
          "Distance": "11.2"
        },
        {
          "StationName": "Malad",
          "StationCode": "MDD",
          "ArrivalTime": "13:56",
          "DepartureTime": "13:56",
          "HaltMinutes": "&nbsp;",
          "Day": 1,
          "Latitude": 19.18723,
          "Longitude": 72.84898,
          "stopNumberDisplay": "1.7",
          "Distance": "13.7"
        },
        {
          "StationName": "Kandivli",
          "StationCode": "KILE",
          "ArrivalTime": "13:59",
          "DepartureTime": "13:59",
          "HaltMinutes": "&nbsp;",
          "Day": 1,
          "Latitude": 19.20451,
          "Longitude": 72.85199,
          "stopNumberDisplay": "1.8",
          "Distance": "15.6"
        },
        {
          "StationName": "Kandivli EMU Shed",
          "StationCode": "KDKC",
          "ArrivalTime": "14:00",
          "DepartureTime": "14:00",
          "HaltMinutes": "&nbsp;",
          "Day": 1,
          "Latitude": null,
          "Longitude": null,
          "stopNumberDisplay": "1.9",
          "Distance": "16.4"
        }
      ],
      "TrainNo": 19217,
      "StationCode": "BDTS",
      "RouteNo": null,
      "StopNumber": 1,
      "TrainMappingKey": null,
      "StationName": "Mumbai Bandra Trm",
      "ArrivalTime": "",
      "DepartureTime": "13:40",
      "HaltMinutes": "",
      "Distance": "0.0",
      "HasWifi": false,
      "Day": 1,
      "DataChanged": false,
      "ExpectedPlatformNo": "3",
      "arrivalDelay": "01 Min",
      "departureDelay": "01 Min",
      "Latitude": null,
      "Longitude": null,
      "stopNumberDisplay": 1
    },
    {
      "intermediateStations": [
        {
          "StationName": "Dahisar",
          "StationCode": "DIC",
          "ArrivalTime": "14:07",
          "DepartureTime": "14:07",
          "HaltMinutes": "&nbsp;",
          "Day": 1,
          "Latitude": 19.25007,
          "Longitude": 72.85917,
          "stopNumberDisplay": "2.1",
          "Distance": "20.8"
        },
        {
          "StationName": "Mira Road",
          "StationCode": "MIRA",
          "ArrivalTime": "14:10",
          "DepartureTime": "14:10",
          "HaltMinutes": "&nbsp;",
          "Day": 1,
          "Latitude": 19.27972,
          "Longitude": 72.85612,
          "stopNumberDisplay": "2.2",
          "Distance": "24.1"
        },
        {
          "StationName": "Bhayandar",
          "StationCode": "BYR",
          "ArrivalTime": "14:14",
          "DepartureTime": "14:14",
          "HaltMinutes": "&nbsp;",
          "Day": 1,
          "Latitude": 19.31093,
          "Longitude": 72.8526,
          "stopNumberDisplay": "2.3",
          "Distance": "27.6"
        },
        {
          "StationName": "Naigaon",
          "StationCode": "NIG",
          "ArrivalTime": "14:18",
          "DepartureTime": "14:18",
          "HaltMinutes": "&nbsp;",
          "Day": 1,
          "Latitude": 19.35147,
          "Longitude": 72.84621,
          "stopNumberDisplay": "2.4",
          "Distance": "32.2"
        },
        {
          "StationName": "Vasai Road",
          "StationCode": "BSR",
          "ArrivalTime": "14:22",
          "DepartureTime": "14:22",
          "HaltMinutes": "&nbsp;",
          "Day": 1,
          "Latitude": null,
          "Longitude": null,
          "stopNumberDisplay": "2.5",
          "Distance": "36.0"
        },
        {
          "StationName": "Nalla Sopara",
          "StationCode": "NSP",
          "ArrivalTime": "14:26",
          "DepartureTime": "14:26",
          "HaltMinutes": "&nbsp;",
          "Day": 1,
          "Latitude": 19.4174,
          "Longitude": 72.819,
          "stopNumberDisplay": "2.6",
          "Distance": "40.1"
        },
        {
          "StationName": "Virar Carshed",
          "StationCode": "VCSV",
          "ArrivalTime": "14:28",
          "DepartureTime": "14:28",
          "HaltMinutes": "&nbsp;",
          "Day": 1,
          "Latitude": null,
          "Longitude": null,
          "stopNumberDisplay": "2.7",
          "Distance": "42.0"
        },
        {
          "StationName": "Virar",
          "StationCode": "VR",
          "ArrivalTime": "14:30",
          "DepartureTime": "14:30",
          "HaltMinutes": "&nbsp;",
          "Day": 1,
          "Latitude": null,
          "Longitude": null,
          "stopNumberDisplay": "2.8",
          "Distance": "44.3"
        },
        {
          "StationName": "Vaitarna",
          "StationCode": "VTN",
          "ArrivalTime": "14:38",
          "DepartureTime": "14:38",
          "HaltMinutes": "&nbsp;",
          "Day": 1,
          "Latitude": 19.5179,
          "Longitude": 72.8502,
          "stopNumberDisplay": "2.9",
          "Distance": "52.8"
        },
        {
          "StationName": "Saphale",
          "StationCode": "SAH",
          "ArrivalTime": "14:46",
          "DepartureTime": "14:46",
          "HaltMinutes": "&nbsp;",
          "Day": 1,
          "Latitude": 19.5767,
          "Longitude": 72.8219,
          "stopNumberDisplay": "2.10",
          "Distance": "60.7"
        },
        {
          "StationName": "Kelve Road",
          "StationCode": "KLV",
          "ArrivalTime": "14:52",
          "DepartureTime": "14:52",
          "HaltMinutes": "&nbsp;",
          "Day": 1,
          "Latitude": 19.6246,
          "Longitude": 72.7911,
          "stopNumberDisplay": "2.11",
          "Distance": "67.0"
        }
      ],
      "TrainNo": 19217,
      "StationCode": "BVI",
      "RouteNo": null,
      "StopNumber": 2,
      "TrainMappingKey": null,
      "StationName": "Borivali",
      "ArrivalTime": "14:02",
      "DepartureTime": "14:05",
      "HaltMinutes": "3m",
      "Distance": "18.4",
      "HasWifi": false,
      "Day": 1,
      "DataChanged": false,
      "ExpectedPlatformNo": "8",
      "arrivalDelay": "08 Min",
      "departureDelay": "08 Min",
      "Latitude": null,
      "Longitude": null,
      "stopNumberDisplay": 2
    },
    {
      "intermediateStations": [
        {
          "StationName": "Umroli",
          "StationCode": "UOI",
          "ArrivalTime": "15:06",
          "DepartureTime": "15:06",
          "HaltMinutes": "&nbsp;",
          "Day": 1,
          "Latitude": 19.7544,
          "Longitude": 72.7604,
          "stopNumberDisplay": "3.1",
          "Distance": "82.0"
        },
        {
          "StationName": "Boisar",
          "StationCode": "BOR",
          "ArrivalTime": "15:10",
          "DepartureTime": "15:10",
          "HaltMinutes": "&nbsp;",
          "Day": 1,
          "Latitude": 19.7983,
          "Longitude": 72.7616,
          "stopNumberDisplay": "3.2",
          "Distance": "86.7"
        },
        {
          "StationName": "Vangaon",
          "StationCode": "VGN",
          "ArrivalTime": "15:16",
          "DepartureTime": "15:16",
          "HaltMinutes": "&nbsp;",
          "Day": 1,
          "Latitude": 19.883,
          "Longitude": 72.7633,
          "stopNumberDisplay": "3.3",
          "Distance": "96.1"
        }
      ],
      "TrainNo": 19217,
      "StationCode": "PLG",
      "RouteNo": null,
      "StopNumber": 3,
      "TrainMappingKey": null,
      "StationName": "Palghar",
      "ArrivalTime": "15:00",
      "DepartureTime": "15:02",
      "HaltMinutes": "2m",
      "Distance": "75.4",
      "HasWifi": false,
      "Day": 1,
      "DataChanged": false,
      "ExpectedPlatformNo": "1",
      "arrivalDelay": "06 Min",
      "departureDelay": "06 Min",
      "Latitude": null,
      "Longitude": null,
      "stopNumberDisplay": 3
    },
    {
      "intermediateStations": [
        {
          "StationName": "Gholvad",
          "StationCode": "GVD",
          "ArrivalTime": "15:35",
          "DepartureTime": "15:35",
          "HaltMinutes": "&nbsp;",
          "Day": 1,
          "Latitude": 20.087,
          "Longitude": 72.7381,
          "stopNumberDisplay": "4.1",
          "Distance": "119.5"
        },
        {
          "StationName": "Bordi Road",
          "StationCode": "BRRD",
          "ArrivalTime": "15:39",
          "DepartureTime": "15:39",
          "HaltMinutes": "&nbsp;",
          "Day": 1,
          "Latitude": 20.12249,
          "Longitude": 72.766,
          "stopNumberDisplay": "4.2",
          "Distance": "124.5"
        },
        {
          "StationName": "Umargam Road",
          "StationCode": "UBR",
          "ArrivalTime": "15:43",
          "DepartureTime": "15:43",
          "HaltMinutes": "&nbsp;",
          "Day": 1,
          "Latitude": 20.1533,
          "Longitude": 72.7904,
          "stopNumberDisplay": "4.3",
          "Distance": "128.9"
        },
        {
          "StationName": "Sanjan",
          "StationCode": "SJN",
          "ArrivalTime": "15:47",
          "DepartureTime": "15:47",
          "HaltMinutes": "&nbsp;",
          "Day": 1,
          "Latitude": 20.192,
          "Longitude": 72.821,
          "stopNumberDisplay": "4.4",
          "Distance": "134.1"
        },
        {
          "StationName": "Bhilad",
          "StationCode": "BLD",
          "ArrivalTime": "15:57",
          "DepartureTime": "15:57",
          "HaltMinutes": "&nbsp;",
          "Day": 1,
          "Latitude": 20.2755,
          "Longitude": 72.8875,
          "stopNumberDisplay": "4.5",
          "Distance": "145.6"
        },
        {
          "StationName": "Karambeli",
          "StationCode": "KEB",
          "ArrivalTime": "16:01",
          "DepartureTime": "16:01",
          "HaltMinutes": "&nbsp;",
          "Day": 1,
          "Latitude": 20.3159,
          "Longitude": 72.90139,
          "stopNumberDisplay": "4.6",
          "Distance": "150.5"
        }
      ],
      "TrainNo": 19217,
      "StationCode": "DRD",
      "RouteNo": null,
      "StopNumber": 4,
      "TrainMappingKey": null,
      "StationName": "Dahanu Road",
      "ArrivalTime": "15:24",
      "DepartureTime": "15:26",
      "HaltMinutes": "2m",
      "Distance": "108.4",
      "HasWifi": false,
      "Day": 1,
      "DataChanged": false,
      "ExpectedPlatformNo": "1",
      "arrivalDelay": "10 Min",
      "departureDelay": "10 Min",
      "Latitude": null,
      "Longitude": null,
      "stopNumberDisplay": 4
    },
    {
      "intermediateStations": [
        {
          "StationName": "Bagwada",
          "StationCode": "BAGD",
          "ArrivalTime": "16:14",
          "DepartureTime": "16:14",
          "HaltMinutes": "&nbsp;",
          "Day": 1,
          "Latitude": 20.4334,
          "Longitude": 72.9162,
          "stopNumberDisplay": "5.1",
          "Distance": "163.7"
        },
        {
          "StationName": "Udvada",
          "StationCode": "UVD",
          "ArrivalTime": "16:17",
          "DepartureTime": "16:17",
          "HaltMinutes": "&nbsp;",
          "Day": 1,
          "Latitude": 20.4593,
          "Longitude": 72.9191,
          "stopNumberDisplay": "5.2",
          "Distance": "166.8"
        },
        {
          "StationName": "Pardi",
          "StationCode": "PAD",
          "ArrivalTime": "16:22",
          "DepartureTime": "16:22",
          "HaltMinutes": "&nbsp;",
          "Day": 1,
          "Latitude": 20.51288,
          "Longitude": 72.9243,
          "stopNumberDisplay": "5.3",
          "Distance": "172.6"
        },
        {
          "StationName": "Atul",
          "StationCode": "ATUL",
          "ArrivalTime": "16:25",
          "DepartureTime": "16:25",
          "HaltMinutes": "&nbsp;",
          "Day": 1,
          "Latitude": 20.5485,
          "Longitude": 72.9277,
          "stopNumberDisplay": "5.4",
          "Distance": "176.3"
        }
      ],
      "TrainNo": 19217,
      "StationCode": "VAPI",
      "RouteNo": null,
      "StopNumber": 5,
      "TrainMappingKey": null,
      "StationName": "Vapi",
      "ArrivalTime": "16:06",
      "DepartureTime": "16:08",
      "HaltMinutes": "2m",
      "Distance": "156.9",
      "HasWifi": true,
      "Day": 1,
      "DataChanged": false,
      "ExpectedPlatformNo": "1",
      "arrivalDelay": "18 Min",
      "departureDelay": "18 Min",
      "Latitude": 20.3735,
      "Longitude": 72.9089,
      "stopNumberDisplay": 5
    },
    {
      "intermediateStations": [
        {
          "StationName": "Dungri",
          "StationCode": "DGI",
          "ArrivalTime": "16:39",
          "DepartureTime": "16:39",
          "HaltMinutes": "&nbsp;",
          "Day": 1,
          "Latitude": 20.6874,
          "Longitude": 72.9491,
          "stopNumberDisplay": "6.1",
          "Distance": "192.1"
        },
        {
          "StationName": "Joravasan",
          "StationCode": "JRS",
          "ArrivalTime": "16:43",
          "DepartureTime": "16:43",
          "HaltMinutes": "&nbsp;",
          "Day": 1,
          "Latitude": 20.7301,
          "Longitude": 72.9663,
          "stopNumberDisplay": "6.2",
          "Distance": "197.2"
        }
      ],
      "TrainNo": 19217,
      "StationCode": "BL",
      "RouteNo": null,
      "StopNumber": 6,
      "TrainMappingKey": null,
      "StationName": "Valsad",
      "ArrivalTime": "16:31",
      "DepartureTime": "16:33",
      "HaltMinutes": "2m",
      "Distance": "183.1",
      "HasWifi": true,
      "Day": 1,
      "DataChanged": false,
      "ExpectedPlatformNo": "2",
      "arrivalDelay": "21 Min",
      "departureDelay": "21 Min",
      "Latitude": 20.6085,
      "Longitude": 72.934,
      "stopNumberDisplay": 6
    },
    {
      "intermediateStations": [
        {
          "StationName": "Amalsad",
          "StationCode": "AML",
          "ArrivalTime": "16:52",
          "DepartureTime": "16:52",
          "HaltMinutes": "&nbsp;",
          "Day": 1,
          "Latitude": 20.81179,
          "Longitude": 72.95583,
          "stopNumberDisplay": "7.1",
          "Distance": "206.6"
        },
        {
          "StationName": "Ancheli",
          "StationCode": "ACL",
          "ArrivalTime": "16:55",
          "DepartureTime": "16:55",
          "HaltMinutes": "&nbsp;",
          "Day": 1,
          "Latitude": 20.84535,
          "Longitude": 72.94538,
          "stopNumberDisplay": "7.2",
          "Distance": "210.5"
        },
        {
          "StationName": "Vedchha",
          "StationCode": "VDH",
          "ArrivalTime": "16:58",
          "DepartureTime": "16:58",
          "HaltMinutes": "&nbsp;",
          "Day": 1,
          "Latitude": 20.87411,
          "Longitude": 72.93649,
          "stopNumberDisplay": "7.3",
          "Distance": "213.9"
        },
        {
          "StationName": "Hansapore",
          "StationCode": "HXR",
          "ArrivalTime": "17:01",
          "DepartureTime": "17:01",
          "HaltMinutes": "&nbsp;",
          "Day": 1,
          "Latitude": 20.90781,
          "Longitude": 72.92586,
          "stopNumberDisplay": "7.4",
          "Distance": "217.7"
        },
        {
          "StationName": "Gandhi Smriti",
          "StationCode": "GNST",
          "ArrivalTime": "17:02",
          "DepartureTime": "17:02",
          "HaltMinutes": "&nbsp;",
          "Day": 1,
          "Latitude": 20.91952,
          "Longitude": 72.9222,
          "stopNumberDisplay": "7.5",
          "Distance": "219.2"
        }
      ],
      "TrainNo": 19217,
      "StationCode": "BIM",
      "RouteNo": null,
      "StopNumber": 7,
      "TrainMappingKey": null,
      "StationName": "Bilimora Jn",
      "ArrivalTime": "16:46",
      "DepartureTime": "16:48",
      "HaltMinutes": "2m",
      "Distance": "201.3",
      "HasWifi": false,
      "Day": 1,
      "DataChanged": false,
      "ExpectedPlatformNo": "1",
      "arrivalDelay": "26 Min",
      "departureDelay": "26 Min",
      "Latitude": 20.76552,
      "Longitude": 72.97026,
      "stopNumberDisplay": 7
    },
    {
      "intermediateStations": [
        {
          "StationName": "Maroli",
          "StationCode": "MRL",
          "ArrivalTime": "17:16",
          "DepartureTime": "17:16",
          "HaltMinutes": "&nbsp;",
          "Day": 1,
          "Latitude": 21.0202,
          "Longitude": 72.89063,
          "stopNumberDisplay": "8.1",
          "Distance": "230.8"
        },
        {
          "StationName": "Sachin",
          "StationCode": "SCH",
          "ArrivalTime": "17:24",
          "DepartureTime": "17:24",
          "HaltMinutes": "&nbsp;",
          "Day": 1,
          "Latitude": 21.07791,
          "Longitude": 72.87455,
          "stopNumberDisplay": "8.2",
          "Distance": "237.4"
        },
        {
          "StationName": "Bhestan",
          "StationCode": "BHET",
          "ArrivalTime": "17:30",
          "DepartureTime": "17:30",
          "HaltMinutes": "&nbsp;",
          "Day": 1,
          "Latitude": 21.12253,
          "Longitude": 72.86329,
          "stopNumberDisplay": "8.3",
          "Distance": "242.5"
        },
        {
          "StationName": "Udhna Bypass Cabin",
          "StationCode": "XX-UDNB",
          "ArrivalTime": "17:33",
          "DepartureTime": "17:33",
          "HaltMinutes": "&nbsp;",
          "Day": 1,
          "Latitude": 21.141529,
          "Longitude": 72.858531,
          "stopNumberDisplay": "8.4",
          "Distance": "244.8"
        },
        {
          "StationName": "Udhna Jn",
          "StationCode": "UDN",
          "ArrivalTime": "17:37",
          "DepartureTime": "17:37",
          "HaltMinutes": "&nbsp;",
          "Day": 1,
          "Latitude": 21.17047,
          "Longitude": 72.85115,
          "stopNumberDisplay": "8.5",
          "Distance": "247.9"
        }
      ],
      "TrainNo": 19217,
      "StationCode": "NVS",
      "RouteNo": null,
      "StopNumber": 8,
      "TrainMappingKey": null,
      "StationName": "Navsari",
      "ArrivalTime": "17:04",
      "DepartureTime": "17:06",
      "HaltMinutes": "2m",
      "Distance": "222.3",
      "HasWifi": false,
      "Day": 1,
      "DataChanged": false,
      "ExpectedPlatformNo": "1",
      "arrivalDelay": "30 Min",
      "departureDelay": "30 Min",
      "Latitude": 20.94739,
      "Longitude": 72.9135,
      "stopNumberDisplay": 8
    },
    {
      "intermediateStations": [
        {
          "StationName": "Utran",
          "StationCode": "URN",
          "ArrivalTime": "17:48",
          "DepartureTime": "17:48",
          "HaltMinutes": "&nbsp;",
          "Day": 1,
          "Latitude": 21.233505,
          "Longitude": 72.855276,
          "stopNumberDisplay": "9.1",
          "Distance": "255.6"
        },
        {
          "StationName": "Kosad",
          "StationCode": "KSE",
          "ArrivalTime": "17:50",
          "DepartureTime": "17:50",
          "HaltMinutes": "&nbsp;",
          "Day": 1,
          "Latitude": 21.261446,
          "Longitude": 72.867772,
          "stopNumberDisplay": "9.2",
          "Distance": "259.0"
        },
        {
          "StationName": "Gothangam",
          "StationCode": "GTX",
          "ArrivalTime": "17:53",
          "DepartureTime": "17:53",
          "HaltMinutes": "&nbsp;",
          "Day": 1,
          "Latitude": 21.290797,
          "Longitude": 72.879292,
          "stopNumberDisplay": "9.3",
          "Distance": "262.5"
        },
        {
          "StationName": "Sayan",
          "StationCode": "SYN",
          "ArrivalTime": "17:55",
          "DepartureTime": "17:55",
          "HaltMinutes": "&nbsp;",
          "Day": 1,
          "Latitude": 21.317108,
          "Longitude": 72.890153,
          "stopNumberDisplay": "9.4",
          "Distance": "265.6"
        },
        {
          "StationName": "Kudsad",
          "StationCode": "KDSD",
          "ArrivalTime": "18:00",
          "DepartureTime": "18:00",
          "HaltMinutes": "&nbsp;",
          "Day": 1,
          "Latitude": 21.376695,
          "Longitude": 72.916344,
          "stopNumberDisplay": "9.5",
          "Distance": "272.8"
        },
        {
          "StationName": "Kim",
          "StationCode": "KIM",
          "ArrivalTime": "18:02",
          "DepartureTime": "18:02",
          "HaltMinutes": "&nbsp;",
          "Day": 1,
          "Latitude": 21.399751,
          "Longitude": 72.926518,
          "stopNumberDisplay": "9.6",
          "Distance": "275.5"
        }
      ],
      "TrainNo": 19217,
      "StationCode": "ST",
      "RouteNo": null,
      "StopNumber": 9,
      "TrainMappingKey": null,
      "StationName": "Surat",
      "ArrivalTime": "17:42",
      "DepartureTime": "17:45",
      "HaltMinutes": "3m",
      "Distance": "251.9",
      "HasWifi": true,
      "Day": 1,
      "DataChanged": false,
      "ExpectedPlatformNo": "1",
      "arrivalDelay": "24 Min",
      "departureDelay": "24 Min",
      "Latitude": 21.205022,
      "Longitude": 72.840901,
      "stopNumberDisplay": 9
    },
    {
      "intermediateStations": [
        {
          "StationName": "Hathuran",
          "StationCode": "HAT",
          "ArrivalTime": "18:18",
          "DepartureTime": "18:18",
          "HaltMinutes": "&nbsp;",
          "Day": 1,
          "Latitude": 21.5012,
          "Longitude": 72.9698,
          "stopNumberDisplay": "10.1",
          "Distance": "287.7"
        },
        {
          "StationName": "Panoli",
          "StationCode": "PAO",
          "ArrivalTime": "18:25",
          "DepartureTime": "18:25",
          "HaltMinutes": "&nbsp;",
          "Day": 1,
          "Latitude": 21.5351,
          "Longitude": 72.9781,
          "stopNumberDisplay": "10.2",
          "Distance": "291.5"
        },
        {
          "StationName": "Sanjali",
          "StationCode": "SNJL",
          "ArrivalTime": "18:33",
          "DepartureTime": "18:33",
          "HaltMinutes": "&nbsp;",
          "Day": 1,
          "Latitude": 21.572,
          "Longitude": 72.9877,
          "stopNumberDisplay": "10.3",
          "Distance": "296.1"
        }
      ],
      "TrainNo": 19217,
      "StationCode": "KSB",
      "RouteNo": null,
      "StopNumber": 10,
      "TrainMappingKey": null,
      "StationName": "Kosamba Jn",
      "ArrivalTime": "18:08",
      "DepartureTime": "18:10",
      "HaltMinutes": "2m",
      "Distance": "283.3",
      "HasWifi": false,
      "Day": 1,
      "DataChanged": false,
      "ExpectedPlatformNo": null,
      "arrivalDelay": "27 Min",
      "departureDelay": "27 Min",
      "Latitude": 21.46404,
      "Longitude": 72.95478,
      "stopNumberDisplay": 10
    },
    {
      "intermediateStations": [
        {
          "StationName": "Concor Depot",
          "StationCode": "CCTA",
          "ArrivalTime": "18:46",
          "DepartureTime": "18:46",
          "HaltMinutes": "&nbsp;",
          "Day": 1,
          "Latitude": 21.63143,
          "Longitude": 73.00292,
          "stopNumberDisplay": "11.1",
          "Distance": "302.5"
        }
      ],
      "TrainNo": 19217,
      "StationCode": "AKV",
      "RouteNo": null,
      "StopNumber": 11,
      "TrainMappingKey": null,
      "StationName": "Ankleshwar Jn",
      "ArrivalTime": "18:43",
      "DepartureTime": "18:45",
      "HaltMinutes": "2m",
      "Distance": "301.8",
      "HasWifi": true,
      "Day": 1,
      "DataChanged": false,
      "ExpectedPlatformNo": "1",
      "arrivalDelay": "26 Min",
      "departureDelay": "26 Min",
      "Latitude": 21.6264236,
      "Longitude": 73.0151984,
      "stopNumberDisplay": 11
    },
    {
      "intermediateStations": [
        {
          "StationName": "Baruch Bypass Cabin",
          "StationCode": "XX-BHBC",
          "ArrivalTime": "19:01",
          "DepartureTime": "19:01",
          "HaltMinutes": "&nbsp;",
          "Day": 1,
          "Latitude": 21.714666,
          "Longitude": 72.997323,
          "stopNumberDisplay": "12.1",
          "Distance": "312.4"
        },
        {
          "StationName": "Chavaj",
          "StationCode": "CVJ",
          "ArrivalTime": "19:05",
          "DepartureTime": "19:05",
          "HaltMinutes": "&nbsp;",
          "Day": 1,
          "Latitude": 21.752306,
          "Longitude": 73.009915,
          "stopNumberDisplay": "12.2",
          "Distance": "316.8"
        },
        {
          "StationName": "Nabipur",
          "StationCode": "NIU",
          "ArrivalTime": "19:10",
          "DepartureTime": "19:10",
          "HaltMinutes": "&nbsp;",
          "Day": 1,
          "Latitude": 21.807108,
          "Longitude": 73.030348,
          "stopNumberDisplay": "12.3",
          "Distance": "323.3"
        },
        {
          "StationName": "Varediya",
          "StationCode": "VRE",
          "ArrivalTime": "19:16",
          "DepartureTime": "19:16",
          "HaltMinutes": "&nbsp;",
          "Day": 1,
          "Latitude": 21.867324,
          "Longitude": 73.052679,
          "stopNumberDisplay": "12.4",
          "Distance": "330.3"
        },
        {
          "StationName": "Palej",
          "StationCode": "PLJ",
          "ArrivalTime": "19:22",
          "DepartureTime": "19:22",
          "HaltMinutes": "&nbsp;",
          "Day": 1,
          "Latitude": 21.921196,
          "Longitude": 73.072526,
          "stopNumberDisplay": "12.5",
          "Distance": "336.6"
        },
        {
          "StationName": "Lakodra Dethan",
          "StationCode": "LKD",
          "ArrivalTime": "19:28",
          "DepartureTime": "19:28",
          "HaltMinutes": "&nbsp;",
          "Day": 1,
          "Latitude": 21.981534,
          "Longitude": 73.094759,
          "stopNumberDisplay": "12.6",
          "Distance": "343.7"
        },
        {
          "StationName": "Miyagam Karjan Jn",
          "StationCode": "MYG",
          "ArrivalTime": "19:35",
          "DepartureTime": "19:35",
          "HaltMinutes": "&nbsp;",
          "Day": 1,
          "Latitude": 22.05098,
          "Longitude": 73.12037,
          "stopNumberDisplay": "12.7",
          "Distance": "351.8"
        },
        {
          "StationName": "Kashipura Sarar",
          "StationCode": "KSPR",
          "ArrivalTime": "19:41",
          "DepartureTime": "19:41",
          "HaltMinutes": "&nbsp;",
          "Day": 1,
          "Latitude": 22.116319,
          "Longitude": 73.144475,
          "stopNumberDisplay": "12.8",
          "Distance": "359.5"
        },
        {
          "StationName": "Itola",
          "StationCode": "ITA",
          "ArrivalTime": "19:45",
          "DepartureTime": "19:45",
          "HaltMinutes": "&nbsp;",
          "Day": 1,
          "Latitude": 22.150368,
          "Longitude": 73.15709,
          "stopNumberDisplay": "12.9",
          "Distance": "363.5"
        },
        {
          "StationName": "Varnama",
          "StationCode": "VRM",
          "ArrivalTime": "19:48",
          "DepartureTime": "19:48",
          "HaltMinutes": "&nbsp;",
          "Day": 1,
          "Latitude": 22.18323,
          "Longitude": 73.169239,
          "stopNumberDisplay": "12.10",
          "Distance": "367.4"
        },
        {
          "StationName": "Makarpura",
          "StationCode": "MPR",
          "ArrivalTime": "19:53",
          "DepartureTime": "19:53",
          "HaltMinutes": "&nbsp;",
          "Day": 1,
          "Latitude": 22.233391,
          "Longitude": 73.175825,
          "stopNumberDisplay": "12.11",
          "Distance": "373.0"
        },
        {
          "StationName": "Vishvamitri Jn",
          "StationCode": "VS",
          "ArrivalTime": "19:57",
          "DepartureTime": "19:57",
          "HaltMinutes": "&nbsp;",
          "Day": 1,
          "Latitude": 22.286138,
          "Longitude": 73.179021,
          "stopNumberDisplay": "12.12",
          "Distance": "378.7"
        }
      ],
      "TrainNo": 19217,
      "StationCode": "BH",
      "RouteNo": null,
      "StopNumber": 12,
      "TrainMappingKey": null,
      "StationName": "Bharuch Jn",
      "ArrivalTime": "18:58",
      "DepartureTime": "19:00",
      "HaltMinutes": "2m",
      "Distance": "311.1",
      "HasWifi": true,
      "Day": 1,
      "DataChanged": false,
      "ExpectedPlatformNo": "3",
      "arrivalDelay": "26 Min",
      "departureDelay": "26 Min",
      "Latitude": 21.70339,
      "Longitude": 72.99966,
      "stopNumberDisplay": 12
    },
    {
      "intermediateStations": [
        {
          "StationName": "Vadodara D Cabin",
          "StationCode": "BRGY",
          "ArrivalTime": "20:09",
          "DepartureTime": "20:09",
          "HaltMinutes": "&nbsp;",
          "Day": 1,
          "Latitude": 22.31669,
          "Longitude": 73.17877,
          "stopNumberDisplay": "13.1",
          "Distance": "385.9"
        },
        {
          "StationName": "Vadodara C Cabin",
          "StationCode": "BDA",
          "ArrivalTime": "20:11",
          "DepartureTime": "20:11",
          "HaltMinutes": "&nbsp;",
          "Day": 1,
          "Latitude": 22.35873,
          "Longitude": 73.14933,
          "stopNumberDisplay": "13.2",
          "Distance": "387.9"
        },
        {
          "StationName": "Bajva",
          "StationCode": "BJW",
          "ArrivalTime": "20:12",
          "DepartureTime": "20:12",
          "HaltMinutes": "&nbsp;",
          "Day": 1,
          "Latitude": 22.36667,
          "Longitude": 73.14346,
          "stopNumberDisplay": "13.3",
          "Distance": "388.9"
        },
        {
          "StationName": "Karachiya Yard",
          "StationCode": "KRCA",
          "ArrivalTime": "20:14",
          "DepartureTime": "20:14",
          "HaltMinutes": "&nbsp;",
          "Day": 1,
          "Latitude": 22.3832,
          "Longitude": 73.13139,
          "stopNumberDisplay": "13.4",
          "Distance": "391.2"
        },
        {
          "StationName": "Ranoli",
          "StationCode": "RNO",
          "ArrivalTime": "20:17",
          "DepartureTime": "20:17",
          "HaltMinutes": "&nbsp;",
          "Day": 1,
          "Latitude": 22.40546,
          "Longitude": 73.11267,
          "stopNumberDisplay": "13.5",
          "Distance": "394.3"
        },
        {
          "StationName": "Nandesari",
          "StationCode": "NDR",
          "ArrivalTime": "20:20",
          "DepartureTime": "20:20",
          "HaltMinutes": "&nbsp;",
          "Day": 1,
          "Latitude": 22.4179,
          "Longitude": 73.09505,
          "stopNumberDisplay": "13.6",
          "Distance": "396.6"
        },
        {
          "StationName": "Vasad Jn",
          "StationCode": "VDA",
          "ArrivalTime": "20:25",
          "DepartureTime": "20:25",
          "HaltMinutes": "&nbsp;",
          "Day": 1,
          "Latitude": 22.45293,
          "Longitude": 73.06013,
          "stopNumberDisplay": "13.7",
          "Distance": "401.9"
        },
        {
          "StationName": "Adas Road",
          "StationCode": "ADD",
          "ArrivalTime": "20:30",
          "DepartureTime": "20:30",
          "HaltMinutes": "&nbsp;",
          "Day": 1,
          "Latitude": 22.4865,
          "Longitude": 73.0343,
          "stopNumberDisplay": "13.8",
          "Distance": "406.6"
        },
        {
          "StationName": "Vadod",
          "StationCode": "VXD",
          "ArrivalTime": "20:34",
          "DepartureTime": "20:34",
          "HaltMinutes": "&nbsp;",
          "Day": 1,
          "Latitude": 22.5141,
          "Longitude": 73.0083,
          "stopNumberDisplay": "13.9",
          "Distance": "410.6"
        }
      ],
      "TrainNo": 19217,
      "StationCode": "BRC",
      "RouteNo": null,
      "StopNumber": 13,
      "TrainMappingKey": null,
      "StationName": "Vadodara Jn",
      "ArrivalTime": "20:00",
      "DepartureTime": "20:05",
      "HaltMinutes": "5m",
      "Distance": "381.6",
      "HasWifi": true,
      "Day": 1,
      "DataChanged": false,
      "ExpectedPlatformNo": "3",
      "arrivalDelay": "26 Min",
      "departureDelay": "26 Min",
      "Latitude": 22.3071588,
      "Longitude": 73.1812187,
      "stopNumberDisplay": 13
    },
    {
      "intermediateStations": [
        {
          "StationName": "Anand Chord Cabin",
          "StationCode": "XX-ANNC",
          "ArrivalTime": "20:43",
          "DepartureTime": "20:43",
          "HaltMinutes": "&nbsp;",
          "Day": 1,
          "Latitude": null,
          "Longitude": null,
          "stopNumberDisplay": "14.1",
          "Distance": "418.0"
        },
        {
          "StationName": "Kanjari Boriyavi Jn",
          "StationCode": "KBRV",
          "ArrivalTime": "20:48",
          "DepartureTime": "20:48",
          "HaltMinutes": "&nbsp;",
          "Day": 1,
          "Latitude": 22.615363,
          "Longitude": 72.921763,
          "stopNumberDisplay": "14.2",
          "Distance": "424.9"
        },
        {
          "StationName": "Utarsanda",
          "StationCode": "UTD",
          "ArrivalTime": "20:52",
          "DepartureTime": "20:52",
          "HaltMinutes": "&nbsp;",
          "Day": 1,
          "Latitude": 22.655064,
          "Longitude": 72.889029,
          "stopNumberDisplay": "14.3",
          "Distance": "430.5"
        }
      ],
      "TrainNo": 19217,
      "StationCode": "ANND",
      "RouteNo": null,
      "StopNumber": 14,
      "TrainMappingKey": null,
      "StationName": "Anand Jn",
      "ArrivalTime": "20:40",
      "DepartureTime": "20:42",
      "HaltMinutes": "2m",
      "Distance": "417.1",
      "HasWifi": true,
      "Day": 1,
      "DataChanged": false,
      "ExpectedPlatformNo": "3",
      "arrivalDelay": "29 Min",
      "departureDelay": "29 Min",
      "Latitude": 22.5627,
      "Longitude": 72.968,
      "stopNumberDisplay": 14
    },
    {
      "intermediateStations": [
        {
          "StationName": "Gothaj",
          "StationCode": "GTE",
          "ArrivalTime": "21:05",
          "DepartureTime": "21:05",
          "HaltMinutes": "&nbsp;",
          "Day": 1,
          "Latitude": 22.75906,
          "Longitude": 72.8027,
          "stopNumberDisplay": "15.1",
          "Distance": "445.0"
        }
      ],
      "TrainNo": 19217,
      "StationCode": "ND",
      "RouteNo": null,
      "StopNumber": 15,
      "TrainMappingKey": null,
      "StationName": "Nadiad Jn",
      "ArrivalTime": "20:56",
      "DepartureTime": "20:58",
      "HaltMinutes": "2m",
      "Distance": "435.9",
      "HasWifi": true,
      "Day": 1,
      "DataChanged": false,
      "ExpectedPlatformNo": "2",
      "arrivalDelay": "30 Min",
      "departureDelay": "30 Min",
      "Latitude": 22.69399,
      "Longitude": 72.85674,
      "stopNumberDisplay": 15
    },
    {
      "intermediateStations": [
        {
          "StationName": "Nenpur",
          "StationCode": "NEP",
          "ArrivalTime": "21:18",
          "DepartureTime": "21:18",
          "HaltMinutes": "&nbsp;",
          "Day": 1,
          "Latitude": 22.8449,
          "Longitude": 72.72686,
          "stopNumberDisplay": "16.1",
          "Distance": "457.3"
        },
        {
          "StationName": "Kanij",
          "StationCode": "KANJ",
          "ArrivalTime": "21:22",
          "DepartureTime": "21:22",
          "HaltMinutes": "&nbsp;",
          "Day": 1,
          "Latitude": 22.86617,
          "Longitude": 72.7059,
          "stopNumberDisplay": "16.2",
          "Distance": "460.5"
        },
        {
          "StationName": "Barejadi Nandej",
          "StationCode": "BJD",
          "ArrivalTime": "21:27",
          "DepartureTime": "21:27",
          "HaltMinutes": "&nbsp;",
          "Day": 1,
          "Latitude": 22.89535,
          "Longitude": 72.67702,
          "stopNumberDisplay": "16.3",
          "Distance": "464.9"
        },
        {
          "StationName": "Geratpur",
          "StationCode": "GER",
          "ArrivalTime": "21:31",
          "DepartureTime": "21:31",
          "HaltMinutes": "&nbsp;",
          "Day": 1,
          "Latitude": 22.91738,
          "Longitude": 72.65562,
          "stopNumberDisplay": "16.4",
          "Distance": "468.2"
        },
        {
          "StationName": "Vatva Yard",
          "StationCode": "VY",
          "ArrivalTime": "21:36",
          "DepartureTime": "21:36",
          "HaltMinutes": "&nbsp;",
          "Day": 1,
          "Latitude": null,
          "Longitude": null,
          "stopNumberDisplay": "16.5",
          "Distance": "472.7"
        },
        {
          "StationName": "Vatva",
          "StationCode": "VTA",
          "ArrivalTime": "21:37",
          "DepartureTime": "21:37",
          "HaltMinutes": "&nbsp;",
          "Day": 1,
          "Latitude": 22.95899,
          "Longitude": 72.62958,
          "stopNumberDisplay": "16.6",
          "Distance": "473.6"
        }
      ],
      "TrainNo": 19217,
      "StationCode": "MHD",
      "RouteNo": null,
      "StopNumber": 16,
      "TrainMappingKey": null,
      "StationName": "Mahemdavad Kheda Road",
      "ArrivalTime": "21:12",
      "DepartureTime": "21:14",
      "HaltMinutes": "2m",
      "Distance": "453.5",
      "HasWifi": false,
      "Day": 1,
      "DataChanged": false,
      "ExpectedPlatformNo": "4",
      "arrivalDelay": "31 Min",
      "departureDelay": "31 Min",
      "Latitude": 22.81931,
      "Longitude": 72.75212,
      "stopNumberDisplay": 16
    },
    {
      "intermediateStations": [
        {
          "StationName": "Kankaria South Cabin",
          "StationCode": "KKEC",
          "ArrivalTime": "21:55",
          "DepartureTime": "21:55",
          "HaltMinutes": "&nbsp;",
          "Day": 1,
          "Latitude": null,
          "Longitude": null,
          "stopNumberDisplay": "17.1",
          "Distance": "479.7"
        },
        {
          "StationName": "Kankaria",
          "StationCode": "KKF",
          "ArrivalTime": "21:55",
          "DepartureTime": "21:55",
          "HaltMinutes": "&nbsp;",
          "Day": 1,
          "Latitude": 23.00951,
          "Longitude": 72.60665,
          "stopNumberDisplay": "17.2",
          "Distance": "479.7"
        }
      ],
      "TrainNo": 19217,
      "StationCode": "MAN",
      "RouteNo": null,
      "StopNumber": 17,
      "TrainMappingKey": null,
      "StationName": "Maninagar",
      "ArrivalTime": "21:42",
      "DepartureTime": "21:44",
      "HaltMinutes": "2m",
      "Distance": "478.3",
      "HasWifi": false,
      "Day": 1,
      "DataChanged": false,
      "ExpectedPlatformNo": "1",
      "arrivalDelay": "-",
      "departureDelay": "-",
      "Latitude": 22.99817,
      "Longitude": 72.61176,
      "stopNumberDisplay": 17
    },
    {
      "intermediateStations": [
        {
          "StationName": "Sabarmati A Cabin",
          "StationCode": "SBTA",
          "ArrivalTime": "22:26",
          "DepartureTime": "22:26",
          "HaltMinutes": "&nbsp;",
          "Day": 1,
          "Latitude": 23.057654,
          "Longitude": 72.590142,
          "stopNumberDisplay": "18.1",
          "Distance": "485.4"
        },
        {
          "StationName": "Sabarmati Jn",
          "StationCode": "SBT",
          "ArrivalTime": "22:29",
          "DepartureTime": "22:29",
          "HaltMinutes": "&nbsp;",
          "Day": 1,
          "Latitude": 23.077037,
          "Longitude": 72.588806,
          "stopNumberDisplay": "18.2",
          "Distance": "487.0"
        },
        {
          "StationName": "Sabarmati Yard",
          "StationCode": "SMYD",
          "ArrivalTime": "22:30",
          "DepartureTime": "22:30",
          "HaltMinutes": "&nbsp;",
          "Day": 1,
          "Latitude": 23.07773,
          "Longitude": 72.58555,
          "stopNumberDisplay": "18.3",
          "Distance": "487.4"
        },
        {
          "StationName": "Sabarmati F Cabin",
          "StationCode": "SBTF",
          "ArrivalTime": "22:37",
          "DepartureTime": "22:37",
          "HaltMinutes": "&nbsp;",
          "Day": 1,
          "Latitude": 23.07754,
          "Longitude": 72.54922,
          "stopNumberDisplay": "18.4",
          "Distance": "492.0"
        }
      ],
      "TrainNo": 19217,
      "StationCode": "ADI",
      "RouteNo": null,
      "StopNumber": 18,
      "TrainMappingKey": null,
      "StationName": "Ahmedabad Jn",
      "ArrivalTime": "22:10",
      "DepartureTime": "22:20",
      "HaltMinutes": "10m",
      "Distance": "481.7",
      "HasWifi": true,
      "Day": 1,
      "DataChanged": false,
      "ExpectedPlatformNo": "3",
      "arrivalDelay": "-",
      "departureDelay": "-",
      "Latitude": 23.02513,
      "Longitude": 72.60165,
      "stopNumberDisplay": 18
    },
    {
      "intermediateStations": [
        {
          "StationName": "Chandlodiya Outer Cabin",
          "StationCode": "XX-CLDO",
          "ArrivalTime": "22:40",
          "DepartureTime": "22:40",
          "HaltMinutes": "&nbsp;",
          "Day": 1,
          "Latitude": 23.073011,
          "Longitude": 72.538479,
          "stopNumberDisplay": "19.1",
          "Distance": "493.2"
        },
        {
          "StationName": "Ambli Road",
          "StationCode": "ABD",
          "ArrivalTime": "22:44",
          "DepartureTime": "22:44",
          "HaltMinutes": "&nbsp;",
          "Day": 1,
          "Latitude": 23.0535,
          "Longitude": 72.4935,
          "stopNumberDisplay": "19.2",
          "Distance": "498.3"
        },
        {
          "StationName": "Goraghuma",
          "StationCode": "GGM",
          "ArrivalTime": "22:47",
          "DepartureTime": "22:47",
          "HaltMinutes": "&nbsp;",
          "Day": 1,
          "Latitude": 23.0367,
          "Longitude": 72.4455,
          "stopNumberDisplay": "19.3",
          "Distance": "503.5"
        },
        {
          "StationName": "Sanand",
          "StationCode": "SAU",
          "ArrivalTime": "22:51",
          "DepartureTime": "22:51",
          "HaltMinutes": "&nbsp;",
          "Day": 1,
          "Latitude": 23.0242,
          "Longitude": 72.3852,
          "stopNumberDisplay": "19.4",
          "Distance": "509.9"
        },
        {
          "StationName": "Vasan Iyawa",
          "StationCode": "WSE",
          "ArrivalTime": "22:54",
          "DepartureTime": "22:54",
          "HaltMinutes": "&nbsp;",
          "Day": 1,
          "Latitude": 23.0253,
          "Longitude": 72.3362,
          "stopNumberDisplay": "19.5",
          "Distance": "514.9"
        },
        {
          "StationName": "Chharodi",
          "StationCode": "CE",
          "ArrivalTime": "22:59",
          "DepartureTime": "22:59",
          "HaltMinutes": "&nbsp;",
          "Day": 1,
          "Latitude": 23.0359,
          "Longitude": 72.2827,
          "stopNumberDisplay": "19.6",
          "Distance": "521.5"
        },
        {
          "StationName": "Virochannagar",
          "StationCode": "VCN",
          "ArrivalTime": "23:03",
          "DepartureTime": "23:03",
          "HaltMinutes": "&nbsp;",
          "Day": 1,
          "Latitude": 23.0609,
          "Longitude": 72.2278,
          "stopNumberDisplay": "19.7",
          "Distance": "527.6"
        },
        {
          "StationName": "Jakhvada",
          "StationCode": "JKA",
          "ArrivalTime": "23:07",
          "DepartureTime": "23:07",
          "HaltMinutes": "&nbsp;",
          "Day": 1,
          "Latitude": 23.0841,
          "Longitude": 72.1586,
          "stopNumberDisplay": "19.8",
          "Distance": "534.9"
        },
        {
          "StationName": "Sokali",
          "StationCode": "XSK",
          "ArrivalTime": "23:11",
          "DepartureTime": "23:11",
          "HaltMinutes": "&nbsp;",
          "Day": 1,
          "Latitude": 23.0997,
          "Longitude": 72.102,
          "stopNumberDisplay": "19.9",
          "Distance": "540.7"
        }
      ],
      "TrainNo": 19217,
      "StationCode": "CLDY",
      "RouteNo": null,
      "StopNumber": 19,
      "TrainMappingKey": null,
      "StationName": "Chandlodiya",
      "ArrivalTime": "22:38",
      "DepartureTime": "22:40",
      "HaltMinutes": "2m",
      "Distance": "492.6",
      "HasWifi": false,
      "Day": 1,
      "DataChanged": false,
      "ExpectedPlatformNo": null,
      "arrivalDelay": "-",
      "departureDelay": "-",
      "Latitude": 23.0752,
      "Longitude": 72.5438,
      "stopNumberDisplay": 19
    },
    {
      "intermediateStations": [
        {
          "StationName": "Viramgam D Cabin",
          "StationCode": "VGDC",
          "ArrivalTime": "23:18",
          "DepartureTime": "23:18",
          "HaltMinutes": "&nbsp;",
          "Day": 1,
          "Latitude": 23.13802,
          "Longitude": 72.04279,
          "stopNumberDisplay": "20.1",
          "Distance": "548.3"
        },
        {
          "StationName": "Vani Road",
          "StationCode": "VNRD",
          "ArrivalTime": "23:27",
          "DepartureTime": "23:27",
          "HaltMinutes": "&nbsp;",
          "Day": 1,
          "Latitude": 23.09453,
          "Longitude": 72.00337,
          "stopNumberDisplay": "20.2",
          "Distance": "557.2"
        },
        {
          "StationName": "Khareshwar Road",
          "StationCode": "KHRS",
          "ArrivalTime": "23:31",
          "DepartureTime": "23:31",
          "HaltMinutes": "&nbsp;",
          "Day": 1,
          "Latitude": 23.0629,
          "Longitude": 71.9813,
          "stopNumberDisplay": "20.3",
          "Distance": "561.4"
        },
        {
          "StationName": "Sabli Road",
          "StationCode": "SR",
          "ArrivalTime": "23:35",
          "DepartureTime": "23:35",
          "HaltMinutes": "&nbsp;",
          "Day": 1,
          "Latitude": 23.0374,
          "Longitude": 71.9558,
          "stopNumberDisplay": "20.4",
          "Distance": "565.3"
        },
        {
          "StationName": "Bhaskarpara",
          "StationCode": "BMM",
          "ArrivalTime": "23:42",
          "DepartureTime": "23:42",
          "HaltMinutes": "&nbsp;",
          "Day": 1,
          "Latitude": 22.9914,
          "Longitude": 71.91,
          "stopNumberDisplay": "20.5",
          "Distance": "572.2"
        },
        {
          "StationName": "Lilapur Road",
          "StationCode": "LPR",
          "ArrivalTime": "23:49",
          "DepartureTime": "23:49",
          "HaltMinutes": "&nbsp;",
          "Day": 1,
          "Latitude": 22.9519,
          "Longitude": 71.8608,
          "stopNumberDisplay": "20.6",
          "Distance": "578.9"
        },
        {
          "StationName": "Kesariya Road",
          "StationCode": "KXZ",
          "ArrivalTime": "23:55",
          "DepartureTime": "23:55",
          "HaltMinutes": "&nbsp;",
          "Day": 1,
          "Latitude": 22.911,
          "Longitude": 71.8172,
          "stopNumberDisplay": "20.7",
          "Distance": "585.3"
        }
      ],
      "TrainNo": 19217,
      "StationCode": "VG",
      "RouteNo": null,
      "StopNumber": 20,
      "TrainMappingKey": null,
      "StationName": "Viramgam Jn",
      "ArrivalTime": "23:15",
      "DepartureTime": "23:17",
      "HaltMinutes": "2m",
      "Distance": "546.8",
      "HasWifi": true,
      "Day": 1,
      "DataChanged": false,
      "ExpectedPlatformNo": "1",
      "arrivalDelay": "-",
      "departureDelay": "-",
      "Latitude": 23.1288,
      "Longitude": 72.05298,
      "stopNumberDisplay": 20
    },
    {
      "intermediateStations": [
        {
          "StationName": "Bajrangpura",
          "StationCode": "BRGP",
          "ArrivalTime": "00:11",
          "DepartureTime": "00:11",
          "HaltMinutes": "&nbsp;",
          "Day": 2,
          "Latitude": 22.8397,
          "Longitude": 71.7415,
          "stopNumberDisplay": "21.1",
          "Distance": "596.5"
        },
        {
          "StationName": "Bala Road",
          "StationCode": "BLRD",
          "ArrivalTime": "00:21",
          "DepartureTime": "00:21",
          "HaltMinutes": "&nbsp;",
          "Day": 2,
          "Latitude": 22.7976,
          "Longitude": 71.6971,
          "stopNumberDisplay": "21.2",
          "Distance": "602.9"
        },
        {
          "StationName": "Surendranagar East Cabin",
          "StationCode": "SNEC",
          "ArrivalTime": "00:34",
          "DepartureTime": "00:34",
          "HaltMinutes": "&nbsp;",
          "Day": 2,
          "Latitude": null,
          "Longitude": null,
          "stopNumberDisplay": "21.3",
          "Distance": "610.5"
        },
        {
          "StationName": "Surendranagar R R I",
          "StationCode": "SUNN",
          "ArrivalTime": "00:36",
          "DepartureTime": "00:36",
          "HaltMinutes": "&nbsp;",
          "Day": 2,
          "Latitude": 22.7451,
          "Longitude": 71.63628,
          "stopNumberDisplay": "21.4",
          "Distance": "611.5"
        }
      ],
      "TrainNo": 19217,
      "StationCode": "LTR",
      "RouteNo": null,
      "StopNumber": 21,
      "TrainMappingKey": null,
      "StationName": "Lakhtar",
      "ArrivalTime": "00:01",
      "DepartureTime": "00:02",
      "HaltMinutes": "1m",
      "Distance": "591.3",
      "HasWifi": false,
      "Day": 2,
      "DataChanged": false,
      "ExpectedPlatformNo": null,
      "arrivalDelay": "-",
      "departureDelay": "-",
      "Latitude": 22.8732,
      "Longitude": 71.7767,
      "stopNumberDisplay": 21
    },
    {
      "intermediateStations": [
        {
          "StationName": "Chamaraj",
          "StationCode": "CJR",
          "ArrivalTime": "00:42",
          "DepartureTime": "00:42",
          "HaltMinutes": "&nbsp;",
          "Day": 2,
          "Latitude": 22.73713,
          "Longitude": 71.56129,
          "stopNumberDisplay": "22.1",
          "Distance": "619.3"
        },
        {
          "StationName": "Digsar",
          "StationCode": "DXR",
          "ArrivalTime": "00:44",
          "DepartureTime": "00:44",
          "HaltMinutes": "&nbsp;",
          "Day": 2,
          "Latitude": 22.71315,
          "Longitude": 71.50162,
          "stopNumberDisplay": "22.2",
          "Distance": "626.0"
        }
      ],
      "TrainNo": 19217,
      "StationCode": "SUNR",
      "RouteNo": null,
      "StopNumber": 22,
      "TrainMappingKey": null,
      "StationName": "Surendranagar Jn",
      "ArrivalTime": "00:37",
      "DepartureTime": "00:39",
      "HaltMinutes": "2m",
      "Distance": "612.3",
      "HasWifi": false,
      "Day": 2,
      "DataChanged": false,
      "ExpectedPlatformNo": null,
      "arrivalDelay": "-",
      "departureDelay": "-",
      "Latitude": 22.74458,
      "Longitude": 71.62882,
      "stopNumberDisplay": 22
    },
    {
      "intermediateStations": [
        {
          "StationName": "Ramparda",
          "StationCode": "RA",
          "ArrivalTime": "00:54",
          "DepartureTime": "00:54",
          "HaltMinutes": "&nbsp;",
          "Day": 2,
          "Latitude": 22.63632,
          "Longitude": 71.3563,
          "stopNumberDisplay": "23.1",
          "Distance": "643.2"
        },
        {
          "StationName": "Vagdiya",
          "StationCode": "VD",
          "ArrivalTime": "00:59",
          "DepartureTime": "00:59",
          "HaltMinutes": "&nbsp;",
          "Day": 2,
          "Latitude": 22.61632,
          "Longitude": 71.29765,
          "stopNumberDisplay": "23.2",
          "Distance": "650.2"
        }
      ],
      "TrainNo": 19217,
      "StationCode": "MOL",
      "RouteNo": null,
      "StopNumber": 23,
      "TrainMappingKey": null,
      "StationName": "Muli Road",
      "ArrivalTime": "00:47",
      "DepartureTime": "00:48",
      "HaltMinutes": "1m",
      "Distance": "634.0",
      "HasWifi": false,
      "Day": 2,
      "DataChanged": false,
      "ExpectedPlatformNo": null,
      "arrivalDelay": "-",
      "departureDelay": "-",
      "Latitude": 22.67615,
      "Longitude": 71.43483,
      "stopNumberDisplay": 23
    },
    {
      "intermediateStations": [
        {
          "StationName": "Lakhamanchi",
          "StationCode": "LMC",
          "ArrivalTime": "01:14",
          "DepartureTime": "01:14",
          "HaltMinutes": "&nbsp;",
          "Day": 2,
          "Latitude": 22.57191,
          "Longitude": 71.14758,
          "stopNumberDisplay": "24.1",
          "Distance": "666.0"
        },
        {
          "StationName": "Daladi",
          "StationCode": "DL",
          "ArrivalTime": "01:21",
          "DepartureTime": "01:21",
          "HaltMinutes": "&nbsp;",
          "Day": 2,
          "Latitude": 22.58571,
          "Longitude": 71.07266,
          "stopNumberDisplay": "24.2",
          "Distance": "674.4"
        },
        {
          "StationName": "Lunseriya",
          "StationCode": "LXR",
          "ArrivalTime": "01:24",
          "DepartureTime": "01:24",
          "HaltMinutes": "&nbsp;",
          "Day": 2,
          "Latitude": 22.58476,
          "Longitude": 71.04451,
          "stopNumberDisplay": "24.3",
          "Distance": "677.9"
        }
      ],
      "TrainNo": 19217,
      "StationCode": "THAN",
      "RouteNo": null,
      "StopNumber": 24,
      "TrainMappingKey": null,
      "StationName": "Than",
      "ArrivalTime": "01:06",
      "DepartureTime": "01:08",
      "HaltMinutes": "2m",
      "Distance": "660.0",
      "HasWifi": false,
      "Day": 2,
      "DataChanged": false,
      "ExpectedPlatformNo": null,
      "arrivalDelay": "-",
      "departureDelay": "-",
      "Latitude": 22.578569,
      "Longitude": 71.206216,
      "stopNumberDisplay": 24
    },
    {
      "intermediateStations": [
        {
          "StationName": "Wankaner Bypass Cabin",
          "StationCode": "XX-WKRB",
          "ArrivalTime": "01:35",
          "DepartureTime": "01:35",
          "HaltMinutes": "&nbsp;",
          "Day": 2,
          "Latitude": 22.621146,
          "Longitude": 70.955868,
          "stopNumberDisplay": "25.1",
          "Distance": "687.5"
        },
        {
          "StationName": "Wankaner City",
          "StationCode": "WKRC",
          "ArrivalTime": "01:36",
          "DepartureTime": "01:36",
          "HaltMinutes": "&nbsp;",
          "Day": 2,
          "Latitude": 22.61213,
          "Longitude": 70.95654,
          "stopNumberDisplay": "25.2",
          "Distance": "688.5"
        },
        {
          "StationName": "Amarsar",
          "StationCode": "AXA",
          "ArrivalTime": "01:42",
          "DepartureTime": "01:42",
          "HaltMinutes": "&nbsp;",
          "Day": 2,
          "Latitude": 22.58602,
          "Longitude": 70.91725,
          "stopNumberDisplay": "25.3",
          "Distance": "693.8"
        },
        {
          "StationName": "Sindhawadar",
          "StationCode": "SDD",
          "ArrivalTime": "01:48",
          "DepartureTime": "01:48",
          "HaltMinutes": "&nbsp;",
          "Day": 2,
          "Latitude": 22.54729,
          "Longitude": 70.89441,
          "stopNumberDisplay": "25.4",
          "Distance": "699.0"
        },
        {
          "StationName": "Kanakot",
          "StationCode": "KNKT",
          "ArrivalTime": "01:55",
          "DepartureTime": "01:55",
          "HaltMinutes": "&nbsp;",
          "Day": 2,
          "Latitude": 22.48839,
          "Longitude": 70.87668,
          "stopNumberDisplay": "25.5",
          "Distance": "705.8"
        },
        {
          "StationName": "Khorana",
          "StationCode": "KHC",
          "ArrivalTime": "02:05",
          "DepartureTime": "02:05",
          "HaltMinutes": "&nbsp;",
          "Day": 2,
          "Latitude": 22.39353,
          "Longitude": 70.8306,
          "stopNumberDisplay": "25.6",
          "Distance": "714.5"
        },
        {
          "StationName": "Bileshwar",
          "StationCode": "BLWR",
          "ArrivalTime": "02:09",
          "DepartureTime": "02:09",
          "HaltMinutes": "&nbsp;",
          "Day": 2,
          "Latitude": 22.38294,
          "Longitude": 70.83076,
          "stopNumberDisplay": "25.7",
          "Distance": "718.7"
        }
      ],
      "TrainNo": 19217,
      "StationCode": "WKR",
      "RouteNo": null,
      "StopNumber": 25,
      "TrainMappingKey": null,
      "StationName": "Wankaner Jn",
      "ArrivalTime": "01:32",
      "DepartureTime": "01:34",
      "HaltMinutes": "2m",
      "Distance": "686.4",
      "HasWifi": false,
      "Day": 2,
      "DataChanged": false,
      "ExpectedPlatformNo": "3",
      "arrivalDelay": "-",
      "departureDelay": "-",
      "Latitude": 22.62232,
      "Longitude": 70.96322,
      "stopNumberDisplay": 25
    },
    {
      "intermediateStations": [],
      "TrainNo": 19217,
      "StationCode": "RJT",
      "RouteNo": null,
      "StopNumber": 26,
      "TrainMappingKey": null,
      "StationName": "Rajkot Jn",
      "ArrivalTime": "02:20",
      "DepartureTime": "02:40",
      "HaltMinutes": "20m",
      "Distance": "728.4",
      "HasWifi": true,
      "Day": 2,
      "DataChanged": false,
      "ExpectedPlatformNo": "1",
      "arrivalDelay": "-",
      "departureDelay": "-",
      "Latitude": 22.31179,
      "Longitude": 70.80312,
      "stopNumberDisplay": 26
    },
    {
      "intermediateStations": [
        {
          "StationName": "Kothariya",
          "StationCode": "RKY",
          "ArrivalTime": "03:09",
          "DepartureTime": "03:09",
          "HaltMinutes": "&nbsp;",
          "Day": 2,
          "Latitude": 22.176419,
          "Longitude": 70.814146,
          "stopNumberDisplay": "27.1",
          "Distance": "741.5"
        },
        {
          "StationName": "Ribada",
          "StationCode": "RBR",
          "ArrivalTime": "03:17",
          "DepartureTime": "03:17",
          "HaltMinutes": "&nbsp;",
          "Day": 2,
          "Latitude": 22.125796,
          "Longitude": 70.801557,
          "stopNumberDisplay": "27.2",
          "Distance": "752.2"
        },
        {
          "StationName": "Semla",
          "StationCode": "SE",
          "ArrivalTime": "03:25",
          "DepartureTime": "03:25",
          "HaltMinutes": "&nbsp;",
          "Day": 2,
          "Latitude": 22.043937,
          "Longitude": 70.793952,
          "stopNumberDisplay": "27.3",
          "Distance": "761.4"
        }
      ],
      "TrainNo": 19217,
      "StationCode": "BKNG",
      "RouteNo": null,
      "StopNumber": 27,
      "TrainMappingKey": null,
      "StationName": "Bhakti Nagar",
      "ArrivalTime": "03:01",
      "DepartureTime": "03:03",
      "HaltMinutes": "2m",
      "Distance": "734.3",
      "HasWifi": false,
      "Day": 2,
      "DataChanged": false,
      "ExpectedPlatformNo": "1",
      "arrivalDelay": "-",
      "departureDelay": "-",
      "Latitude": 22.281825,
      "Longitude": 70.79271,
      "stopNumberDisplay": 27
    },
    {
      "intermediateStations": [
        {
          "StationName": "Gomta",
          "StationCode": "GTT",
          "ArrivalTime": "03:43",
          "DepartureTime": "03:43",
          "HaltMinutes": "&nbsp;",
          "Day": 2,
          "Latitude": 21.873981,
          "Longitude": 70.729985,
          "stopNumberDisplay": "28.1",
          "Distance": "782.5"
        }
      ],
      "TrainNo": 19217,
      "StationCode": "GDL",
      "RouteNo": null,
      "StopNumber": 28,
      "TrainMappingKey": null,
      "StationName": "Gondal",
      "ArrivalTime": "03:31",
      "DepartureTime": "03:32",
      "HaltMinutes": "1m",
      "Distance": "769.5",
      "HasWifi": false,
      "Day": 2,
      "DataChanged": false,
      "ExpectedPlatformNo": "1",
      "arrivalDelay": "-",
      "departureDelay": "-",
      "Latitude": 21.972333,
      "Longitude": 70.795288,
      "stopNumberDisplay": 28
    },
    {
      "intermediateStations": [
        {
          "StationName": "Kagwad",
          "StationCode": "KGWD",
          "ArrivalTime": "03:50",
          "DepartureTime": "03:50",
          "HaltMinutes": "&nbsp;",
          "Day": 2,
          "Latitude": 21.817613,
          "Longitude": 70.681378,
          "stopNumberDisplay": "29.1",
          "Distance": "790.5"
        }
      ],
      "TrainNo": 19217,
      "StationCode": "VRR",
      "RouteNo": null,
      "StopNumber": 29,
      "TrainMappingKey": null,
      "StationName": "Virpur",
      "ArrivalTime": "03:46",
      "DepartureTime": "03:47",
      "HaltMinutes": "1m",
      "Distance": "786.1",
      "HasWifi": false,
      "Day": 2,
      "DataChanged": false,
      "ExpectedPlatformNo": "1",
      "arrivalDelay": "-",
      "departureDelay": "-",
      "Latitude": 21.848873,
      "Longitude": 70.707918,
      "stopNumberDisplay": 29
    },
    {
      "intermediateStations": [],
      "TrainNo": 19217,
      "StationCode": "NUD",
      "RouteNo": null,
      "StopNumber": 30,
      "TrainMappingKey": null,
      "StationName": "Navagadh",
      "ArrivalTime": "03:57",
      "DepartureTime": "03:58",
      "HaltMinutes": "1m",
      "Distance": "799.7",
      "HasWifi": false,
      "Day": 2,
      "DataChanged": false,
      "ExpectedPlatformNo": null,
      "arrivalDelay": null,
      "departureDelay": null,
      "Latitude": 21.764213,
      "Longitude": 70.61643,
      "stopNumberDisplay": 30
    },
    {
      "intermediateStations": [
        {
          "StationName": "Choki Sorath",
          "StationCode": "CKE",
          "ArrivalTime": "04:20",
          "DepartureTime": "04:20",
          "HaltMinutes": "&nbsp;",
          "Day": 2,
          "Latitude": 21.66057,
          "Longitude": 70.52692,
          "stopNumberDisplay": "31.1",
          "Distance": "814.4"
        },
        {
          "StationName": "Vadal",
          "StationCode": "VAL",
          "ArrivalTime": "04:27",
          "DepartureTime": "04:27",
          "HaltMinutes": "&nbsp;",
          "Day": 2,
          "Latitude": 21.61085,
          "Longitude": 70.49251,
          "stopNumberDisplay": "31.2",
          "Distance": "821.4"
        }
      ],
      "TrainNo": 19217,
      "StationCode": "JLR",
      "RouteNo": null,
      "StopNumber": 31,
      "TrainMappingKey": null,
      "StationName": "Jetalsar Jn",
      "ArrivalTime": "04:05",
      "DepartureTime": "04:10",
      "HaltMinutes": "5m",
      "Distance": "805.6",
      "HasWifi": false,
      "Day": 2,
      "DataChanged": false,
      "ExpectedPlatformNo": "1",
      "arrivalDelay": "-",
      "departureDelay": "-",
      "Latitude": 21.72919,
      "Longitude": 70.57411,
      "stopNumberDisplay": 31
    },
    {
      "intermediateStations": [
        {
          "StationName": "Shapur",
          "StationCode": "SHH",
          "ArrivalTime": "04:49",
          "DepartureTime": "04:49",
          "HaltMinutes": "&nbsp;",
          "Day": 2,
          "Latitude": 21.47894,
          "Longitude": 70.37131,
          "stopNumberDisplay": "32.1",
          "Distance": "842.7"
        },
        {
          "StationName": "Bandhnath",
          "StationCode": "BNTH",
          "ArrivalTime": "04:53",
          "DepartureTime": "04:53",
          "HaltMinutes": "&nbsp;",
          "Day": 2,
          "Latitude": 21.43692,
          "Longitude": 70.3583,
          "stopNumberDisplay": "32.2",
          "Distance": "847.8"
        },
        {
          "StationName": "Lushala",
          "StationCode": "LAL",
          "ArrivalTime": "04:58",
          "DepartureTime": "04:58",
          "HaltMinutes": "&nbsp;",
          "Day": 2,
          "Latitude": 21.39109,
          "Longitude": 70.32565,
          "stopNumberDisplay": "32.3",
          "Distance": "853.6"
        },
        {
          "StationName": "Badodar",
          "StationCode": "BDDR",
          "ArrivalTime": "05:03",
          "DepartureTime": "05:03",
          "HaltMinutes": "&nbsp;",
          "Day": 2,
          "Latitude": 21.34902,
          "Longitude": 70.28365,
          "stopNumberDisplay": "32.4",
          "Distance": "860.2"
        }
      ],
      "TrainNo": 19217,
      "StationCode": "JND",
      "RouteNo": null,
      "StopNumber": 32,
      "TrainMappingKey": null,
      "StationName": "Junagadh Jn",
      "ArrivalTime": "04:38",
      "DepartureTime": "04:40",
      "HaltMinutes": "2m",
      "Distance": "831.5",
      "HasWifi": false,
      "Day": 2,
      "DataChanged": false,
      "ExpectedPlatformNo": "2",
      "arrivalDelay": "-",
      "departureDelay": "-",
      "Latitude": 21.530229,
      "Longitude": 70.457553,
      "stopNumberDisplay": 32
    },
    {
      "intermediateStations": [],
      "TrainNo": 19217,
      "StationCode": "KSD",
      "RouteNo": null,
      "StopNumber": 33,
      "TrainMappingKey": null,
      "StationName": "Keshod",
      "ArrivalTime": "05:09",
      "DepartureTime": "05:10",
      "HaltMinutes": "1m",
      "Distance": "867.0",
      "HasWifi": false,
      "Day": 2,
      "DataChanged": false,
      "ExpectedPlatformNo": "1",
      "arrivalDelay": "-",
      "departureDelay": "-",
      "Latitude": 21.297508,
      "Longitude": 70.251883,
      "stopNumberDisplay": 33
    },
    {
      "intermediateStations": [
        {
          "StationName": "Chorvad Road",
          "StationCode": "CVR",
          "ArrivalTime": "06:15",
          "DepartureTime": "06:15",
          "HaltMinutes": "&nbsp;",
          "Day": 2,
          "Latitude": 21.05372,
          "Longitude": 70.29073,
          "stopNumberDisplay": "34.1",
          "Distance": "895.2"
        },
        {
          "StationName": "Adari Road",
          "StationCode": "ADE",
          "ArrivalTime": "06:41",
          "DepartureTime": "06:41",
          "HaltMinutes": "&nbsp;",
          "Day": 2,
          "Latitude": 20.98769,
          "Longitude": 70.33002,
          "stopNumberDisplay": "34.2",
          "Distance": "904.0"
        }
      ],
      "TrainNo": 19217,
      "StationCode": "MLHA",
      "RouteNo": null,
      "StopNumber": 34,
      "TrainMappingKey": null,
      "StationName": "Maliya Hatina",
      "ArrivalTime": "05:37",
      "DepartureTime": "05:38",
      "HaltMinutes": "1m",
      "Distance": "883.1",
      "HasWifi": false,
      "Day": 2,
      "DataChanged": false,
      "ExpectedPlatformNo": null,
      "arrivalDelay": null,
      "departureDelay": null,
      "Latitude": 21.15986,
      "Longitude": 70.299445,
      "stopNumberDisplay": 34
    },
    {
      "intermediateStations": [],
      "TrainNo": 19217,
      "StationCode": "VRL",
      "RouteNo": null,
      "StopNumber": 35,
      "TrainMappingKey": null,
      "StationName": "Veraval Jn",
      "ArrivalTime": "07:10",
      "DepartureTime": "",
      "HaltMinutes": "",
      "Distance": "913.4",
      "HasWifi": true,
      "Day": 2,
      "DataChanged": false,
      "ExpectedPlatformNo": "1",
      "arrivalDelay": "-",
      "departureDelay": "-",
      "Latitude": 20.911356,
      "Longitude": 70.371248,
      "stopNumberDisplay": 35
    }
  ],
  "Source": "Mumbai Bandra Terminus",
  "Destination": "Veraval",
  "SourceCode": "BDTS",
  "DestinationCode": "VRL",
  "DaysOfRun": {
    "Sun": true,
    "Mon": true,
    "Tue": true,
    "Wed": true,
    "Thu": true,
    "Fri": true,
    "Sat": true
  },
  "FooterText": null,
  "TrainType": null,
  "IsUnreserved": false,
  "Rating": 4,
  "FoodRating": 3.6,
  "PunctualityRating": 4.2,
  "CleanlinessRating": 4.3,
  "RatingCount": 1277,
  "TotalDuration": "17:30",
  "FromCity": "MUMBAI",
  "ToCity": "Veraval",
  "CacheTime": "2024-03-09T14:27:18.4275498+05:30",
  "HasPantry": false,
  "ErrorMsg": null
}