{
  "TrainName": "KRMI LTT AC EXP",
  "TrainNo": 22116,
  "TrainNumberString": null,
  "CoachPosition": "L EOG A1 A2 A3 H1 PC B1 B2 B3 B4 B5 B6 B7 B8 B9 B10 B11 B12 B13 B14 B15 EOG",
  "Classes": [
    "1A",
    "2A",
    "3A"
  ],
  "Schedule": [
    {
      "intermediateStations": [
        {
          "StationName": "Thivim",
          "StationCode": "THVM",
          "ArrivalTime": "14:18",
          "DepartureTime": "14:18",
          "HaltMinutes": "&nbsp;",
          "Day": 1,
          "Latitude": null,
          "Longitude": null,
          "stopNumberDisplay": "1.1",
          "Distance": "17.4"
        },
        {
          "StationName": "Pernem",
          "StationCode": "PERN",
          "ArrivalTime": "14:29",
          "DepartureTime": "14:29",
          "HaltMinutes": "&nbsp;",
          "Day": 1,
          "Latitude": 15.7091,
          "Longitude": 73.81685,
          "stopNumberDisplay": "1.2",
          "Distance": "28.4"
        },
        {
          "StationName": "Madure",
          "StationCode": "MADR",
          "ArrivalTime": "14:40",
          "DepartureTime": "14:40",
          "HaltMinutes": "&nbsp;",
          "Day": 1,
          "Latitude": 15.80168,
          "Longitude": 73.81364,
          "stopNumberDisplay": "1.3",
          "Distance": "39.0"
        },
        {
          "StationName": "Sawantwadi Road",
          "StationCode": "SWV",
          "ArrivalTime": "14:48",
          "DepartureTime": "14:48",
          "HaltMinutes": "&nbsp;",
          "Day": 1,
          "Latitude": 15.86661,
          "Longitude": 73.78514,
          "stopNumberDisplay": "1.4",
          "Distance": "46.9"
        },
        {
          "StationName": "Zarap",
          "StationCode": "ZARP",
          "ArrivalTime": "14:59",
          "DepartureTime": "14:59",
          "HaltMinutes": "&nbsp;",
          "Day": 1,
          "Latitude": 15.94754,
          "Longitude": 73.73403,
          "stopNumberDisplay": "1.5",
          "Distance": "57.4"
        }
      ],
      "TrainNo": 22116,
      "StationCode": "KRMI",
      "RouteNo": null,
      "StopNumber": 1,
      "TrainMappingKey": null,
      "StationName": "Karmali",
      "ArrivalTime": "",
      "DepartureTime": "14:00",
      "HaltMinutes": "",
      "Distance": "0.0",
      "HasWifi": false,
      "Day": 1,
      "DataChanged": false,
      "ExpectedPlatformNo": "2",
      "arrivalDelay": "17 Min",
      "departureDelay": "17 Min",
      "Latitude": null,
      "Longitude": null,
      "stopNumberDisplay": 1
    },
    {
      "intermediateStations": [
        {
          "StationName": "Sindhudurg",
          "StationCode": "SNDD",
          "ArrivalTime": "15:20",
          "DepartureTime": "15:20",
          "HaltMinutes": "&nbsp;",
          "Day": 1,
          "Latitude": 16.11208,
          "Longitude": 73.67964,
          "stopNumberDisplay": "2.1",
          "Distance": "78.3"
        }
      ],
      "TrainNo": 22116,
      "StationCode": "KUDL",
      "RouteNo": null,
      "StopNumber": 2,
      "TrainMappingKey": null,
      "StationName": "Kudal",
      "ArrivalTime": "15:10",
      "DepartureTime": "15:12",
      "HaltMinutes": "2m",
      "Distance": "67.7",
      "HasWifi": false,
      "Day": 1,
      "DataChanged": false,
      "ExpectedPlatformNo": "1",
      "arrivalDelay": "23 Min",
      "departureDelay": "23 Min",
      "Latitude": 16.01669,
      "Longitude": 73.67762,
      "stopNumberDisplay": 2
    },
    {
      "intermediateStations": [
        {
          "StationName": "Nandgaon Road",
          "StationCode": "NAN",
          "ArrivalTime": "15:49",
          "DepartureTime": "15:49",
          "HaltMinutes": "&nbsp;",
          "Day": 1,
          "Latitude": 16.3875,
          "Longitude": 73.73059,
          "stopNumberDisplay": "3.1",
          "Distance": "111.4"
        },
        {
          "StationName": "Achirne",
          "StationCode": "ACRN",
          "ArrivalTime": "15:55",
          "DepartureTime": "15:55",
          "HaltMinutes": "&nbsp;",
          "Day": 1,
          "Latitude": null,
          "Longitude": null,
          "stopNumberDisplay": "3.2",
          "Distance": "118.2"
        },
        {
          "StationName": "Vaibhavwadi Road",
          "StationCode": "VBW",
          "ArrivalTime": "16:02",
          "DepartureTime": "16:02",
          "HaltMinutes": "&nbsp;",
          "Day": 1,
          "Latitude": 16.51164,
          "Longitude": 73.70759,
          "stopNumberDisplay": "3.3",
          "Distance": "127.1"
        },
        {
          "StationName": "Kharepatan Road",
          "StationCode": "KRPN",
          "ArrivalTime": "16:09",
          "DepartureTime": "16:09",
          "HaltMinutes": "&nbsp;",
          "Day": 1,
          "Latitude": null,
          "Longitude": null,
          "stopNumberDisplay": "3.4",
          "Distance": "135.2"
        },
        {
          "StationName": "Rajapur Road",
          "StationCode": "RAJP",
          "ArrivalTime": "16:16",
          "DepartureTime": "16:16",
          "HaltMinutes": "&nbsp;",
          "Day": 1,
          "Latitude": 16.63544,
          "Longitude": 73.62683,
          "stopNumberDisplay": "3.5",
          "Distance": "143.7"
        },
        {
          "StationName": "Saundal",
          "StationCode": "SUAL",
          "ArrivalTime": "16:22",
          "DepartureTime": "16:22",
          "HaltMinutes": "&nbsp;",
          "Day": 1,
          "Latitude": null,
          "Longitude": null,
          "stopNumberDisplay": "3.6",
          "Distance": "151.0"
        },
        {
          "StationName": "Vilavade",
          "StationCode": "VID",
          "ArrivalTime": "16:30",
          "DepartureTime": "16:30",
          "HaltMinutes": "&nbsp;",
          "Day": 1,
          "Latitude": 16.78543,
          "Longitude": 73.61917,
          "stopNumberDisplay": "3.7",
          "Distance": "160.4"
        },
        {
          "StationName": "Veravali",
          "StationCode": "VRLI",
          "ArrivalTime": "16:35",
          "DepartureTime": "16:35",
          "HaltMinutes": "&nbsp;",
          "Day": 1,
          "Latitude": 16.83533,
          "Longitude": 73.61508,
          "stopNumberDisplay": "3.8",
          "Distance": "165.9"
        },
        {
          "StationName": "Adavali",
          "StationCode": "ADVI",
          "ArrivalTime": "16:43",
          "DepartureTime": "16:43",
          "HaltMinutes": "&nbsp;",
          "Day": 1,
          "Latitude": 16.92175,
          "Longitude": 73.59274,
          "stopNumberDisplay": "3.9",
          "Distance": "176.0"
        },
        {
          "StationName": "Nivasar",
          "StationCode": "NIV",
          "ArrivalTime": "16:57",
          "DepartureTime": "16:57",
          "HaltMinutes": "&nbsp;",
          "Day": 1,
          "Latitude": 16.94679,
          "Longitude": 73.4552,
          "stopNumberDisplay": "3.10",
          "Distance": "192.1"
        }
      ],
      "TrainNo": 22116,
      "StationCode": "KKW",
      "RouteNo": null,
      "StopNumber": 3,
      "TrainMappingKey": null,
      "StationName": "Kankavali",
      "ArrivalTime": "15:34",
      "DepartureTime": "15:36",
      "HaltMinutes": "2m",
      "Distance": "96.0",
      "HasWifi": false,
      "Day": 1,
      "DataChanged": false,
      "ExpectedPlatformNo": "1",
      "arrivalDelay": "46 Min",
      "departureDelay": "46 Min",
      "Latitude": 16.25929,
      "Longitude": 73.7202,
      "stopNumberDisplay": 3
    },
    {
      "intermediateStations": [
        {
          "StationName": "Bhoke",
          "StationCode": "BOKE",
          "ArrivalTime": "17:21",
          "DepartureTime": "17:21",
          "HaltMinutes": "&nbsp;",
          "Day": 1,
          "Latitude": 17.04886,
          "Longitude": 73.38103,
          "stopNumberDisplay": "4.1",
          "Distance": "214.1"
        },
        {
          "StationName": "Ukshi",
          "StationCode": "UKC",
          "ArrivalTime": "17:32",
          "DepartureTime": "17:32",
          "HaltMinutes": "&nbsp;",
          "Day": 1,
          "Latitude": 17.13046,
          "Longitude": 73.45683,
          "stopNumberDisplay": "4.2",
          "Distance": "226.6"
        },
        {
          "StationName": "Sangameshwar Road",
          "StationCode": "SGR",
          "ArrivalTime": "17:44",
          "DepartureTime": "17:44",
          "HaltMinutes": "&nbsp;",
          "Day": 1,
          "Latitude": 17.20172,
          "Longitude": 73.5461,
          "stopNumberDisplay": "4.3",
          "Distance": "240.3"
        },
        {
          "StationName": "Kadavai",
          "StationCode": "KDVI",
          "ArrivalTime": "17:51",
          "DepartureTime": "17:51",
          "HaltMinutes": "&nbsp;",
          "Day": 1,
          "Latitude": null,
          "Longitude": null,
          "stopNumberDisplay": "4.4",
          "Distance": "247.7"
        },
        {
          "StationName": "Aravali Road",
          "StationCode": "AVRD",
          "ArrivalTime": "18:02",
          "DepartureTime": "18:02",
          "HaltMinutes": "&nbsp;",
          "Day": 1,
          "Latitude": 17.37414,
          "Longitude": 73.5299,
          "stopNumberDisplay": "4.5",
          "Distance": "260.6"
        },
        {
          "StationName": "Savarda",
          "StationCode": "SVX",
          "ArrivalTime": "18:06",
          "DepartureTime": "18:06",
          "HaltMinutes": "&nbsp;",
          "Day": 1,
          "Latitude": 17.40445,
          "Longitude": 73.51499,
          "stopNumberDisplay": "4.6",
          "Distance": "264.3"
        },
        {
          "StationName": "Kamathe",
          "StationCode": "KMAH",
          "ArrivalTime": "18:13",
          "DepartureTime": "18:13",
          "HaltMinutes": "&nbsp;",
          "Day": 1,
          "Latitude": 17.47766,
          "Longitude": 73.51608,
          "stopNumberDisplay": "4.7",
          "Distance": "273.1"
        }
      ],
      "TrainNo": 22116,
      "StationCode": "RN",
      "RouteNo": null,
      "StopNumber": 4,
      "TrainMappingKey": null,
      "StationName": "Ratnagiri",
      "ArrivalTime": "17:10",
      "DepartureTime": "17:15",
      "HaltMinutes": "5m",
      "Distance": "207.4",
      "HasWifi": false,
      "Day": 1,
      "DataChanged": false,
      "ExpectedPlatformNo": "1",
      "arrivalDelay": "48 Min",
      "departureDelay": "48 Min",
      "Latitude": 17.00311,
      "Longitude": 73.35727,
      "stopNumberDisplay": 4
    },
    {
      "intermediateStations": [
        {
          "StationName": "Anjani",
          "StationCode": "ANO",
          "ArrivalTime": "18:40",
          "DepartureTime": "18:40",
          "HaltMinutes": "&nbsp;",
          "Day": 1,
          "Latitude": 17.62095,
          "Longitude": 73.39987,
          "stopNumberDisplay": "5.1",
          "Distance": "299.0"
        },
        {
          "StationName": "Khed",
          "StationCode": "KHED",
          "ArrivalTime": "18:53",
          "DepartureTime": "18:53",
          "HaltMinutes": "&nbsp;",
          "Day": 1,
          "Latitude": 17.7123,
          "Longitude": 73.4109,
          "stopNumberDisplay": "5.2",
          "Distance": "312.4"
        },
        {
          "StationName": "Kalambani Budruk",
          "StationCode": "KLBN",
          "ArrivalTime": "19:01",
          "DepartureTime": "19:01",
          "HaltMinutes": "&nbsp;",
          "Day": 1,
          "Latitude": null,
          "Longitude": null,
          "stopNumberDisplay": "5.3",
          "Distance": "320.3"
        },
        {
          "StationName": "Diwan Khavati",
          "StationCode": "DWV",
          "ArrivalTime": "19:11",
          "DepartureTime": "19:11",
          "HaltMinutes": "&nbsp;",
          "Day": 1,
          "Latitude": 17.855,
          "Longitude": 73.41862,
          "stopNumberDisplay": "5.4",
          "Distance": "330.0"
        },
        {
          "StationName": "Vinhere",
          "StationCode": "VINH",
          "ArrivalTime": "19:21",
          "DepartureTime": "19:21",
          "HaltMinutes": "&nbsp;",
          "Day": 1,
          "Latitude": 17.93231,
          "Longitude": 73.38279,
          "stopNumberDisplay": "5.5",
          "Distance": "340.0"
        },
        {
          "StationName": "Karanjadi",
          "StationCode": "KFD",
          "ArrivalTime": "19:29",
          "DepartureTime": "19:29",
          "HaltMinutes": "&nbsp;",
          "Day": 1,
          "Latitude": 17.9984,
          "Longitude": 73.40452,
          "stopNumberDisplay": "5.6",
          "Distance": "348.0"
        },
        {
          "StationName": "Sape Wamne",
          "StationCode": "SAPE",
          "ArrivalTime": "19:37",
          "DepartureTime": "19:37",
          "HaltMinutes": "&nbsp;",
          "Day": 1,
          "Latitude": 18.06259,
          "Longitude": 73.37063,
          "stopNumberDisplay": "5.7",
          "Distance": "356.3"
        },
        {
          "StationName": "Veer",
          "StationCode": "VEER",
          "ArrivalTime": "19:44",
          "DepartureTime": "19:44",
          "HaltMinutes": "&nbsp;",
          "Day": 1,
          "Latitude": 18.11395,
          "Longitude": 73.33026,
          "stopNumberDisplay": "5.8",
          "Distance": "363.8"
        },
        {
          "StationName": "Goregaon Road",
          "StationCode": "GNO",
          "ArrivalTime": "19:50",
          "DepartureTime": "19:50",
          "HaltMinutes": "&nbsp;",
          "Day": 1,
          "Latitude": 18.16297,
          "Longitude": 73.30296,
          "stopNumberDisplay": "5.9",
          "Distance": "370.0"
        },
        {
          "StationName": "Mangaon",
          "StationCode": "MNI",
          "ArrivalTime": "20:01",
          "DepartureTime": "20:01",
          "HaltMinutes": "&nbsp;",
          "Day": 1,
          "Latitude": 18.24744,
          "Longitude": 73.27598,
          "stopNumberDisplay": "5.10",
          "Distance": "380.4"
        },
        {
          "StationName": "Indapur",
          "StationCode": "INP",
          "ArrivalTime": "20:07",
          "DepartureTime": "20:07",
          "HaltMinutes": "&nbsp;",
          "Day": 1,
          "Latitude": 18.29773,
          "Longitude": 73.24503,
          "stopNumberDisplay": "5.11",
          "Distance": "387.0"
        },
        {
          "StationName": "Kolad",
          "StationCode": "KOL",
          "ArrivalTime": "20:18",
          "DepartureTime": "20:18",
          "HaltMinutes": "&nbsp;",
          "Day": 1,
          "Latitude": 18.39179,
          "Longitude": 73.22381,
          "stopNumberDisplay": "5.12",
          "Distance": "397.8"
        },
        {
          "StationName": "Roha",
          "StationCode": "ROHA",
          "ArrivalTime": "20:31",
          "DepartureTime": "20:31",
          "HaltMinutes": "&nbsp;",
          "Day": 1,
          "Latitude": 18.44663,
          "Longitude": 73.12405,
          "stopNumberDisplay": "5.13",
          "Distance": "410.9"
        },
        {
          "StationName": "Nidi",
          "StationCode": "NIDI",
          "ArrivalTime": "20:35",
          "DepartureTime": "20:35",
          "HaltMinutes": "&nbsp;",
          "Day": 1,
          "Latitude": 18.47248,
          "Longitude": 73.10693,
          "stopNumberDisplay": "5.14",
          "Distance": "414.8"
        },
        {
          "StationName": "Nagothane",
          "StationCode": "NGTN",
          "ArrivalTime": "20:44",
          "DepartureTime": "20:44",
          "HaltMinutes": "&nbsp;",
          "Day": 1,
          "Latitude": 18.54004,
          "Longitude": 73.141,
          "stopNumberDisplay": "5.15",
          "Distance": "423.8"
        },
        {
          "StationName": "Kasu",
          "StationCode": "KASU",
          "ArrivalTime": "20:57",
          "DepartureTime": "20:57",
          "HaltMinutes": "&nbsp;",
          "Day": 1,
          "Latitude": 18.64126,
          "Longitude": 73.07978,
          "stopNumberDisplay": "5.16",
          "Distance": "437.2"
        },
        {
          "StationName": "Pen",
          "StationCode": "PEN",
          "ArrivalTime": "21:10",
          "DepartureTime": "21:10",
          "HaltMinutes": "&nbsp;",
          "Day": 1,
          "Latitude": 18.73929,
          "Longitude": 73.08757,
          "stopNumberDisplay": "5.17",
          "Distance": "450.7"
        },
        {
          "StationName": "Hamarapur",
          "StationCode": "HMRR",
          "ArrivalTime": "21:20",
          "DepartureTime": "21:20",
          "HaltMinutes": "&nbsp;",
          "Day": 1,
          "Latitude": 18.81998,
          "Longitude": 73.08669,
          "stopNumberDisplay": "5.18",
          "Distance": "460.8"
        },
        {
          "StationName": "Jite",
          "StationCode": "JITE",
          "ArrivalTime": "21:25",
          "DepartureTime": "21:25",
          "HaltMinutes": "&nbsp;",
          "Day": 1,
          "Latitude": 18.84202,
          "Longitude": 73.11982,
          "stopNumberDisplay": "5.19",
          "Distance": "465.6"
        },
        {
          "StationName": "Apta",
          "StationCode": "APTA",
          "ArrivalTime": "21:30",
          "DepartureTime": "21:30",
          "HaltMinutes": "&nbsp;",
          "Day": 1,
          "Latitude": 18.86361,
          "Longitude": 73.15291,
          "stopNumberDisplay": "5.20",
          "Distance": "470.2"
        },
        {
          "StationName": "Rasayani",
          "StationCode": "RSYI",
          "ArrivalTime": "21:33",
          "DepartureTime": "21:33",
          "HaltMinutes": "&nbsp;",
          "Day": 1,
          "Latitude": 18.89386,
          "Longitude": 73.15179,
          "stopNumberDisplay": "5.21",
          "Distance": "473.7"
        },
        {
          "StationName": "Somatne",
          "StationCode": "SMNE",
          "ArrivalTime": "21:40",
          "DepartureTime": "21:40",
          "HaltMinutes": "&nbsp;",
          "Day": 1,
          "Latitude": 18.95167,
          "Longitude": 73.14523,
          "stopNumberDisplay": "5.22",
          "Distance": "480.4"
        }
      ],
      "TrainNo": 22116,
      "StationCode": "CHI",
      "RouteNo": null,
      "StopNumber": 5,
      "TrainMappingKey": null,
      "StationName": "Chiplun",
      "ArrivalTime": "18:22",
      "DepartureTime": "18:24",
      "HaltMinutes": "2m",
      "Distance": "282.8",
      "HasWifi": false,
      "Day": 1,
      "DataChanged": false,
      "ExpectedPlatformNo": "1",
      "arrivalDelay": "01 Hr 06 Min",
      "departureDelay": "01 Hr 06 Min",
      "Latitude": 17.54203,
      "Longitude": 73.52207,
      "stopNumberDisplay": 5
    },
    {
      "intermediateStations": [
        {
          "StationName": "Kalamboli Goods Shed",
          "StationCode": "KLMG",
          "ArrivalTime": "21:52",
          "DepartureTime": "21:52",
          "HaltMinutes": "&nbsp;",
          "Day": 1,
          "Latitude": 19.040256,
          "Longitude": 73.111902,
          "stopNumberDisplay": "6.1",
          "Distance": "490.6"
        },
        {
          "StationName": "Kalamboli",
          "StationCode": "KLMC",
          "ArrivalTime": "21:53",
          "DepartureTime": "21:53",
          "HaltMinutes": "&nbsp;",
          "Day": 1,
          "Latitude": 19.03522,
          "Longitude": 73.11451,
          "stopNumberDisplay": "6.2",
          "Distance": "490.7"
        },
        {
          "StationName": "Navade Road",
          "StationCode": "NVRD",
          "ArrivalTime": "21:55",
          "DepartureTime": "21:55",
          "HaltMinutes": "&nbsp;",
          "Day": 1,
          "Latitude": 19.05303,
          "Longitude": 73.10337,
          "stopNumberDisplay": "6.3",
          "Distance": "493.1"
        },
        {
          "StationName": "Taloje Panchnand",
          "StationCode": "TPND",
          "ArrivalTime": "21:59",
          "DepartureTime": "21:59",
          "HaltMinutes": "&nbsp;",
          "Day": 1,
          "Latitude": 19.07914,
          "Longitude": 73.08807,
          "stopNumberDisplay": "6.4",
          "Distance": "496.5"
        },
        {
          "StationName": "Nilaje",
          "StationCode": "NIIJ",
          "ArrivalTime": "22:08",
          "DepartureTime": "22:08",
          "HaltMinutes": "&nbsp;",
          "Day": 1,
          "Latitude": 19.15562,
          "Longitude": 73.08002,
          "stopNumberDisplay": "6.5",
          "Distance": "505.1"
        },
        {
          "StationName": "Datiwali",
          "StationCode": "DTVL",
          "ArrivalTime": "22:13",
          "DepartureTime": "22:13",
          "HaltMinutes": "&nbsp;",
          "Day": 1,
          "Latitude": 19.18697,
          "Longitude": 73.05952,
          "stopNumberDisplay": "6.6",
          "Distance": "509.3"
        },
        {
          "StationName": "Diva Jn",
          "StationCode": "DIVA",
          "ArrivalTime": "22:15",
          "DepartureTime": "22:15",
          "HaltMinutes": "&nbsp;",
          "Day": 1,
          "Latitude": 19.18884,
          "Longitude": 73.04291,
          "stopNumberDisplay": "6.7",
          "Distance": "511.2"
        },
        {
          "StationName": "Parsik Tunnel",
          "StationCode": "YY-PSKT",
          "ArrivalTime": "22:19",
          "DepartureTime": "22:19",
          "HaltMinutes": "&nbsp;",
          "Day": 1,
          "Latitude": null,
          "Longitude": null,
          "stopNumberDisplay": "6.8",
          "Distance": "515.0"
        },
        {
          "StationName": "Thane B Cabin",
          "StationCode": "XX-TNAB",
          "ArrivalTime": "22:20",
          "DepartureTime": "22:20",
          "HaltMinutes": "&nbsp;",
          "Day": 1,
          "Latitude": 19.19128,
          "Longitude": 72.99957,
          "stopNumberDisplay": "6.9",
          "Distance": "515.9"
        }
      ],
      "TrainNo": 22116,
      "StationCode": "PNVL",
      "RouteNo": null,
      "StopNumber": 6,
      "TrainMappingKey": null,
      "StationName": "Panvel Jn",
      "ArrivalTime": "21:45",
      "DepartureTime": "21:47",
      "HaltMinutes": "2m",
      "Distance": "485.6",
      "HasWifi": false,
      "Day": 1,
      "DataChanged": false,
      "ExpectedPlatformNo": "5",
      "arrivalDelay": "32 Min",
      "departureDelay": "32 Min",
      "Latitude": null,
      "Longitude": null,
      "stopNumberDisplay": 6
    },
    {
      "intermediateStations": [
        {
          "StationName": "Mulund",
          "StationCode": "MLND",
          "ArrivalTime": "22:36",
          "DepartureTime": "22:36",
          "HaltMinutes": "&nbsp;",
          "Day": 1,
          "Latitude": 19.17173,
          "Longitude": 72.95663,
          "stopNumberDisplay": "7.1",
          "Distance": "521.2"
        },
        {
          "StationName": "Mulund Depot",
          "StationCode": "CRNM",
          "ArrivalTime": "22:41",
          "DepartureTime": "22:41",
          "HaltMinutes": "&nbsp;",
          "Day": 1,
          "Latitude": 19.1638,
          "Longitude": 72.95099,
          "stopNumberDisplay": "7.2",
          "Distance": "522.3"
        },
        {
          "StationName": "Nahur",
          "StationCode": "NHU",
          "ArrivalTime": "22:46",
          "DepartureTime": "22:46",
          "HaltMinutes": "&nbsp;",
          "Day": 1,
          "Latitude": 19.15452,
          "Longitude": 72.94683,
          "stopNumberDisplay": "7.3",
          "Distance": "523.4"
        },
        {
          "StationName": "Bhandup",
          "StationCode": "BND",
          "ArrivalTime": "22:53",
          "DepartureTime": "22:53",
          "HaltMinutes": "&nbsp;",
          "Day": 1,
          "Latitude": 19.14228,
          "Longitude": 72.93779,
          "stopNumberDisplay": "7.4",
          "Distance": "525.0"
        },
        {
          "StationName": "Kanjur Marg",
          "StationCode": "KJRD",
          "ArrivalTime": "23:01",
          "DepartureTime": "23:01",
          "HaltMinutes": "&nbsp;",
          "Day": 1,
          "Latitude": null,
          "Longitude": null,
          "stopNumberDisplay": "7.5",
          "Distance": "526.9"
        },
        {
          "StationName": "Vikhroli",
          "StationCode": "VK",
          "ArrivalTime": "23:08",
          "DepartureTime": "23:08",
          "HaltMinutes": "&nbsp;",
          "Day": 1,
          "Latitude": 19.11194,
          "Longitude": 72.92847,
          "stopNumberDisplay": "7.6",
          "Distance": "528.7"
        },
        {
          "StationName": "Ghatkopar",
          "StationCode": "GC",
          "ArrivalTime": "23:24",
          "DepartureTime": "23:24",
          "HaltMinutes": "&nbsp;",
          "Day": 1,
          "Latitude": 19.0856,
          "Longitude": 72.90812,
          "stopNumberDisplay": "7.7",
          "Distance": "532.5"
        },
        {
          "StationName": "Vidyavihar",
          "StationCode": "VVH",
          "ArrivalTime": "23:30",
          "DepartureTime": "23:30",
          "HaltMinutes": "&nbsp;",
          "Day": 1,
          "Latitude": 19.07964,
          "Longitude": 72.89761,
          "stopNumberDisplay": "7.8",
          "Distance": "533.8"
        }
      ],
      "TrainNo": 22116,
      "StationCode": "TNA",
      "RouteNo": null,
      "StopNumber": 7,
      "TrainMappingKey": null,
      "StationName": "Thane",
      "ArrivalTime": "22:23",
      "DepartureTime": "22:25",
      "HaltMinutes": "2m",
      "Distance": "518.5",
      "HasWifi": true,
      "Day": 1,
      "DataChanged": false,
      "ExpectedPlatformNo": null,
      "arrivalDelay": "-",
      "departureDelay": "-",
      "Latitude": 19.18586,
      "Longitude": 72.97627,
      "stopNumberDisplay": 7
    },
    {
      "intermediateStations": [],
      "TrainNo": 22116,
      "StationCode": "LTT",
      "RouteNo": null,
      "StopNumber": 8,
      "TrainMappingKey": null,
      "StationName": "Mumbai LTT",
      "ArrivalTime": "23:35",
      "DepartureTime": "",
      "HaltMinutes": "",
      "Distance": "535.0",
      "HasWifi": false,
      "Day": 1,
      "DataChanged": false,
      "ExpectedPlatformNo": null,
      "arrivalDelay": "-",
      "departureDelay": "-",
      "Latitude": null,
      "Longitude": null,
      "stopNumberDisplay": 8
    }
  ],
  "Source": "Karmali",
  "Destination": "Mumbai Lokmanya Tilak Terminus",
  "SourceCode": "KRMI",
  "DestinationCode": "LTT",
  "DaysOfRun": {
    "Sun": false,
    "Mon": false,
    "Tue": false,
    "Wed": false,
    "Thu": true,
    "Fri": false,
    "Sat": false
  },
  "FooterText": null,
  "TrainType": null,
  "IsUnreserved": false,
  "Rating": 3.9,
  "FoodRating": 3.6,
  "PunctualityRating": 4,
  "CleanlinessRating": 4.2,
  "RatingCount": 130,
  "TotalDuration": "9:35",
  "FromCity": "GOA",
  "ToCity": "MUMBAI",
  "CacheTime": "2024-03-09T18:30:35.7385664+05:30",
  "HasPantry": true,
  "ErrorMsg": null
}