{
  "TrainName": "BDTS BVC SPL",
  "TrainNo": 9207,
  "TrainNumberString": null,
  "CoachPosition": null,
  "Classes": [
    "2A",
    "3A",
    "SL"
  ],
  "Schedule": [
    {
      "intermediateStations": [
        {
          "StationName": "Santa Cruz",
          "StationCode": "STC",
          "ArrivalTime": "09:34",
          "DepartureTime": "09:34",
          "HaltMinutes": "&nbsp;",
          "Day": 1,
          "Latitude": 19.08156,
          "Longitude": 72.84164,
          "stopNumberDisplay": "1.1",
          "Distance": "2.1"
        },
        {
          "StationName": "Ville Parle",
          "StationCode": "VLP",
          "ArrivalTime": "09:37",
          "DepartureTime": "09:37",
          "HaltMinutes": "&nbsp;",
          "Day": 1,
          "Latitude": 19.10004,
          "Longitude": 72.84406,
          "stopNumberDisplay": "1.2",
          "Distance": "4.0"
        },
        {
          "StationName": "Andheri",
          "StationCode": "ADH",
          "ArrivalTime": "09:41",
          "DepartureTime": "09:41",
          "HaltMinutes": "&nbsp;",
          "Day": 1,
          "Latitude": null,
          "Longitude": null,
          "stopNumberDisplay": "1.3",
          "Distance": "6.1"
        },
        {
          "StationName": "Jogeshwari",
          "StationCode": "JOS",
          "ArrivalTime": "09:45",
          "DepartureTime": "09:45",
          "HaltMinutes": "&nbsp;",
          "Day": 1,
          "Latitude": 19.13647,
          "Longitude": 72.84896,
          "stopNumberDisplay": "1.4",
          "Distance": "8.1"
        },
        {
          "StationName": "Ram Mandir",
          "StationCode": "RMAR",
          "ArrivalTime": "09:48",
          "DepartureTime": "09:48",
          "HaltMinutes": "&nbsp;",
          "Day": 1,
          "Latitude": 19.15168,
          "Longitude": 72.85023,
          "stopNumberDisplay": "1.5",
          "Distance": "9.7"
        },
        {
          "StationName": "Goregaon",
          "StationCode": "GMN",
          "ArrivalTime": "09:51",
          "DepartureTime": "09:51",
          "HaltMinutes": "&nbsp;",
          "Day": 1,
          "Latitude": 19.16461,
          "Longitude": 72.84961,
          "stopNumberDisplay": "1.6",
          "Distance": "11.2"
        },
        {
          "StationName": "Malad",
          "StationCode": "MDD",
          "ArrivalTime": "09:55",
          "DepartureTime": "09:55",
          "HaltMinutes": "&nbsp;",
          "Day": 1,
          "Latitude": 19.18723,
          "Longitude": 72.84898,
          "stopNumberDisplay": "1.7",
          "Distance": "13.7"
        },
        {
          "StationName": "Kandivli",
          "StationCode": "KILE",
          "ArrivalTime": "09:59",
          "DepartureTime": "09:59",
          "HaltMinutes": "&nbsp;",
          "Day": 1,
          "Latitude": 19.20451,
          "Longitude": 72.85199,
          "stopNumberDisplay": "1.8",
          "Distance": "15.6"
        },
        {
          "StationName": "Kandivli EMU Shed",
          "StationCode": "KDKC",
          "ArrivalTime": "10:00",
          "DepartureTime": "10:00",
          "HaltMinutes": "&nbsp;",
          "Day": 1,
          "Latitude": null,
          "Longitude": null,
          "stopNumberDisplay": "1.9",
          "Distance": "16.4"
        }
      ],
      "TrainNo": 9207,
      "StationCode": "BDTS",
      "RouteNo": null,
      "StopNumber": 1,
      "TrainMappingKey": null,
      "StationName": "Mumbai Bandra Trm",
      "ArrivalTime": "",
      "DepartureTime": "09:30",
      "HaltMinutes": "",
      "Distance": "0.0",
      "HasWifi": false,
      "Day": 1,
      "DataChanged": false,
      "ExpectedPlatformNo": null,
      "arrivalDelay": "-",
      "departureDelay": "-",
      "Latitude": null,
      "Longitude": null,
      "stopNumberDisplay": 1
    },
    {
      "intermediateStations": [
        {
          "StationName": "Dahisar",
          "StationCode": "DIC",
          "ArrivalTime": "10:09",
          "DepartureTime": "10:09",
          "HaltMinutes": "&nbsp;",
          "Day": 1,
          "Latitude": 19.25007,
          "Longitude": 72.85917,
          "stopNumberDisplay": "2.1",
          "Distance": "20.8"
        },
        {
          "StationName": "Mira Road",
          "StationCode": "MIRA",
          "ArrivalTime": "10:12",
          "DepartureTime": "10:12",
          "HaltMinutes": "&nbsp;",
          "Day": 1,
          "Latitude": 19.27972,
          "Longitude": 72.85612,
          "stopNumberDisplay": "2.2",
          "Distance": "24.1"
        },
        {
          "StationName": "Bhayandar",
          "StationCode": "BYR",
          "ArrivalTime": "10:16",
          "DepartureTime": "10:16",
          "HaltMinutes": "&nbsp;",
          "Day": 1,
          "Latitude": 19.31093,
          "Longitude": 72.8526,
          "stopNumberDisplay": "2.3",
          "Distance": "27.6"
        },
        {
          "StationName": "Naigaon",
          "StationCode": "NIG",
          "ArrivalTime": "10:20",
          "DepartureTime": "10:20",
          "HaltMinutes": "&nbsp;",
          "Day": 1,
          "Latitude": 19.35147,
          "Longitude": 72.84621,
          "stopNumberDisplay": "2.4",
          "Distance": "32.2"
        },
        {
          "StationName": "Vasai Road",
          "StationCode": "BSR",
          "ArrivalTime": "10:24",
          "DepartureTime": "10:24",
          "HaltMinutes": "&nbsp;",
          "Day": 1,
          "Latitude": null,
          "Longitude": null,
          "stopNumberDisplay": "2.5",
          "Distance": "36.0"
        },
        {
          "StationName": "Nalla Sopara",
          "StationCode": "NSP",
          "ArrivalTime": "10:28",
          "DepartureTime": "10:28",
          "HaltMinutes": "&nbsp;",
          "Day": 1,
          "Latitude": 19.4174,
          "Longitude": 72.819,
          "stopNumberDisplay": "2.6",
          "Distance": "40.1"
        },
        {
          "StationName": "Virar Carshed",
          "StationCode": "VCSV",
          "ArrivalTime": "10:30",
          "DepartureTime": "10:30",
          "HaltMinutes": "&nbsp;",
          "Day": 1,
          "Latitude": null,
          "Longitude": null,
          "stopNumberDisplay": "2.7",
          "Distance": "42.0"
        },
        {
          "StationName": "Virar",
          "StationCode": "VR",
          "ArrivalTime": "10:32",
          "DepartureTime": "10:32",
          "HaltMinutes": "&nbsp;",
          "Day": 1,
          "Latitude": null,
          "Longitude": null,
          "stopNumberDisplay": "2.8",
          "Distance": "44.3"
        },
        {
          "StationName": "Vaitarna",
          "StationCode": "VTN",
          "ArrivalTime": "10:40",
          "DepartureTime": "10:40",
          "HaltMinutes": "&nbsp;",
          "Day": 1,
          "Latitude": 19.5179,
          "Longitude": 72.8502,
          "stopNumberDisplay": "2.9",
          "Distance": "52.8"
        },
        {
          "StationName": "Saphale",
          "StationCode": "SAH",
          "ArrivalTime": "10:48",
          "DepartureTime": "10:48",
          "HaltMinutes": "&nbsp;",
          "Day": 1,
          "Latitude": 19.5767,
          "Longitude": 72.8219,
          "stopNumberDisplay": "2.10",
          "Distance": "60.7"
        },
        {
          "StationName": "Kelve Road",
          "StationCode": "KLV",
          "ArrivalTime": "10:54",
          "DepartureTime": "10:54",
          "HaltMinutes": "&nbsp;",
          "Day": 1,
          "Latitude": 19.6246,
          "Longitude": 72.7911,
          "stopNumberDisplay": "2.11",
          "Distance": "67.0"
        },
        {
          "StationName": "Palghar",
          "StationCode": "PLG",
          "ArrivalTime": "11:02",
          "DepartureTime": "11:02",
          "HaltMinutes": "&nbsp;",
          "Day": 1,
          "Latitude": null,
          "Longitude": null,
          "stopNumberDisplay": "2.12",
          "Distance": "75.4"
        },
        {
          "StationName": "Umroli",
          "StationCode": "UOI",
          "ArrivalTime": "11:08",
          "DepartureTime": "11:08",
          "HaltMinutes": "&nbsp;",
          "Day": 1,
          "Latitude": 19.7544,
          "Longitude": 72.7604,
          "stopNumberDisplay": "2.13",
          "Distance": "82.0"
        },
        {
          "StationName": "Boisar",
          "StationCode": "BOR",
          "ArrivalTime": "11:13",
          "DepartureTime": "11:13",
          "HaltMinutes": "&nbsp;",
          "Day": 1,
          "Latitude": 19.7983,
          "Longitude": 72.7616,
          "stopNumberDisplay": "2.14",
          "Distance": "86.7"
        },
        {
          "StationName": "Vangaon",
          "StationCode": "VGN",
          "ArrivalTime": "11:22",
          "DepartureTime": "11:22",
          "HaltMinutes": "&nbsp;",
          "Day": 1,
          "Latitude": 19.883,
          "Longitude": 72.7633,
          "stopNumberDisplay": "2.15",
          "Distance": "96.1"
        },
        {
          "StationName": "Dahanu Road",
          "StationCode": "DRD",
          "ArrivalTime": "11:33",
          "DepartureTime": "11:33",
          "HaltMinutes": "&nbsp;",
          "Day": 1,
          "Latitude": null,
          "Longitude": null,
          "stopNumberDisplay": "2.16",
          "Distance": "108.4"
        },
        {
          "StationName": "Gholvad",
          "StationCode": "GVD",
          "ArrivalTime": "11:44",
          "DepartureTime": "11:44",
          "HaltMinutes": "&nbsp;",
          "Day": 1,
          "Latitude": 20.087,
          "Longitude": 72.7381,
          "stopNumberDisplay": "2.17",
          "Distance": "119.5"
        },
        {
          "StationName": "Bordi Road",
          "StationCode": "BRRD",
          "ArrivalTime": "11:49",
          "DepartureTime": "11:49",
          "HaltMinutes": "&nbsp;",
          "Day": 1,
          "Latitude": 20.12249,
          "Longitude": 72.766,
          "stopNumberDisplay": "2.18",
          "Distance": "124.5"
        },
        {
          "StationName": "Umargam Road",
          "StationCode": "UBR",
          "ArrivalTime": "11:53",
          "DepartureTime": "11:53",
          "HaltMinutes": "&nbsp;",
          "Day": 1,
          "Latitude": 20.1533,
          "Longitude": 72.7904,
          "stopNumberDisplay": "2.19",
          "Distance": "128.9"
        },
        {
          "StationName": "Sanjan",
          "StationCode": "SJN",
          "ArrivalTime": "11:58",
          "DepartureTime": "11:58",
          "HaltMinutes": "&nbsp;",
          "Day": 1,
          "Latitude": 20.192,
          "Longitude": 72.821,
          "stopNumberDisplay": "2.20",
          "Distance": "134.1"
        },
        {
          "StationName": "Bhilad",
          "StationCode": "BLD",
          "ArrivalTime": "12:09",
          "DepartureTime": "12:09",
          "HaltMinutes": "&nbsp;",
          "Day": 1,
          "Latitude": 20.2755,
          "Longitude": 72.8875,
          "stopNumberDisplay": "2.21",
          "Distance": "145.6"
        },
        {
          "StationName": "Karambeli",
          "StationCode": "KEB",
          "ArrivalTime": "12:14",
          "DepartureTime": "12:14",
          "HaltMinutes": "&nbsp;",
          "Day": 1,
          "Latitude": 20.3159,
          "Longitude": 72.90139,
          "stopNumberDisplay": "2.22",
          "Distance": "150.5"
        }
      ],
      "TrainNo": 9207,
      "StationCode": "BVI",
      "RouteNo": null,
      "StopNumber": 2,
      "TrainMappingKey": null,
      "StationName": "Borivali",
      "ArrivalTime": "10:04",
      "DepartureTime": "10:07",
      "HaltMinutes": "3m",
      "Distance": "18.4",
      "HasWifi": false,
      "Day": 1,
      "DataChanged": false,
      "ExpectedPlatformNo": "8",
      "arrivalDelay": "-",
      "departureDelay": "-",
      "Latitude": null,
      "Longitude": null,
      "stopNumberDisplay": 2
    },
    {
      "intermediateStations": [
        {
          "StationName": "Bagwada",
          "StationCode": "BAGD",
          "ArrivalTime": "12:29",
          "DepartureTime": "12:29",
          "HaltMinutes": "&nbsp;",
          "Day": 1,
          "Latitude": 20.4334,
          "Longitude": 72.9162,
          "stopNumberDisplay": "3.1",
          "Distance": "163.7"
        },
        {
          "StationName": "Udvada",
          "StationCode": "UVD",
          "ArrivalTime": "12:32",
          "DepartureTime": "12:32",
          "HaltMinutes": "&nbsp;",
          "Day": 1,
          "Latitude": 20.4593,
          "Longitude": 72.9191,
          "stopNumberDisplay": "3.2",
          "Distance": "166.8"
        },
        {
          "StationName": "Pardi",
          "StationCode": "PAD",
          "ArrivalTime": "12:38",
          "DepartureTime": "12:38",
          "HaltMinutes": "&nbsp;",
          "Day": 1,
          "Latitude": 20.51288,
          "Longitude": 72.9243,
          "stopNumberDisplay": "3.3",
          "Distance": "172.6"
        },
        {
          "StationName": "Atul",
          "StationCode": "ATUL",
          "ArrivalTime": "12:42",
          "DepartureTime": "12:42",
          "HaltMinutes": "&nbsp;",
          "Day": 1,
          "Latitude": 20.5485,
          "Longitude": 72.9277,
          "stopNumberDisplay": "3.4",
          "Distance": "176.3"
        },
        {
          "StationName": "Valsad",
          "StationCode": "BL",
          "ArrivalTime": "12:49",
          "DepartureTime": "12:49",
          "HaltMinutes": "&nbsp;",
          "Day": 1,
          "Latitude": 20.6085,
          "Longitude": 72.934,
          "stopNumberDisplay": "3.5",
          "Distance": "183.1"
        },
        {
          "StationName": "Dungri",
          "StationCode": "DGI",
          "ArrivalTime": "12:58",
          "DepartureTime": "12:58",
          "HaltMinutes": "&nbsp;",
          "Day": 1,
          "Latitude": 20.6874,
          "Longitude": 72.9491,
          "stopNumberDisplay": "3.6",
          "Distance": "192.1"
        },
        {
          "StationName": "Joravasan",
          "StationCode": "JRS",
          "ArrivalTime": "13:04",
          "DepartureTime": "13:04",
          "HaltMinutes": "&nbsp;",
          "Day": 1,
          "Latitude": 20.7301,
          "Longitude": 72.9663,
          "stopNumberDisplay": "3.7",
          "Distance": "197.2"
        },
        {
          "StationName": "Bilimora Jn",
          "StationCode": "BIM",
          "ArrivalTime": "13:08",
          "DepartureTime": "13:08",
          "HaltMinutes": "&nbsp;",
          "Day": 1,
          "Latitude": 20.76552,
          "Longitude": 72.97026,
          "stopNumberDisplay": "3.8",
          "Distance": "201.3"
        },
        {
          "StationName": "Amalsad",
          "StationCode": "AML",
          "ArrivalTime": "13:13",
          "DepartureTime": "13:13",
          "HaltMinutes": "&nbsp;",
          "Day": 1,
          "Latitude": 20.81179,
          "Longitude": 72.95583,
          "stopNumberDisplay": "3.9",
          "Distance": "206.6"
        },
        {
          "StationName": "Ancheli",
          "StationCode": "ACL",
          "ArrivalTime": "13:17",
          "DepartureTime": "13:17",
          "HaltMinutes": "&nbsp;",
          "Day": 1,
          "Latitude": 20.84535,
          "Longitude": 72.94538,
          "stopNumberDisplay": "3.10",
          "Distance": "210.5"
        },
        {
          "StationName": "Vedchha",
          "StationCode": "VDH",
          "ArrivalTime": "13:21",
          "DepartureTime": "13:21",
          "HaltMinutes": "&nbsp;",
          "Day": 1,
          "Latitude": 20.87411,
          "Longitude": 72.93649,
          "stopNumberDisplay": "3.11",
          "Distance": "213.9"
        },
        {
          "StationName": "Hansapore",
          "StationCode": "HXR",
          "ArrivalTime": "13:25",
          "DepartureTime": "13:25",
          "HaltMinutes": "&nbsp;",
          "Day": 1,
          "Latitude": 20.90781,
          "Longitude": 72.92586,
          "stopNumberDisplay": "3.12",
          "Distance": "217.7"
        },
        {
          "StationName": "Gandhi Smriti",
          "StationCode": "GNST",
          "ArrivalTime": "13:26",
          "DepartureTime": "13:26",
          "HaltMinutes": "&nbsp;",
          "Day": 1,
          "Latitude": 20.91952,
          "Longitude": 72.9222,
          "stopNumberDisplay": "3.13",
          "Distance": "219.2"
        },
        {
          "StationName": "Navsari",
          "StationCode": "NVS",
          "ArrivalTime": "13:29",
          "DepartureTime": "13:29",
          "HaltMinutes": "&nbsp;",
          "Day": 1,
          "Latitude": 20.94739,
          "Longitude": 72.9135,
          "stopNumberDisplay": "3.14",
          "Distance": "222.3"
        },
        {
          "StationName": "Maroli",
          "StationCode": "MRL",
          "ArrivalTime": "13:38",
          "DepartureTime": "13:38",
          "HaltMinutes": "&nbsp;",
          "Day": 1,
          "Latitude": 21.0202,
          "Longitude": 72.89063,
          "stopNumberDisplay": "3.15",
          "Distance": "230.8"
        },
        {
          "StationName": "Sachin",
          "StationCode": "SCH",
          "ArrivalTime": "13:45",
          "DepartureTime": "13:45",
          "HaltMinutes": "&nbsp;",
          "Day": 1,
          "Latitude": 21.07791,
          "Longitude": 72.87455,
          "stopNumberDisplay": "3.16",
          "Distance": "237.4"
        },
        {
          "StationName": "Bhestan",
          "StationCode": "BHET",
          "ArrivalTime": "13:50",
          "DepartureTime": "13:50",
          "HaltMinutes": "&nbsp;",
          "Day": 1,
          "Latitude": 21.12253,
          "Longitude": 72.86329,
          "stopNumberDisplay": "3.17",
          "Distance": "242.5"
        },
        {
          "StationName": "Udhna Bypass Cabin",
          "StationCode": "XX-UDNB",
          "ArrivalTime": "13:53",
          "DepartureTime": "13:53",
          "HaltMinutes": "&nbsp;",
          "Day": 1,
          "Latitude": 21.141529,
          "Longitude": 72.858531,
          "stopNumberDisplay": "3.18",
          "Distance": "244.8"
        },
        {
          "StationName": "Udhna Jn",
          "StationCode": "UDN",
          "ArrivalTime": "13:56",
          "DepartureTime": "13:56",
          "HaltMinutes": "&nbsp;",
          "Day": 1,
          "Latitude": 21.17047,
          "Longitude": 72.85115,
          "stopNumberDisplay": "3.19",
          "Distance": "247.9"
        }
      ],
      "TrainNo": 9207,
      "StationCode": "VAPI",
      "RouteNo": null,
      "StopNumber": 3,
      "TrainMappingKey": null,
      "StationName": "Vapi",
      "ArrivalTime": "12:20",
      "DepartureTime": "12:22",
      "HaltMinutes": "2m",
      "Distance": "156.9",
      "HasWifi": true,
      "Day": 1,
      "DataChanged": false,
      "ExpectedPlatformNo": null,
      "arrivalDelay": "-",
      "departureDelay": "-",
      "Latitude": 20.3735,
      "Longitude": 72.9089,
      "stopNumberDisplay": 3
    },
    {
      "intermediateStations": [
        {
          "StationName": "Utran",
          "StationCode": "URN",
          "ArrivalTime": "14:08",
          "DepartureTime": "14:08",
          "HaltMinutes": "&nbsp;",
          "Day": 1,
          "Latitude": 21.233505,
          "Longitude": 72.855276,
          "stopNumberDisplay": "4.1",
          "Distance": "255.6"
        },
        {
          "StationName": "Kosad",
          "StationCode": "KSE",
          "ArrivalTime": "14:11",
          "DepartureTime": "14:11",
          "HaltMinutes": "&nbsp;",
          "Day": 1,
          "Latitude": 21.261446,
          "Longitude": 72.867772,
          "stopNumberDisplay": "4.2",
          "Distance": "259.0"
        },
        {
          "StationName": "Gothangam",
          "StationCode": "GTX",
          "ArrivalTime": "14:14",
          "DepartureTime": "14:14",
          "HaltMinutes": "&nbsp;",
          "Day": 1,
          "Latitude": 21.290797,
          "Longitude": 72.879292,
          "stopNumberDisplay": "4.3",
          "Distance": "262.5"
        },
        {
          "StationName": "Sayan",
          "StationCode": "SYN",
          "ArrivalTime": "14:16",
          "DepartureTime": "14:16",
          "HaltMinutes": "&nbsp;",
          "Day": 1,
          "Latitude": 21.317108,
          "Longitude": 72.890153,
          "stopNumberDisplay": "4.4",
          "Distance": "265.6"
        },
        {
          "StationName": "Kudsad",
          "StationCode": "KDSD",
          "ArrivalTime": "14:22",
          "DepartureTime": "14:22",
          "HaltMinutes": "&nbsp;",
          "Day": 1,
          "Latitude": 21.376695,
          "Longitude": 72.916344,
          "stopNumberDisplay": "4.5",
          "Distance": "272.8"
        },
        {
          "StationName": "Kim",
          "StationCode": "KIM",
          "ArrivalTime": "14:25",
          "DepartureTime": "14:25",
          "HaltMinutes": "&nbsp;",
          "Day": 1,
          "Latitude": 21.399751,
          "Longitude": 72.926518,
          "stopNumberDisplay": "4.6",
          "Distance": "275.5"
        },
        {
          "StationName": "Kosamba Jn",
          "StationCode": "KSB",
          "ArrivalTime": "14:31",
          "DepartureTime": "14:31",
          "HaltMinutes": "&nbsp;",
          "Day": 1,
          "Latitude": 21.46404,
          "Longitude": 72.95478,
          "stopNumberDisplay": "4.7",
          "Distance": "283.3"
        },
        {
          "StationName": "Hathuran",
          "StationCode": "HAT",
          "ArrivalTime": "14:35",
          "DepartureTime": "14:35",
          "HaltMinutes": "&nbsp;",
          "Day": 1,
          "Latitude": 21.5012,
          "Longitude": 72.9698,
          "stopNumberDisplay": "4.8",
          "Distance": "287.7"
        },
        {
          "StationName": "Panoli",
          "StationCode": "PAO",
          "ArrivalTime": "14:38",
          "DepartureTime": "14:38",
          "HaltMinutes": "&nbsp;",
          "Day": 1,
          "Latitude": 21.5351,
          "Longitude": 72.9781,
          "stopNumberDisplay": "4.9",
          "Distance": "291.5"
        },
        {
          "StationName": "Sanjali",
          "StationCode": "SNJL",
          "ArrivalTime": "14:42",
          "DepartureTime": "14:42",
          "HaltMinutes": "&nbsp;",
          "Day": 1,
          "Latitude": 21.572,
          "Longitude": 72.9877,
          "stopNumberDisplay": "4.10",
          "Distance": "296.1"
        },
        {
          "StationName": "Ankleshwar Jn",
          "StationCode": "AKV",
          "ArrivalTime": "14:47",
          "DepartureTime": "14:47",
          "HaltMinutes": "&nbsp;",
          "Day": 1,
          "Latitude": 21.6264236,
          "Longitude": 73.0151984,
          "stopNumberDisplay": "4.11",
          "Distance": "301.8"
        },
        {
          "StationName": "Concor Depot",
          "StationCode": "CCTA",
          "ArrivalTime": "14:47",
          "DepartureTime": "14:47",
          "HaltMinutes": "&nbsp;",
          "Day": 1,
          "Latitude": 21.63143,
          "Longitude": 73.00292,
          "stopNumberDisplay": "4.12",
          "Distance": "302.5"
        },
        {
          "StationName": "Bharuch Jn",
          "StationCode": "BH",
          "ArrivalTime": "14:54",
          "DepartureTime": "14:54",
          "HaltMinutes": "&nbsp;",
          "Day": 1,
          "Latitude": 21.70339,
          "Longitude": 72.99966,
          "stopNumberDisplay": "4.13",
          "Distance": "311.1"
        },
        {
          "StationName": "Baruch Bypass Cabin",
          "StationCode": "XX-BHBC",
          "ArrivalTime": "14:55",
          "DepartureTime": "14:55",
          "HaltMinutes": "&nbsp;",
          "Day": 1,
          "Latitude": 21.714666,
          "Longitude": 72.997323,
          "stopNumberDisplay": "4.14",
          "Distance": "312.4"
        },
        {
          "StationName": "Chavaj",
          "StationCode": "CVJ",
          "ArrivalTime": "14:59",
          "DepartureTime": "14:59",
          "HaltMinutes": "&nbsp;",
          "Day": 1,
          "Latitude": 21.752306,
          "Longitude": 73.009915,
          "stopNumberDisplay": "4.15",
          "Distance": "316.8"
        },
        {
          "StationName": "Nabipur",
          "StationCode": "NIU",
          "ArrivalTime": "15:04",
          "DepartureTime": "15:04",
          "HaltMinutes": "&nbsp;",
          "Day": 1,
          "Latitude": 21.807108,
          "Longitude": 73.030348,
          "stopNumberDisplay": "4.16",
          "Distance": "323.3"
        },
        {
          "StationName": "Varediya",
          "StationCode": "VRE",
          "ArrivalTime": "15:10",
          "DepartureTime": "15:10",
          "HaltMinutes": "&nbsp;",
          "Day": 1,
          "Latitude": 21.867324,
          "Longitude": 73.052679,
          "stopNumberDisplay": "4.17",
          "Distance": "330.3"
        },
        {
          "StationName": "Palej",
          "StationCode": "PLJ",
          "ArrivalTime": "15:16",
          "DepartureTime": "15:16",
          "HaltMinutes": "&nbsp;",
          "Day": 1,
          "Latitude": 21.921196,
          "Longitude": 73.072526,
          "stopNumberDisplay": "4.18",
          "Distance": "336.6"
        },
        {
          "StationName": "Lakodra Dethan",
          "StationCode": "LKD",
          "ArrivalTime": "15:21",
          "DepartureTime": "15:21",
          "HaltMinutes": "&nbsp;",
          "Day": 1,
          "Latitude": 21.981534,
          "Longitude": 73.094759,
          "stopNumberDisplay": "4.19",
          "Distance": "343.7"
        },
        {
          "StationName": "Miyagam Karjan Jn",
          "StationCode": "MYG",
          "ArrivalTime": "15:28",
          "DepartureTime": "15:28",
          "HaltMinutes": "&nbsp;",
          "Day": 1,
          "Latitude": 22.05098,
          "Longitude": 73.12037,
          "stopNumberDisplay": "4.20",
          "Distance": "351.8"
        },
        {
          "StationName": "Kashipura Sarar",
          "StationCode": "KSPR",
          "ArrivalTime": "15:35",
          "DepartureTime": "15:35",
          "HaltMinutes": "&nbsp;",
          "Day": 1,
          "Latitude": 22.116319,
          "Longitude": 73.144475,
          "stopNumberDisplay": "4.21",
          "Distance": "359.5"
        },
        {
          "StationName": "Itola",
          "StationCode": "ITA",
          "ArrivalTime": "15:38",
          "DepartureTime": "15:38",
          "HaltMinutes": "&nbsp;",
          "Day": 1,
          "Latitude": 22.150368,
          "Longitude": 73.15709,
          "stopNumberDisplay": "4.22",
          "Distance": "363.5"
        },
        {
          "StationName": "Varnama",
          "StationCode": "VRM",
          "ArrivalTime": "15:41",
          "DepartureTime": "15:41",
          "HaltMinutes": "&nbsp;",
          "Day": 1,
          "Latitude": 22.18323,
          "Longitude": 73.169239,
          "stopNumberDisplay": "4.23",
          "Distance": "367.4"
        },
        {
          "StationName": "Makarpura",
          "StationCode": "MPR",
          "ArrivalTime": "15:46",
          "DepartureTime": "15:46",
          "HaltMinutes": "&nbsp;",
          "Day": 1,
          "Latitude": 22.233391,
          "Longitude": 73.175825,
          "stopNumberDisplay": "4.24",
          "Distance": "373.0"
        },
        {
          "StationName": "Vishvamitri Jn",
          "StationCode": "VS",
          "ArrivalTime": "15:51",
          "DepartureTime": "15:51",
          "HaltMinutes": "&nbsp;",
          "Day": 1,
          "Latitude": 22.286138,
          "Longitude": 73.179021,
          "stopNumberDisplay": "4.25",
          "Distance": "378.7"
        }
      ],
      "TrainNo": 9207,
      "StationCode": "ST",
      "RouteNo": null,
      "StopNumber": 4,
      "TrainMappingKey": null,
      "StationName": "Surat",
      "ArrivalTime": "14:00",
      "DepartureTime": "14:05",
      "HaltMinutes": "5m",
      "Distance": "251.9",
      "HasWifi": true,
      "Day": 1,
      "DataChanged": false,
      "ExpectedPlatformNo": null,
      "arrivalDelay": "-",
      "departureDelay": "-",
      "Latitude": 21.205022,
      "Longitude": 72.840901,
      "stopNumberDisplay": 4
    },
    {
      "intermediateStations": [
        {
          "StationName": "Vadodara D Cabin",
          "StationCode": "BRGY",
          "ArrivalTime": "16:02",
          "DepartureTime": "16:02",
          "HaltMinutes": "&nbsp;",
          "Day": 1,
          "Latitude": 22.31669,
          "Longitude": 73.17877,
          "stopNumberDisplay": "5.1",
          "Distance": "385.9"
        },
        {
          "StationName": "Vadodara C Cabin",
          "StationCode": "BDA",
          "ArrivalTime": "16:04",
          "DepartureTime": "16:04",
          "HaltMinutes": "&nbsp;",
          "Day": 1,
          "Latitude": 22.35873,
          "Longitude": 73.14933,
          "stopNumberDisplay": "5.2",
          "Distance": "387.9"
        },
        {
          "StationName": "Bajva",
          "StationCode": "BJW",
          "ArrivalTime": "16:05",
          "DepartureTime": "16:05",
          "HaltMinutes": "&nbsp;",
          "Day": 1,
          "Latitude": 22.36667,
          "Longitude": 73.14346,
          "stopNumberDisplay": "5.3",
          "Distance": "388.9"
        },
        {
          "StationName": "Karachiya Yard",
          "StationCode": "KRCA",
          "ArrivalTime": "16:07",
          "DepartureTime": "16:07",
          "HaltMinutes": "&nbsp;",
          "Day": 1,
          "Latitude": 22.3832,
          "Longitude": 73.13139,
          "stopNumberDisplay": "5.4",
          "Distance": "391.2"
        },
        {
          "StationName": "Ranoli",
          "StationCode": "RNO",
          "ArrivalTime": "16:10",
          "DepartureTime": "16:10",
          "HaltMinutes": "&nbsp;",
          "Day": 1,
          "Latitude": 22.40546,
          "Longitude": 73.11267,
          "stopNumberDisplay": "5.5",
          "Distance": "394.3"
        },
        {
          "StationName": "Nandesari",
          "StationCode": "NDR",
          "ArrivalTime": "16:12",
          "DepartureTime": "16:12",
          "HaltMinutes": "&nbsp;",
          "Day": 1,
          "Latitude": 22.4179,
          "Longitude": 73.09505,
          "stopNumberDisplay": "5.6",
          "Distance": "396.6"
        },
        {
          "StationName": "Vasad Jn",
          "StationCode": "VDA",
          "ArrivalTime": "16:17",
          "DepartureTime": "16:17",
          "HaltMinutes": "&nbsp;",
          "Day": 1,
          "Latitude": 22.45293,
          "Longitude": 73.06013,
          "stopNumberDisplay": "5.7",
          "Distance": "401.9"
        },
        {
          "StationName": "Adas Road",
          "StationCode": "ADD",
          "ArrivalTime": "16:21",
          "DepartureTime": "16:21",
          "HaltMinutes": "&nbsp;",
          "Day": 1,
          "Latitude": 22.4865,
          "Longitude": 73.0343,
          "stopNumberDisplay": "5.8",
          "Distance": "406.6"
        },
        {
          "StationName": "Vadod",
          "StationCode": "VXD",
          "ArrivalTime": "16:25",
          "DepartureTime": "16:25",
          "HaltMinutes": "&nbsp;",
          "Day": 1,
          "Latitude": 22.5141,
          "Longitude": 73.0083,
          "stopNumberDisplay": "5.9",
          "Distance": "410.6"
        },
        {
          "StationName": "Anand Jn",
          "StationCode": "ANND",
          "ArrivalTime": "16:31",
          "DepartureTime": "16:31",
          "HaltMinutes": "&nbsp;",
          "Day": 1,
          "Latitude": 22.5627,
          "Longitude": 72.968,
          "stopNumberDisplay": "5.10",
          "Distance": "417.1"
        },
        {
          "StationName": "Anand Chord Cabin",
          "StationCode": "XX-ANNC",
          "ArrivalTime": "16:31",
          "DepartureTime": "16:31",
          "HaltMinutes": "&nbsp;",
          "Day": 1,
          "Latitude": null,
          "Longitude": null,
          "stopNumberDisplay": "5.11",
          "Distance": "418.0"
        },
        {
          "StationName": "Kanjari Boriyavi Jn",
          "StationCode": "KBRV",
          "ArrivalTime": "16:38",
          "DepartureTime": "16:38",
          "HaltMinutes": "&nbsp;",
          "Day": 1,
          "Latitude": 22.615363,
          "Longitude": 72.921763,
          "stopNumberDisplay": "5.12",
          "Distance": "424.9"
        },
        {
          "StationName": "Utarsanda",
          "StationCode": "UTD",
          "ArrivalTime": "16:43",
          "DepartureTime": "16:43",
          "HaltMinutes": "&nbsp;",
          "Day": 1,
          "Latitude": 22.655064,
          "Longitude": 72.889029,
          "stopNumberDisplay": "5.13",
          "Distance": "430.5"
        }
      ],
      "TrainNo": 9207,
      "StationCode": "BRC",
      "RouteNo": null,
      "StopNumber": 5,
      "TrainMappingKey": null,
      "StationName": "Vadodara Jn",
      "ArrivalTime": "15:53",
      "DepartureTime": "15:58",
      "HaltMinutes": "5m",
      "Distance": "381.6",
      "HasWifi": true,
      "Day": 1,
      "DataChanged": false,
      "ExpectedPlatformNo": null,
      "arrivalDelay": "-",
      "departureDelay": "-",
      "Latitude": 22.3071588,
      "Longitude": 73.1812187,
      "stopNumberDisplay": 5
    },
    {
      "intermediateStations": [
        {
          "StationName": "Gothaj",
          "StationCode": "GTE",
          "ArrivalTime": "17:04",
          "DepartureTime": "17:04",
          "HaltMinutes": "&nbsp;",
          "Day": 1,
          "Latitude": 22.75906,
          "Longitude": 72.8027,
          "stopNumberDisplay": "6.1",
          "Distance": "445.0"
        },
        {
          "StationName": "Mahemdavad Kheda Road",
          "StationCode": "MHD",
          "ArrivalTime": "17:17",
          "DepartureTime": "17:17",
          "HaltMinutes": "&nbsp;",
          "Day": 1,
          "Latitude": 22.81931,
          "Longitude": 72.75212,
          "stopNumberDisplay": "6.2",
          "Distance": "453.5"
        },
        {
          "StationName": "Nenpur",
          "StationCode": "NEP",
          "ArrivalTime": "17:23",
          "DepartureTime": "17:23",
          "HaltMinutes": "&nbsp;",
          "Day": 1,
          "Latitude": 22.8449,
          "Longitude": 72.72686,
          "stopNumberDisplay": "6.3",
          "Distance": "457.3"
        },
        {
          "StationName": "Kanij",
          "StationCode": "KANJ",
          "ArrivalTime": "17:27",
          "DepartureTime": "17:27",
          "HaltMinutes": "&nbsp;",
          "Day": 1,
          "Latitude": 22.86617,
          "Longitude": 72.7059,
          "stopNumberDisplay": "6.4",
          "Distance": "460.5"
        },
        {
          "StationName": "Barejadi Nandej",
          "StationCode": "BJD",
          "ArrivalTime": "17:34",
          "DepartureTime": "17:34",
          "HaltMinutes": "&nbsp;",
          "Day": 1,
          "Latitude": 22.89535,
          "Longitude": 72.67702,
          "stopNumberDisplay": "6.5",
          "Distance": "464.9"
        },
        {
          "StationName": "Geratpur",
          "StationCode": "GER",
          "ArrivalTime": "17:39",
          "DepartureTime": "17:39",
          "HaltMinutes": "&nbsp;",
          "Day": 1,
          "Latitude": 22.91738,
          "Longitude": 72.65562,
          "stopNumberDisplay": "6.6",
          "Distance": "468.2"
        },
        {
          "StationName": "Vatva Yard",
          "StationCode": "VY",
          "ArrivalTime": "17:49",
          "DepartureTime": "17:49",
          "HaltMinutes": "&nbsp;",
          "Day": 1,
          "Latitude": null,
          "Longitude": null,
          "stopNumberDisplay": "6.7",
          "Distance": "472.7"
        },
        {
          "StationName": "Vatva",
          "StationCode": "VTA",
          "ArrivalTime": "17:51",
          "DepartureTime": "17:51",
          "HaltMinutes": "&nbsp;",
          "Day": 1,
          "Latitude": 22.95899,
          "Longitude": 72.62958,
          "stopNumberDisplay": "6.8",
          "Distance": "473.6"
        },
        {
          "StationName": "Maninagar",
          "StationCode": "MAN",
          "ArrivalTime": "18:02",
          "DepartureTime": "18:02",
          "HaltMinutes": "&nbsp;",
          "Day": 1,
          "Latitude": 22.99817,
          "Longitude": 72.61176,
          "stopNumberDisplay": "6.9",
          "Distance": "478.3"
        },
        {
          "StationName": "Kankaria South Cabin",
          "StationCode": "KKEC",
          "ArrivalTime": "18:05",
          "DepartureTime": "18:05",
          "HaltMinutes": "&nbsp;",
          "Day": 1,
          "Latitude": null,
          "Longitude": null,
          "stopNumberDisplay": "6.10",
          "Distance": "479.7"
        },
        {
          "StationName": "Kankaria",
          "StationCode": "KKF",
          "ArrivalTime": "18:05",
          "DepartureTime": "18:05",
          "HaltMinutes": "&nbsp;",
          "Day": 1,
          "Latitude": 23.00951,
          "Longitude": 72.60665,
          "stopNumberDisplay": "6.11",
          "Distance": "479.7"
        }
      ],
      "TrainNo": 9207,
      "StationCode": "ND",
      "RouteNo": null,
      "StopNumber": 6,
      "TrainMappingKey": null,
      "StationName": "Nadiad Jn",
      "ArrivalTime": "16:48",
      "DepartureTime": "16:50",
      "HaltMinutes": "2m",
      "Distance": "435.9",
      "HasWifi": true,
      "Day": 1,
      "DataChanged": false,
      "ExpectedPlatformNo": null,
      "arrivalDelay": "-",
      "departureDelay": "-",
      "Latitude": 22.69399,
      "Longitude": 72.85674,
      "stopNumberDisplay": 6
    },
    {
      "intermediateStations": [
        {
          "StationName": "Sabarmati A Cabin",
          "StationCode": "SBTA",
          "ArrivalTime": "18:34",
          "DepartureTime": "18:34",
          "HaltMinutes": "&nbsp;",
          "Day": 1,
          "Latitude": 23.057654,
          "Longitude": 72.590142,
          "stopNumberDisplay": "7.1",
          "Distance": "485.4"
        },
        {
          "StationName": "Sabarmati Jn",
          "StationCode": "SBT",
          "ArrivalTime": "18:36",
          "DepartureTime": "18:36",
          "HaltMinutes": "&nbsp;",
          "Day": 1,
          "Latitude": 23.077037,
          "Longitude": 72.588806,
          "stopNumberDisplay": "7.2",
          "Distance": "487.0"
        },
        {
          "StationName": "Sabarmati Yard",
          "StationCode": "SMYD",
          "ArrivalTime": "18:36",
          "DepartureTime": "18:36",
          "HaltMinutes": "&nbsp;",
          "Day": 1,
          "Latitude": 23.07773,
          "Longitude": 72.58555,
          "stopNumberDisplay": "7.3",
          "Distance": "487.4"
        },
        {
          "StationName": "Sabarmati F Cabin",
          "StationCode": "SBTF",
          "ArrivalTime": "18:42",
          "DepartureTime": "18:42",
          "HaltMinutes": "&nbsp;",
          "Day": 1,
          "Latitude": 23.07754,
          "Longitude": 72.54922,
          "stopNumberDisplay": "7.4",
          "Distance": "492.0"
        },
        {
          "StationName": "Chandlodiya",
          "StationCode": "CLDY",
          "ArrivalTime": "18:42",
          "DepartureTime": "18:42",
          "HaltMinutes": "&nbsp;",
          "Day": 1,
          "Latitude": 23.0752,
          "Longitude": 72.5438,
          "stopNumberDisplay": "7.5",
          "Distance": "492.6"
        },
        {
          "StationName": "Chandlodiya Outer Cabin",
          "StationCode": "XX-CLDO",
          "ArrivalTime": "18:43",
          "DepartureTime": "18:43",
          "HaltMinutes": "&nbsp;",
          "Day": 1,
          "Latitude": 23.073011,
          "Longitude": 72.538479,
          "stopNumberDisplay": "7.6",
          "Distance": "493.2"
        },
        {
          "StationName": "Ambli Road",
          "StationCode": "ABD",
          "ArrivalTime": "18:49",
          "DepartureTime": "18:49",
          "HaltMinutes": "&nbsp;",
          "Day": 1,
          "Latitude": 23.0535,
          "Longitude": 72.4935,
          "stopNumberDisplay": "7.7",
          "Distance": "498.3"
        },
        {
          "StationName": "Goraghuma",
          "StationCode": "GGM",
          "ArrivalTime": "18:55",
          "DepartureTime": "18:55",
          "HaltMinutes": "&nbsp;",
          "Day": 1,
          "Latitude": 23.0367,
          "Longitude": 72.4455,
          "stopNumberDisplay": "7.8",
          "Distance": "503.5"
        },
        {
          "StationName": "Sanand",
          "StationCode": "SAU",
          "ArrivalTime": "19:02",
          "DepartureTime": "19:02",
          "HaltMinutes": "&nbsp;",
          "Day": 1,
          "Latitude": 23.0242,
          "Longitude": 72.3852,
          "stopNumberDisplay": "7.9",
          "Distance": "509.9"
        },
        {
          "StationName": "Vasan Iyawa",
          "StationCode": "WSE",
          "ArrivalTime": "19:07",
          "DepartureTime": "19:07",
          "HaltMinutes": "&nbsp;",
          "Day": 1,
          "Latitude": 23.0253,
          "Longitude": 72.3362,
          "stopNumberDisplay": "7.10",
          "Distance": "514.9"
        },
        {
          "StationName": "Chharodi",
          "StationCode": "CE",
          "ArrivalTime": "19:15",
          "DepartureTime": "19:15",
          "HaltMinutes": "&nbsp;",
          "Day": 1,
          "Latitude": 23.0359,
          "Longitude": 72.2827,
          "stopNumberDisplay": "7.11",
          "Distance": "521.5"
        },
        {
          "StationName": "Virochannagar",
          "StationCode": "VCN",
          "ArrivalTime": "19:22",
          "DepartureTime": "19:22",
          "HaltMinutes": "&nbsp;",
          "Day": 1,
          "Latitude": 23.0609,
          "Longitude": 72.2278,
          "stopNumberDisplay": "7.12",
          "Distance": "527.6"
        },
        {
          "StationName": "Jakhvada",
          "StationCode": "JKA",
          "ArrivalTime": "19:30",
          "DepartureTime": "19:30",
          "HaltMinutes": "&nbsp;",
          "Day": 1,
          "Latitude": 23.0841,
          "Longitude": 72.1586,
          "stopNumberDisplay": "7.13",
          "Distance": "534.9"
        },
        {
          "StationName": "Sokali",
          "StationCode": "XSK",
          "ArrivalTime": "19:36",
          "DepartureTime": "19:36",
          "HaltMinutes": "&nbsp;",
          "Day": 1,
          "Latitude": 23.0997,
          "Longitude": 72.102,
          "stopNumberDisplay": "7.14",
          "Distance": "540.7"
        },
        {
          "StationName": "Viramgam Jn",
          "StationCode": "VG",
          "ArrivalTime": "19:43",
          "DepartureTime": "19:43",
          "HaltMinutes": "&nbsp;",
          "Day": 1,
          "Latitude": 23.1288,
          "Longitude": 72.05298,
          "stopNumberDisplay": "7.15",
          "Distance": "546.8"
        },
        {
          "StationName": "Viramgam D Cabin",
          "StationCode": "VGDC",
          "ArrivalTime": "19:45",
          "DepartureTime": "19:45",
          "HaltMinutes": "&nbsp;",
          "Day": 1,
          "Latitude": 23.13802,
          "Longitude": 72.04279,
          "stopNumberDisplay": "7.16",
          "Distance": "548.3"
        },
        {
          "StationName": "Vani Road",
          "StationCode": "VNRD",
          "ArrivalTime": "19:52",
          "DepartureTime": "19:52",
          "HaltMinutes": "&nbsp;",
          "Day": 1,
          "Latitude": 23.09453,
          "Longitude": 72.00337,
          "stopNumberDisplay": "7.17",
          "Distance": "557.2"
        },
        {
          "StationName": "Khareshwar Road",
          "StationCode": "KHRS",
          "ArrivalTime": "19:55",
          "DepartureTime": "19:55",
          "HaltMinutes": "&nbsp;",
          "Day": 1,
          "Latitude": 23.0629,
          "Longitude": 71.9813,
          "stopNumberDisplay": "7.18",
          "Distance": "561.4"
        },
        {
          "StationName": "Sabli Road",
          "StationCode": "SR",
          "ArrivalTime": "19:58",
          "DepartureTime": "19:58",
          "HaltMinutes": "&nbsp;",
          "Day": 1,
          "Latitude": 23.0374,
          "Longitude": 71.9558,
          "stopNumberDisplay": "7.19",
          "Distance": "565.3"
        },
        {
          "StationName": "Bhaskarpara",
          "StationCode": "BMM",
          "ArrivalTime": "20:04",
          "DepartureTime": "20:04",
          "HaltMinutes": "&nbsp;",
          "Day": 1,
          "Latitude": 22.9914,
          "Longitude": 71.91,
          "stopNumberDisplay": "7.20",
          "Distance": "572.2"
        },
        {
          "StationName": "Lilapur Road",
          "StationCode": "LPR",
          "ArrivalTime": "20:09",
          "DepartureTime": "20:09",
          "HaltMinutes": "&nbsp;",
          "Day": 1,
          "Latitude": 22.9519,
          "Longitude": 71.8608,
          "stopNumberDisplay": "7.21",
          "Distance": "578.9"
        },
        {
          "StationName": "Kesariya Road",
          "StationCode": "KXZ",
          "ArrivalTime": "20:14",
          "DepartureTime": "20:14",
          "HaltMinutes": "&nbsp;",
          "Day": 1,
          "Latitude": 22.911,
          "Longitude": 71.8172,
          "stopNumberDisplay": "7.22",
          "Distance": "585.3"
        },
        {
          "StationName": "Lakhtar",
          "StationCode": "LTR",
          "ArrivalTime": "20:19",
          "DepartureTime": "20:19",
          "HaltMinutes": "&nbsp;",
          "Day": 1,
          "Latitude": 22.8732,
          "Longitude": 71.7767,
          "stopNumberDisplay": "7.23",
          "Distance": "591.3"
        },
        {
          "StationName": "Bajrangpura",
          "StationCode": "BRGP",
          "ArrivalTime": "20:23",
          "DepartureTime": "20:23",
          "HaltMinutes": "&nbsp;",
          "Day": 1,
          "Latitude": 22.8397,
          "Longitude": 71.7415,
          "stopNumberDisplay": "7.24",
          "Distance": "596.5"
        },
        {
          "StationName": "Bala Road",
          "StationCode": "BLRD",
          "ArrivalTime": "20:28",
          "DepartureTime": "20:28",
          "HaltMinutes": "&nbsp;",
          "Day": 1,
          "Latitude": 22.7976,
          "Longitude": 71.6971,
          "stopNumberDisplay": "7.25",
          "Distance": "602.9"
        },
        {
          "StationName": "Surendranagar East Cabin",
          "StationCode": "SNEC",
          "ArrivalTime": "20:34",
          "DepartureTime": "20:34",
          "HaltMinutes": "&nbsp;",
          "Day": 1,
          "Latitude": null,
          "Longitude": null,
          "stopNumberDisplay": "7.26",
          "Distance": "610.5"
        },
        {
          "StationName": "Surendranagar West Cabin",
          "StationCode": "SUNW",
          "ArrivalTime": "20:35",
          "DepartureTime": "20:35",
          "HaltMinutes": "&nbsp;",
          "Day": 1,
          "Latitude": null,
          "Longitude": null,
          "stopNumberDisplay": "7.27",
          "Distance": "611.6"
        }
      ],
      "TrainNo": 9207,
      "StationCode": "ADI",
      "RouteNo": null,
      "StopNumber": 7,
      "TrainMappingKey": null,
      "StationName": "Ahmedabad Jn",
      "ArrivalTime": "18:10",
      "DepartureTime": "18:30",
      "HaltMinutes": "20m",
      "Distance": "481.7",
      "HasWifi": true,
      "Day": 1,
      "DataChanged": false,
      "ExpectedPlatformNo": null,
      "arrivalDelay": "-",
      "departureDelay": "-",
      "Latitude": 23.02513,
      "Longitude": 72.60165,
      "stopNumberDisplay": 7
    },
    {
      "intermediateStations": [
        {
          "StationName": "Joravarnagar",
          "StationCode": "JVN",
          "ArrivalTime": "20:44",
          "DepartureTime": "20:44",
          "HaltMinutes": "&nbsp;",
          "Day": 1,
          "Latitude": 22.712735,
          "Longitude": 71.640953,
          "stopNumberDisplay": "8.1",
          "Distance": "615.0"
        },
        {
          "StationName": "Wadhwan City",
          "StationCode": "WC",
          "ArrivalTime": "20:47",
          "DepartureTime": "20:47",
          "HaltMinutes": "&nbsp;",
          "Day": 1,
          "Latitude": 22.702724,
          "Longitude": 71.672315,
          "stopNumberDisplay": "8.2",
          "Distance": "618.6"
        },
        {
          "StationName": "Limbdi",
          "StationCode": "LM",
          "ArrivalTime": "21:05",
          "DepartureTime": "21:05",
          "HaltMinutes": "&nbsp;",
          "Day": 1,
          "Latitude": 22.565844,
          "Longitude": 71.789733,
          "stopNumberDisplay": "8.3",
          "Distance": "638.9"
        },
        {
          "StationName": "Chuda",
          "StationCode": "CDA",
          "ArrivalTime": "21:14",
          "DepartureTime": "21:14",
          "HaltMinutes": "&nbsp;",
          "Day": 1,
          "Latitude": 22.495223,
          "Longitude": 71.750287,
          "stopNumberDisplay": "8.4",
          "Distance": "648.9"
        },
        {
          "StationName": "Vejalka",
          "StationCode": "VJK",
          "ArrivalTime": "21:22",
          "DepartureTime": "21:22",
          "HaltMinutes": "&nbsp;",
          "Day": 1,
          "Latitude": 22.418747,
          "Longitude": 71.720258,
          "stopNumberDisplay": "8.5",
          "Distance": "658.0"
        },
        {
          "StationName": "Ranpur",
          "StationCode": "RUR",
          "ArrivalTime": "21:28",
          "DepartureTime": "21:28",
          "HaltMinutes": "&nbsp;",
          "Day": 1,
          "Latitude": 22.359938,
          "Longitude": 71.7172,
          "stopNumberDisplay": "8.6",
          "Distance": "665.2"
        },
        {
          "StationName": "Kundli",
          "StationCode": "KDI",
          "ArrivalTime": "21:37",
          "DepartureTime": "21:37",
          "HaltMinutes": "&nbsp;",
          "Day": 1,
          "Latitude": 22.278218,
          "Longitude": 71.683683,
          "stopNumberDisplay": "8.7",
          "Distance": "676.0"
        }
      ],
      "TrainNo": 9207,
      "StationCode": "SRGT",
      "RouteNo": null,
      "StopNumber": 8,
      "TrainMappingKey": null,
      "StationName": "Surendranagar Gate",
      "ArrivalTime": "20:40",
      "DepartureTime": "20:42",
      "HaltMinutes": "2m",
      "Distance": "612.3",
      "HasWifi": false,
      "Day": 1,
      "DataChanged": false,
      "ExpectedPlatformNo": null,
      "arrivalDelay": "-",
      "departureDelay": "-",
      "Latitude": 22.73501,
      "Longitude": 71.63681,
      "stopNumberDisplay": 8
    },
    {
      "intermediateStations": [
        {
          "StationName": "Lathidad",
          "StationCode": "LTD",
          "ArrivalTime": "22:02",
          "DepartureTime": "22:02",
          "HaltMinutes": "&nbsp;",
          "Day": 1,
          "Latitude": 22.089562,
          "Longitude": 71.70275,
          "stopNumberDisplay": "9.1",
          "Distance": "698.5"
        },
        {
          "StationName": "Ningala",
          "StationCode": "NGA",
          "ArrivalTime": "22:09",
          "DepartureTime": "22:09",
          "HaltMinutes": "&nbsp;",
          "Day": 1,
          "Latitude": 22.027875,
          "Longitude": 71.708862,
          "stopNumberDisplay": "9.2",
          "Distance": "705.7"
        },
        {
          "StationName": "Alampur",
          "StationCode": "ALMR",
          "ArrivalTime": "22:16",
          "DepartureTime": "22:16",
          "HaltMinutes": "&nbsp;",
          "Day": 1,
          "Latitude": 21.960065,
          "Longitude": 71.710874,
          "stopNumberDisplay": "9.3",
          "Distance": "713.5"
        },
        {
          "StationName": "Ujalvav",
          "StationCode": "UJ",
          "ArrivalTime": "22:22",
          "DepartureTime": "22:22",
          "HaltMinutes": "&nbsp;",
          "Day": 1,
          "Latitude": 21.905148,
          "Longitude": 71.704846,
          "stopNumberDisplay": "9.4",
          "Distance": "720.1"
        }
      ],
      "TrainNo": 9207,
      "StationCode": "BTD",
      "RouteNo": null,
      "StopNumber": 9,
      "TrainMappingKey": null,
      "StationName": "Botad Jn",
      "ArrivalTime": "21:47",
      "DepartureTime": "21:52",
      "HaltMinutes": "5m",
      "Distance": "687.5",
      "HasWifi": false,
      "Day": 1,
      "DataChanged": false,
      "ExpectedPlatformNo": null,
      "arrivalDelay": "-",
      "departureDelay": "-",
      "Latitude": 22.1829406,
      "Longitude": 71.6656666,
      "stopNumberDisplay": 9
    },
    {
      "intermediateStations": [
        {
          "StationName": "Sanosra",
          "StationCode": "SOA",
          "ArrivalTime": "22:47",
          "DepartureTime": "22:47",
          "HaltMinutes": "&nbsp;",
          "Day": 1,
          "Latitude": 21.747979,
          "Longitude": 71.789402,
          "stopNumberDisplay": "10.1",
          "Distance": "741.5"
        },
        {
          "StationName": "Bajud",
          "StationCode": "BJUD",
          "ArrivalTime": "22:52",
          "DepartureTime": "22:52",
          "HaltMinutes": "&nbsp;",
          "Day": 1,
          "Latitude": 21.735974,
          "Longitude": 71.829197,
          "stopNumberDisplay": "10.2",
          "Distance": "745.8"
        }
      ],
      "TrainNo": 9207,
      "StationCode": "DLJ",
      "RouteNo": null,
      "StopNumber": 10,
      "TrainMappingKey": null,
      "StationName": "Dhola Jn",
      "ArrivalTime": "22:31",
      "DepartureTime": "22:32",
      "HaltMinutes": "1m",
      "Distance": "730.3",
      "HasWifi": false,
      "Day": 1,
      "DataChanged": false,
      "ExpectedPlatformNo": null,
      "arrivalDelay": "-",
      "departureDelay": "-",
      "Latitude": 21.822698,
      "Longitude": 71.739225,
      "stopNumberDisplay": 10
    },
    {
      "intermediateStations": [
        {
          "StationName": "Mota Surka",
          "StationCode": "MTSK",
          "ArrivalTime": "23:04",
          "DepartureTime": "23:04",
          "HaltMinutes": "&nbsp;",
          "Day": 1,
          "Latitude": 21.724463,
          "Longitude": 71.920325,
          "stopNumberDisplay": "11.1",
          "Distance": "755.3"
        },
        {
          "StationName": "Sihor Jn",
          "StationCode": "SOJN",
          "ArrivalTime": "23:07",
          "DepartureTime": "23:07",
          "HaltMinutes": "&nbsp;",
          "Day": 1,
          "Latitude": 21.72476,
          "Longitude": 71.95706,
          "stopNumberDisplay": "11.2",
          "Distance": "759.2"
        },
        {
          "StationName": "Khodiyar Mandir",
          "StationCode": "KDMR",
          "ArrivalTime": "23:12",
          "DepartureTime": "23:12",
          "HaltMinutes": "&nbsp;",
          "Day": 1,
          "Latitude": 21.73952,
          "Longitude": 72.00488,
          "stopNumberDisplay": "11.3",
          "Distance": "764.6"
        },
        {
          "StationName": "Vartej",
          "StationCode": "VTJ",
          "ArrivalTime": "23:16",
          "DepartureTime": "23:16",
          "HaltMinutes": "&nbsp;",
          "Day": 1,
          "Latitude": 21.74622,
          "Longitude": 72.05508,
          "stopNumberDisplay": "11.4",
          "Distance": "769.8"
        },
        {
          "StationName": "Nari Road",
          "StationCode": "NROD",
          "ArrivalTime": "23:19",
          "DepartureTime": "23:19",
          "HaltMinutes": "&nbsp;",
          "Day": 1,
          "Latitude": 21.75903,
          "Longitude": 72.08195,
          "stopNumberDisplay": "11.5",
          "Distance": "772.9"
        }
      ],
      "TrainNo": 9207,
      "StationCode": "SGD",
      "RouteNo": null,
      "StopNumber": 11,
      "TrainMappingKey": null,
      "StationName": "Songadh",
      "ArrivalTime": "23:00",
      "DepartureTime": "23:01",
      "HaltMinutes": "1m",
      "Distance": "751.8",
      "HasWifi": false,
      "Day": 1,
      "DataChanged": false,
      "ExpectedPlatformNo": null,
      "arrivalDelay": "-",
      "departureDelay": "-",
      "Latitude": 21.728799,
      "Longitude": 71.886376,
      "stopNumberDisplay": 11
    },
    {
      "intermediateStations": [],
      "TrainNo": 9207,
      "StationCode": "BVP",
      "RouteNo": null,
      "StopNumber": 12,
      "TrainMappingKey": null,
      "StationName": "Bhavnagar Para",
      "ArrivalTime": "23:22",
      "DepartureTime": "23:23",
      "HaltMinutes": "1m",
      "Distance": "777.0",
      "HasWifi": false,
      "Day": 1,
      "DataChanged": false,
      "ExpectedPlatformNo": null,
      "arrivalDelay": "-",
      "departureDelay": "-",
      "Latitude": 21.77065,
      "Longitude": 72.11905,
      "stopNumberDisplay": 12
    },
    {
      "intermediateStations": [],
      "TrainNo": 9207,
      "StationCode": "BVC",
      "RouteNo": null,
      "StopNumber": 13,
      "TrainMappingKey": null,
      "StationName": "Bhavnagar Trm",
      "ArrivalTime": "23:45",
      "DepartureTime": "",
      "HaltMinutes": "",
      "Distance": "779.7",
      "HasWifi": true,
      "Day": 1,
      "DataChanged": false,
      "ExpectedPlatformNo": null,
      "arrivalDelay": "-",
      "departureDelay": "-",
      "Latitude": 21.78187,
      "Longitude": 72.14216,
      "stopNumberDisplay": 13
    }
  ],
  "Source": "Bhavnagar Terminus",
  "Destination": "Udhampur",
  "SourceCode": "BVC",
  "DestinationCode": "UHP",
  "DaysOfRun": {
    "Sun": false,
    "Mon": false,
    "Tue": false,
    "Wed": false,
    "Thu": false,
    "Fri": true,
    "Sat": false
  },
  "FooterText": null,
  "TrainType": null,
  "IsUnreserved": false,
  "Rating": 4.2,
  "FoodRating": 3.9,
  "PunctualityRating": 4.2,
  "CleanlinessRating": 4,
  "RatingCount": 51,
  "TotalDuration": "14:15",
  "FromCity": "Bhavnagar",
  "ToCity": "Udhampur",
  "CacheTime": "2024-03-09T15:14:39.1445589+05:30",
  "HasPantry": false,
  "ErrorMsg": null
}